[
  {
    "id": 39330,
    "name": "Allonnes",
    "state_id": 5017,
    "state_code": "49",
    "country_id": 75,
    "country_code": "FR",
    "latitude": "47.29338000",
    "longitude": "0.02458000",
    "native": null,
    "timezone": "Europe/Paris",
    "translations": {}
  },
  {
    "id": 39378,
    "name": "Andard",
    "state_id": 5017,
    "state_code": "49",
    "country_id": 75,
    "country_code": "FR",
    "latitude": "47.45659000",
    "longitude": "-0.39752000",
    "native": null,
    "timezone": "Europe/Paris",
    "translations": {}
  },
  {
    "id": 39389,
    "name": "Andrezé",
    "state_id": 5017,
    "state_code": "49",
    "country_id": 75,
    "country_code": "FR",
    "latitude": "47.17155000",
    "longitude": "-0.95239000",
    "native": null,
    "timezone": "Europe/Paris",
    "translations": {}
  },
  {
    "id": 39396,
    "name": "Angers",
    "state_id": 5017,
    "state_code": "49",
    "country_id": 75,
    "country_code": "FR",
    "latitude": "47.47381000",
    "longitude": "-0.54774000",
    "native": null,
    "timezone": "Europe/Paris",
    "translations": {}
  },
  {
    "id": 39680,
    "name": "Avrillé",
    "state_id": 5017,
    "state_code": "49",
    "country_id": 75,
    "country_code": "FR",
    "latitude": "47.50000000",
    "longitude": "-0.58333000",
    "native": null,
    "timezone": "Europe/Paris",
    "translations": {}
  },
  {
    "id": 39810,
    "name": "Baugé-en-Anjou",
    "state_id": 5017,
    "state_code": "49",
    "country_id": 75,
    "country_code": "FR",
    "latitude": "47.54447000",
    "longitude": "-0.10653000",
    "native": null,
    "timezone": "Europe/Paris",
    "translations": {}
  },
  {
    "id": 39815,
    "name": "Bauné",
    "state_id": 5017,
    "state_code": "49",
    "country_id": 75,
    "country_code": "FR",
    "latitude": "47.49954000",
    "longitude": "-0.31906000",
    "native": null,
    "timezone": "Europe/Paris",
    "translations": {}
  },
  {
    "id": 39842,
    "name": "Beaucouzé",
    "state_id": 5017,
    "state_code": "49",
    "country_id": 75,
    "country_code": "FR",
    "latitude": "47.47444000",
    "longitude": "-0.63016000",
    "native": null,
    "timezone": "Europe/Paris",
    "translations": {}
  },
  {
    "id": 161681,
    "name": "Beaufort-en-Anjou",
    "state_id": 5017,
    "state_code": "49",
    "country_id": 75,
    "country_code": "FR",
    "latitude": "47.43740000",
    "longitude": "-0.20630000",
    "native": null,
    "timezone": "Europe/Paris",
    "translations": {}
  },
  {
    "id": 39847,
    "name": "Beaufort-en-Vallée",
    "state_id": 5017,
    "state_code": "49",
    "country_id": 75,
    "country_code": "FR",
    "latitude": "47.43965000",
    "longitude": "-0.21890000",
    "native": null,
    "timezone": "Europe/Paris",
    "translations": {}
  },
  {
    "id": 39854,
    "name": "Beaulieu-sur-Layon",
    "state_id": 5017,
    "state_code": "49",
    "country_id": 75,
    "country_code": "FR",
    "latitude": "47.31095000",
    "longitude": "-0.58988000",
    "native": null,
    "timezone": "Europe/Paris",
    "translations": {}
  },
  {
    "id": 39876,
    "name": "Beaupréau",
    "state_id": 5017,
    "state_code": "49",
    "country_id": 75,
    "country_code": "FR",
    "latitude": "47.20464000",
    "longitude": "-0.98703000",
    "native": null,
    "timezone": "Europe/Paris",
    "translations": {}
  },
  {
    "id": 161683,
    "name": "Beaupréau-en-Mauges",
    "state_id": 5017,
    "state_code": "49",
    "country_id": 75,
    "country_code": "FR",
    "latitude": "47.20280000",
    "longitude": "-0.98440000",
    "native": null,
    "timezone": "Europe/Paris",
    "translations": {}
  },
  {
    "id": 40411,
    "name": "Bécon-les-Granits",
    "state_id": 5017,
    "state_code": "49",
    "country_id": 75,
    "country_code": "FR",
    "latitude": "47.50134000",
    "longitude": "-0.80000000",
    "native": null,
    "timezone": "Europe/Paris",
    "translations": {}
  },
  {
    "id": 40419,
    "name": "Bégrolles-en-Mauges",
    "state_id": 5017,
    "state_code": "49",
    "country_id": 75,
    "country_code": "FR",
    "latitude": "47.14048000",
    "longitude": "-0.94000000",
    "native": null,
    "timezone": "Europe/Paris",
    "translations": {}
  },
  {
    "id": 161686,
    "name": "Bellevigne-en-Layon",
    "state_id": 5017,
    "state_code": "49",
    "country_id": 75,
    "country_code": "FR",
    "latitude": "47.27190000",
    "longitude": "-0.53950000",
    "native": null,
    "timezone": "Europe/Paris",
    "translations": {}
  },
  {
    "id": 161687,
    "name": "Bellevigne-les-Châteaux",
    "state_id": 5017,
    "state_code": "49",
    "country_id": 75,
    "country_code": "FR",
    "latitude": "47.17810000",
    "longitude": "-0.04490000",
    "native": null,
    "timezone": "Europe/Paris",
    "translations": {}
  },
  {
    "id": 40051,
    "name": "Blaison-Gohier",
    "state_id": 5017,
    "state_code": "49",
    "country_id": 75,
    "country_code": "FR",
    "latitude": "47.39951000",
    "longitude": "-0.37723000",
    "native": null,
    "timezone": "Europe/Paris",
    "translations": {}
  },
  {
    "id": 40152,
    "name": "Bouchemaine",
    "state_id": 5017,
    "state_code": "49",
    "country_id": 75,
    "country_code": "FR",
    "latitude": "47.42234000",
    "longitude": "-0.60888000",
    "native": null,
    "timezone": "Europe/Paris",
    "translations": {}
  },
  {
    "id": 40248,
    "name": "Brain-sur-Allonnes",
    "state_id": 5017,
    "state_code": "49",
    "country_id": 75,
    "country_code": "FR",
    "latitude": "47.30325000",
    "longitude": "0.06514000",
    "native": null,
    "timezone": "Europe/Paris",
    "translations": {}
  },
  {
    "id": 40364,
    "name": "Brézé",
    "state_id": 5017,
    "state_code": "49",
    "country_id": 75,
    "country_code": "FR",
    "latitude": "47.17357000",
    "longitude": "-0.06059000",
    "native": null,
    "timezone": "Europe/Paris",
    "translations": {}
  },
  {
    "id": 40318,
    "name": "Briollay",
    "state_id": 5017,
    "state_code": "49",
    "country_id": 75,
    "country_code": "FR",
    "latitude": "47.56478000",
    "longitude": "-0.50681000",
    "native": null,
    "timezone": "Europe/Paris",
    "translations": {}
  },
  {
    "id": 161706,
    "name": "Brissac Loire Aubance",
    "state_id": 5017,
    "state_code": "49",
    "country_id": 75,
    "country_code": "FR",
    "latitude": "47.33920000",
    "longitude": "-0.40870000",
    "native": null,
    "timezone": "Europe/Paris",
    "translations": {}
  },
  {
    "id": 40326,
    "name": "Brissac-Quincé",
    "state_id": 5017,
    "state_code": "49",
    "country_id": 75,
    "country_code": "FR",
    "latitude": "47.35575000",
    "longitude": "-0.44924000",
    "native": null,
    "timezone": "Europe/Paris",
    "translations": {}
  },
  {
    "id": 40507,
    "name": "Candé",
    "state_id": 5017,
    "state_code": "49",
    "country_id": 75,
    "country_code": "FR",
    "latitude": "47.56158000",
    "longitude": "-1.03619000",
    "native": null,
    "timezone": "Europe/Paris",
    "translations": {}
  },
  {
    "id": 40520,
    "name": "Cantenay-Épinard",
    "state_id": 5017,
    "state_code": "49",
    "country_id": 75,
    "country_code": "FR",
    "latitude": "47.53503000",
    "longitude": "-0.56899000",
    "native": null,
    "timezone": "Europe/Paris",
    "translations": {}
  },
  {
    "id": 40673,
    "name": "Chacé",
    "state_id": 5017,
    "state_code": "49",
    "country_id": 75,
    "country_code": "FR",
    "latitude": "47.21435000",
    "longitude": "-0.07179000",
    "native": null,
    "timezone": "Europe/Paris",
    "translations": {}
  },
  {
    "id": 40699,
    "name": "Chalonnes-sur-Loire",
    "state_id": 5017,
    "state_code": "49",
    "country_id": 75,
    "country_code": "FR",
    "latitude": "47.35160000",
    "longitude": "-0.76310000",
    "native": null,
    "timezone": "Europe/Paris",
    "translations": {}
  },
  {
    "id": 40743,
    "name": "Champigné",
    "state_id": 5017,
    "state_code": "49",
    "country_id": 75,
    "country_code": "FR",
    "latitude": "47.66332000",
    "longitude": "-0.57160000",
    "native": null,
    "timezone": "Europe/Paris",
    "translations": {}
  },
  {
    "id": 40753,
    "name": "Champtocé-sur-Loire",
    "state_id": 5017,
    "state_code": "49",
    "country_id": 75,
    "country_code": "FR",
    "latitude": "47.41239000",
    "longitude": "-0.86452000",
    "native": null,
    "timezone": "Europe/Paris",
    "translations": {}
  },
  {
    "id": 40975,
    "name": "Châteauneuf-sur-Sarthe",
    "state_id": 5017,
    "state_code": "49",
    "country_id": 75,
    "country_code": "FR",
    "latitude": "47.68145000",
    "longitude": "-0.48652000",
    "native": null,
    "timezone": "Europe/Paris",
    "translations": {}
  },
  {
    "id": 40838,
    "name": "Chaudron-en-Mauges",
    "state_id": 5017,
    "state_code": "49",
    "country_id": 75,
    "country_code": "FR",
    "latitude": "47.28809000",
    "longitude": "-0.98547000",
    "native": null,
    "timezone": "Europe/Paris",
    "translations": {}
  },
  {
    "id": 161720,
    "name": "Chemillé-en-Anjou",
    "state_id": 5017,
    "state_code": "49",
    "country_id": 75,
    "country_code": "FR",
    "latitude": "47.22110000",
    "longitude": "-0.69640000",
    "native": null,
    "timezone": "Europe/Paris",
    "translations": {}
  },
  {
    "id": 40872,
    "name": "Chemillé-Melay",
    "state_id": 5017,
    "state_code": "49",
    "country_id": 75,
    "country_code": "FR",
    "latitude": "47.21476000",
    "longitude": "-0.72488000",
    "native": null,
    "timezone": "Europe/Paris",
    "translations": {}
  },
  {
    "id": 41018,
    "name": "Chênehutte-Trèves-Cunault",
    "state_id": 5017,
    "state_code": "49",
    "country_id": 75,
    "country_code": "FR",
    "latitude": "47.31084000",
    "longitude": "-0.16042000",
    "native": null,
    "timezone": "Europe/Paris",
    "translations": {}
  },
  {
    "id": 40924,
    "name": "Cholet",
    "state_id": 5017,
    "state_code": "49",
    "country_id": 75,
    "country_code": "FR",
    "latitude": "47.05905000",
    "longitude": "-0.87953000",
    "native": null,
    "timezone": "Europe/Paris",
    "translations": {}
  },
  {
    "id": 41114,
    "name": "Combrée",
    "state_id": 5017,
    "state_code": "49",
    "country_id": 75,
    "country_code": "FR",
    "latitude": "47.70446000",
    "longitude": "-1.03003000",
    "native": null,
    "timezone": "Europe/Paris",
    "translations": {}
  },
  {
    "id": 41197,
    "name": "Corné",
    "state_id": 5017,
    "state_code": "49",
    "country_id": 75,
    "country_code": "FR",
    "latitude": "47.47091000",
    "longitude": "-0.34992000",
    "native": null,
    "timezone": "Europe/Paris",
    "translations": {}
  },
  {
    "id": 41198,
    "name": "Coron",
    "state_id": 5017,
    "state_code": "49",
    "country_id": 75,
    "country_code": "FR",
    "latitude": "47.12726000",
    "longitude": "-0.64512000",
    "native": null,
    "timezone": "Europe/Paris",
    "translations": {}
  },
  {
    "id": 41206,
    "name": "Corzé",
    "state_id": 5017,
    "state_code": "49",
    "country_id": 75,
    "country_code": "FR",
    "latitude": "47.55956000",
    "longitude": "-0.39062000",
    "native": null,
    "timezone": "Europe/Paris",
    "translations": {}
  },
  {
    "id": 41440,
    "name": "Daumeray",
    "state_id": 5017,
    "state_code": "49",
    "country_id": 75,
    "country_code": "FR",
    "latitude": "47.70070000",
    "longitude": "-0.36119000",
    "native": null,
    "timezone": "Europe/Paris",
    "translations": {}
  },
  {
    "id": 41453,
    "name": "Denée",
    "state_id": 5017,
    "state_code": "49",
    "country_id": 75,
    "country_code": "FR",
    "latitude": "47.37885000",
    "longitude": "-0.60816000",
    "native": null,
    "timezone": "Europe/Paris",
    "translations": {}
  },
  {
    "id": 41606,
    "name": "Département de Maine-et-Loire",
    "state_id": 5017,
    "state_code": "49",
    "country_id": 75,
    "country_code": "FR",
    "latitude": "47.50000000",
    "longitude": "-0.33333000",
    "native": null,
    "timezone": "Europe/Paris",
    "translations": {}
  },
  {
    "id": 41494,
    "name": "Distré",
    "state_id": 5017,
    "state_code": "49",
    "country_id": 75,
    "country_code": "FR",
    "latitude": "47.22281000",
    "longitude": "-0.11071000",
    "native": null,
    "timezone": "Europe/Paris",
    "translations": {}
  },
  {
    "id": 161751,
    "name": "Doué-en-Anjou",
    "state_id": 5017,
    "state_code": "49",
    "country_id": 75,
    "country_code": "FR",
    "latitude": "47.19880000",
    "longitude": "-0.30530000",
    "native": null,
    "timezone": "Europe/Paris",
    "translations": {}
  },
  {
    "id": 41562,
    "name": "Doué-la-Fontaine",
    "state_id": 5017,
    "state_code": "49",
    "country_id": 75,
    "country_code": "FR",
    "latitude": "47.19372000",
    "longitude": "-0.27492000",
    "native": null,
    "timezone": "Europe/Paris",
    "translations": {}
  },
  {
    "id": 41596,
    "name": "Durtal",
    "state_id": 5017,
    "state_code": "49",
    "country_id": 75,
    "country_code": "FR",
    "latitude": "47.67247000",
    "longitude": "-0.23393000",
    "native": null,
    "timezone": "Europe/Paris",
    "translations": {}
  },
  {
    "id": 48048,
    "name": "Écouflant",
    "state_id": 5017,
    "state_code": "49",
    "country_id": 75,
    "country_code": "FR",
    "latitude": "47.53101000",
    "longitude": "-0.52780000",
    "native": null,
    "timezone": "Europe/Paris",
    "translations": {}
  },
  {
    "id": 161758,
    "name": "Erdre-en-Anjou",
    "state_id": 5017,
    "state_code": "49",
    "country_id": 75,
    "country_code": "FR",
    "latitude": "47.58900000",
    "longitude": "-0.81780000",
    "native": null,
    "timezone": "Europe/Paris",
    "translations": {}
  },
  {
    "id": 48112,
    "name": "Étriché",
    "state_id": 5017,
    "state_code": "49",
    "country_id": 75,
    "country_code": "FR",
    "latitude": "47.65087000",
    "longitude": "-0.44377000",
    "native": null,
    "timezone": "Europe/Paris",
    "translations": {}
  },
  {
    "id": 41798,
    "name": "Feneu",
    "state_id": 5017,
    "state_code": "49",
    "country_id": 75,
    "country_code": "FR",
    "latitude": "47.57211000",
    "longitude": "-0.59422000",
    "native": null,
    "timezone": "Europe/Paris",
    "translations": {}
  },
  {
    "id": 41905,
    "name": "Fontevraud-l'Abbaye",
    "state_id": 5017,
    "state_code": "49",
    "country_id": 75,
    "country_code": "FR",
    "latitude": "47.18333000",
    "longitude": "0.05000000",
    "native": null,
    "timezone": "Europe/Paris",
    "translations": {}
  },
  {
    "id": 161771,
    "name": "Gennes-Val-de-Loire",
    "state_id": 5017,
    "state_code": "49",
    "country_id": 75,
    "country_code": "FR",
    "latitude": "47.34240000",
    "longitude": "-0.23520000",
    "native": null,
    "timezone": "Europe/Paris",
    "translations": {}
  },
  {
    "id": 42203,
    "name": "Grez-Neuville",
    "state_id": 5017,
    "state_code": "49",
    "country_id": 75,
    "country_code": "FR",
    "latitude": "47.60288000",
    "longitude": "-0.68193000",
    "native": null,
    "timezone": "Europe/Paris",
    "translations": {}
  },
  {
    "id": 42488,
    "name": "Ingrandes",
    "state_id": 5017,
    "state_code": "49",
    "country_id": 75,
    "country_code": "FR",
    "latitude": "47.40500000",
    "longitude": "-0.92336000",
    "native": null,
    "timezone": "Europe/Paris",
    "translations": {}
  },
  {
    "id": 161786,
    "name": "Ingrandes-le-Fresne-sur-Loire",
    "state_id": 5017,
    "state_code": "49",
    "country_id": 75,
    "country_code": "FR",
    "latitude": "47.43190000",
    "longitude": "-0.93230000",
    "native": null,
    "timezone": "Europe/Paris",
    "translations": {}
  },
  {
    "id": 42524,
    "name": "Jallais",
    "state_id": 5017,
    "state_code": "49",
    "country_id": 75,
    "country_code": "FR",
    "latitude": "47.19691000",
    "longitude": "-0.86738000",
    "native": null,
    "timezone": "Europe/Paris",
    "translations": {}
  },
  {
    "id": 42537,
    "name": "Jarzé",
    "state_id": 5017,
    "state_code": "49",
    "country_id": 75,
    "country_code": "FR",
    "latitude": "47.55563000",
    "longitude": "-0.23183000",
    "native": null,
    "timezone": "Europe/Paris",
    "translations": {}
  },
  {
    "id": 161789,
    "name": "Jarzé Villages",
    "state_id": 5017,
    "state_code": "49",
    "country_id": 75,
    "country_code": "FR",
    "latitude": "47.56060000",
    "longitude": "-0.25630000",
    "native": null,
    "timezone": "Europe/Paris",
    "translations": {}
  },
  {
    "id": 42582,
    "name": "Juigné",
    "state_id": 5017,
    "state_code": "49",
    "country_id": 75,
    "country_code": "FR",
    "latitude": "47.71878000",
    "longitude": "-0.39405000",
    "native": null,
    "timezone": "Europe/Paris",
    "translations": {}
  },
  {
    "id": 42583,
    "name": "Juigné-sur-Loire",
    "state_id": 5017,
    "state_code": "49",
    "country_id": 75,
    "country_code": "FR",
    "latitude": "47.40741000",
    "longitude": "-0.47682000",
    "native": null,
    "timezone": "Europe/Paris",
    "translations": {}
  },
  {
    "id": 42644,
    "name": "La Bohalle",
    "state_id": 5017,
    "state_code": "49",
    "country_id": 75,
    "country_code": "FR",
    "latitude": "47.42095000",
    "longitude": "-0.39723000",
    "native": null,
    "timezone": "Europe/Paris",
    "translations": {}
  },
  {
    "id": 42695,
    "name": "La Chapelle-du-Genêt",
    "state_id": 5017,
    "state_code": "49",
    "country_id": 75,
    "country_code": "FR",
    "latitude": "47.18203000",
    "longitude": "-1.01857000",
    "native": null,
    "timezone": "Europe/Paris",
    "translations": {}
  },
  {
    "id": 42727,
    "name": "La Daguenière",
    "state_id": 5017,
    "state_code": "49",
    "country_id": 75,
    "country_code": "FR",
    "latitude": "47.41934000",
    "longitude": "-0.43128000",
    "native": null,
    "timezone": "Europe/Paris",
    "translations": {}
  },
  {
    "id": 42787,
    "name": "La Jubaudière",
    "state_id": 5017,
    "state_code": "49",
    "country_id": 75,
    "country_code": "FR",
    "latitude": "47.17202000",
    "longitude": "-0.89215000",
    "native": null,
    "timezone": "Europe/Paris",
    "translations": {}
  },
  {
    "id": 42788,
    "name": "La Jumellière",
    "state_id": 5017,
    "state_code": "49",
    "country_id": 75,
    "country_code": "FR",
    "latitude": "47.27976000",
    "longitude": "-0.72952000",
    "native": null,
    "timezone": "Europe/Paris",
    "translations": {}
  },
  {
    "id": 42801,
    "name": "La Meignanne",
    "state_id": 5017,
    "state_code": "49",
    "country_id": 75,
    "country_code": "FR",
    "latitude": "47.51700000",
    "longitude": "-0.66861000",
    "native": null,
    "timezone": "Europe/Paris",
    "translations": {}
  },
  {
    "id": 42805,
    "name": "La Membrolle-sur-Longuenée",
    "state_id": 5017,
    "state_code": "49",
    "country_id": 75,
    "country_code": "FR",
    "latitude": "47.55991000",
    "longitude": "-0.67236000",
    "native": null,
    "timezone": "Europe/Paris",
    "translations": {}
  },
  {
    "id": 42822,
    "name": "La Ménitré",
    "state_id": 5017,
    "state_code": "49",
    "country_id": 75,
    "country_code": "FR",
    "latitude": "47.40000000",
    "longitude": "-0.26667000",
    "native": null,
    "timezone": "Europe/Paris",
    "translations": {}
  },
  {
    "id": 42837,
    "name": "La Possonnière",
    "state_id": 5017,
    "state_code": "49",
    "country_id": 75,
    "country_code": "FR",
    "latitude": "47.37485000",
    "longitude": "-0.68539000",
    "native": null,
    "timezone": "Europe/Paris",
    "translations": {}
  },
  {
    "id": 42838,
    "name": "La Pouëze",
    "state_id": 5017,
    "state_code": "49",
    "country_id": 75,
    "country_code": "FR",
    "latitude": "47.55357000",
    "longitude": "-0.80928000",
    "native": null,
    "timezone": "Europe/Paris",
    "translations": {}
  },
  {
    "id": 42864,
    "name": "La Romagne",
    "state_id": 5017,
    "state_code": "49",
    "country_id": 75,
    "country_code": "FR",
    "latitude": "47.06119000",
    "longitude": "-1.02000000",
    "native": null,
    "timezone": "Europe/Paris",
    "translations": {}
  },
  {
    "id": 42870,
    "name": "La Salle-et-Chapelle-Aubry",
    "state_id": 5017,
    "state_code": "49",
    "country_id": 75,
    "country_code": "FR",
    "latitude": "47.25013000",
    "longitude": "-0.97512000",
    "native": null,
    "timezone": "Europe/Paris",
    "translations": {}
  },
  {
    "id": 42882,
    "name": "La Séguinière",
    "state_id": 5017,
    "state_code": "49",
    "country_id": 75,
    "country_code": "FR",
    "latitude": "47.06357000",
    "longitude": "-0.93857000",
    "native": null,
    "timezone": "Europe/Paris",
    "translations": {}
  },
  {
    "id": 42886,
    "name": "La Tessoualle",
    "state_id": 5017,
    "state_code": "49",
    "country_id": 75,
    "country_code": "FR",
    "latitude": "47.00476000",
    "longitude": "-0.85119000",
    "native": null,
    "timezone": "Europe/Paris",
    "translations": {}
  },
  {
    "id": 42895,
    "name": "La Tourlandry",
    "state_id": 5017,
    "state_code": "49",
    "country_id": 75,
    "country_code": "FR",
    "latitude": "47.14375000",
    "longitude": "-0.69688000",
    "native": null,
    "timezone": "Europe/Paris",
    "translations": {}
  },
  {
    "id": 43187,
    "name": "Le Fief-Sauvin",
    "state_id": 5017,
    "state_code": "49",
    "country_id": 75,
    "country_code": "FR",
    "latitude": "47.22143000",
    "longitude": "-1.04214000",
    "native": null,
    "timezone": "Europe/Paris",
    "translations": {}
  },
  {
    "id": 161840,
    "name": "Le Lion-d'Angers",
    "state_id": 5017,
    "state_code": "49",
    "country_id": 75,
    "country_code": "FR",
    "latitude": "47.63400000",
    "longitude": "-0.75170000",
    "native": null,
    "timezone": "Europe/Paris",
    "translations": {}
  },
  {
    "id": 43215,
    "name": "Le Louroux-Béconnais",
    "state_id": 5017,
    "state_code": "49",
    "country_id": 75,
    "country_code": "FR",
    "latitude": "47.52211000",
    "longitude": "-0.88663000",
    "native": null,
    "timezone": "Europe/Paris",
    "translations": {}
  },
  {
    "id": 43223,
    "name": "Le May-sur-Èvre",
    "state_id": 5017,
    "state_code": "49",
    "country_id": 75,
    "country_code": "FR",
    "latitude": "47.13714000",
    "longitude": "-0.89227000",
    "native": null,
    "timezone": "Europe/Paris",
    "translations": {}
  },
  {
    "id": 43229,
    "name": "Le Mesnil-en-Vallée",
    "state_id": 5017,
    "state_code": "49",
    "country_id": 75,
    "country_code": "FR",
    "latitude": "47.36551000",
    "longitude": "-0.93485000",
    "native": null,
    "timezone": "Europe/Paris",
    "translations": {}
  },
  {
    "id": 43260,
    "name": "Le Pin-en-Mauges",
    "state_id": 5017,
    "state_code": "49",
    "country_id": 75,
    "country_code": "FR",
    "latitude": "47.25357000",
    "longitude": "-0.89917000",
    "native": null,
    "timezone": "Europe/Paris",
    "translations": {}
  },
  {
    "id": 43266,
    "name": "Le Plessis-Grammoire",
    "state_id": 5017,
    "state_code": "49",
    "country_id": 75,
    "country_code": "FR",
    "latitude": "47.49884000",
    "longitude": "-0.43021000",
    "native": null,
    "timezone": "Europe/Paris",
    "translations": {}
  },
  {
    "id": 43267,
    "name": "Le Plessis-Macé",
    "state_id": 5017,
    "state_code": "49",
    "country_id": 75,
    "country_code": "FR",
    "latitude": "47.54304000",
    "longitude": "-0.67436000",
    "native": null,
    "timezone": "Europe/Paris",
    "translations": {}
  },
  {
    "id": 43285,
    "name": "Le Puy-Notre-Dame",
    "state_id": 5017,
    "state_code": "49",
    "country_id": 75,
    "country_code": "FR",
    "latitude": "47.12551000",
    "longitude": "-0.23572000",
    "native": null,
    "timezone": "Europe/Paris",
    "translations": {}
  },
  {
    "id": 43332,
    "name": "Le Vieil-Baugé",
    "state_id": 5017,
    "state_code": "49",
    "country_id": 75,
    "country_code": "FR",
    "latitude": "47.53193000",
    "longitude": "-0.11888000",
    "native": null,
    "timezone": "Europe/Paris",
    "translations": {}
  },
  {
    "id": 161854,
    "name": "Les Bois d'Anjou",
    "state_id": 5017,
    "state_code": "49",
    "country_id": 75,
    "country_code": "FR",
    "latitude": "47.45360000",
    "longitude": "-0.16950000",
    "native": null,
    "timezone": "Europe/Paris",
    "translations": {}
  },
  {
    "id": 161855,
    "name": "Les Garennes sur Loire",
    "state_id": 5017,
    "state_code": "49",
    "country_id": 75,
    "country_code": "FR",
    "latitude": "47.38510000",
    "longitude": "-0.47270000",
    "native": null,
    "timezone": "Europe/Paris",
    "translations": {}
  },
  {
    "id": 161856,
    "name": "Les Hauts-d'Anjou",
    "state_id": 5017,
    "state_code": "49",
    "country_id": 75,
    "country_code": "FR",
    "latitude": "47.69700000",
    "longitude": "-0.54990000",
    "native": null,
    "timezone": "Europe/Paris",
    "translations": {}
  },
  {
    "id": 43422,
    "name": "Les Ponts-de-Cé",
    "state_id": 5017,
    "state_code": "49",
    "country_id": 75,
    "country_code": "FR",
    "latitude": "47.42315000",
    "longitude": "-0.52477000",
    "native": null,
    "timezone": "Europe/Paris",
    "translations": {}
  },
  {
    "id": 43425,
    "name": "Les Rosiers-sur-Loire",
    "state_id": 5017,
    "state_code": "49",
    "country_id": 75,
    "country_code": "FR",
    "latitude": "47.35000000",
    "longitude": "-0.21667000",
    "native": null,
    "timezone": "Europe/Paris",
    "translations": {}
  },
  {
    "id": 161866,
    "name": "Loire-Authion",
    "state_id": 5017,
    "state_code": "49",
    "country_id": 75,
    "country_code": "FR",
    "latitude": "47.46950000",
    "longitude": "-0.37340000",
    "native": null,
    "timezone": "Europe/Paris",
    "translations": {}
  },
  {
    "id": 161871,
    "name": "Longué-Jumelles",
    "state_id": 5017,
    "state_code": "49",
    "country_id": 75,
    "country_code": "FR",
    "latitude": "47.39610000",
    "longitude": "-0.10920000",
    "native": null,
    "timezone": "Europe/Paris",
    "translations": {}
  },
  {
    "id": 161870,
    "name": "Longuenée-en-Anjou",
    "state_id": 5017,
    "state_code": "49",
    "country_id": 75,
    "country_code": "FR",
    "latitude": "47.55230000",
    "longitude": "-0.67970000",
    "native": null,
    "timezone": "Europe/Paris",
    "translations": {}
  },
  {
    "id": 161873,
    "name": "Lys-Haut-Layon",
    "state_id": 5017,
    "state_code": "49",
    "country_id": 75,
    "country_code": "FR",
    "latitude": "47.15040000",
    "longitude": "-0.46180000",
    "native": null,
    "timezone": "Europe/Paris",
    "translations": {}
  },
  {
    "id": 43913,
    "name": "Martigné-Briand",
    "state_id": 5017,
    "state_code": "49",
    "country_id": 75,
    "country_code": "FR",
    "latitude": "47.23358000",
    "longitude": "-0.42933000",
    "native": null,
    "timezone": "Europe/Paris",
    "translations": {}
  },
  {
    "id": 161887,
    "name": "Mauges-sur-Loire",
    "state_id": 5017,
    "state_code": "49",
    "country_id": 75,
    "country_code": "FR",
    "latitude": "47.34350000",
    "longitude": "-0.93510000",
    "native": null,
    "timezone": "Europe/Paris",
    "translations": {}
  },
  {
    "id": 43950,
    "name": "Maulévrier",
    "state_id": 5017,
    "state_code": "49",
    "country_id": 75,
    "country_code": "FR",
    "latitude": "47.00929000",
    "longitude": "-0.74239000",
    "native": null,
    "timezone": "Europe/Paris",
    "translations": {}
  },
  {
    "id": 43980,
    "name": "Mazé",
    "state_id": 5017,
    "state_code": "49",
    "country_id": 75,
    "country_code": "FR",
    "latitude": "47.45632000",
    "longitude": "-0.27106000",
    "native": null,
    "timezone": "Europe/Paris",
    "translations": {}
  },
  {
    "id": 161889,
    "name": "Mazé-Milon",
    "state_id": 5017,
    "state_code": "49",
    "country_id": 75,
    "country_code": "FR",
    "latitude": "47.47130000",
    "longitude": "-0.27850000",
    "native": null,
    "timezone": "Europe/Paris",
    "translations": {}
  },
  {
    "id": 43977,
    "name": "Mazières-en-Mauges",
    "state_id": 5017,
    "state_code": "49",
    "country_id": 75,
    "country_code": "FR",
    "latitude": "47.04536000",
    "longitude": "-0.81702000",
    "native": null,
    "timezone": "Europe/Paris",
    "translations": {}
  },
  {
    "id": 43991,
    "name": "Melay",
    "state_id": 5017,
    "state_code": "49",
    "country_id": 75,
    "country_code": "FR",
    "latitude": "47.18333000",
    "longitude": "-0.69429000",
    "native": null,
    "timezone": "Europe/Paris",
    "translations": {}
  },
  {
    "id": 44102,
    "name": "Miré",
    "state_id": 5017,
    "state_code": "49",
    "country_id": 75,
    "country_code": "FR",
    "latitude": "47.75759000",
    "longitude": "-0.49157000",
    "native": null,
    "timezone": "Europe/Paris",
    "translations": {}
  },
  {
    "id": 44232,
    "name": "Montfaucon-Montigné",
    "state_id": 5017,
    "state_code": "49",
    "country_id": 75,
    "country_code": "FR",
    "latitude": "47.10000000",
    "longitude": "-1.11667000",
    "native": null,
    "timezone": "Europe/Paris",
    "translations": {}
  },
  {
    "id": 44266,
    "name": "Montjean-sur-Loire",
    "state_id": 5017,
    "state_code": "49",
    "country_id": 75,
    "country_code": "FR",
    "latitude": "47.38842000",
    "longitude": "-0.85873000",
    "native": null,
    "timezone": "Europe/Paris",
    "translations": {}
  },
  {
    "id": 44309,
    "name": "Montreuil-Bellay",
    "state_id": 5017,
    "state_code": "49",
    "country_id": 75,
    "country_code": "FR",
    "latitude": "47.13106000",
    "longitude": "-0.15209000",
    "native": null,
    "timezone": "Europe/Paris",
    "translations": {}
  },
  {
    "id": 161901,
    "name": "Montreuil-Juigné",
    "state_id": 5017,
    "state_code": "49",
    "country_id": 75,
    "country_code": "FR",
    "latitude": "47.54510000",
    "longitude": "-0.61780000",
    "native": null,
    "timezone": "Europe/Paris",
    "translations": {}
  },
  {
    "id": 44315,
    "name": "Montrevault",
    "state_id": 5017,
    "state_code": "49",
    "country_id": 75,
    "country_code": "FR",
    "latitude": "47.25965000",
    "longitude": "-1.04679000",
    "native": null,
    "timezone": "Europe/Paris",
    "translations": {}
  },
  {
    "id": 161902,
    "name": "Montrevault-sur-Èvre",
    "state_id": 5017,
    "state_code": "49",
    "country_id": 75,
    "country_code": "FR",
    "latitude": "47.24940000",
    "longitude": "-1.02040000",
    "native": null,
    "timezone": "Europe/Paris",
    "translations": {}
  },
  {
    "id": 44342,
    "name": "Morannes",
    "state_id": 5017,
    "state_code": "49",
    "country_id": 75,
    "country_code": "FR",
    "latitude": "47.74364000",
    "longitude": "-0.41604000",
    "native": null,
    "timezone": "Europe/Paris",
    "translations": {}
  },
  {
    "id": 161907,
    "name": "Morannes sur Sarthe-Daumeray",
    "state_id": 5017,
    "state_code": "49",
    "country_id": 75,
    "country_code": "FR",
    "latitude": "47.71810000",
    "longitude": "-0.38160000",
    "native": null,
    "timezone": "Europe/Paris",
    "translations": {}
  },
  {
    "id": 44426,
    "name": "Mozé-sur-Louet",
    "state_id": 5017,
    "state_code": "49",
    "country_id": 75,
    "country_code": "FR",
    "latitude": "47.35856000",
    "longitude": "-0.55295000",
    "native": null,
    "timezone": "Europe/Paris",
    "translations": {}
  },
  {
    "id": 44494,
    "name": "Mûrs-Erigné",
    "state_id": 5017,
    "state_code": "49",
    "country_id": 75,
    "country_code": "FR",
    "latitude": "47.40000000",
    "longitude": "-0.55000000",
    "native": null,
    "timezone": "Europe/Paris",
    "translations": {}
  },
  {
    "id": 44672,
    "name": "Noyant",
    "state_id": 5017,
    "state_code": "49",
    "country_id": 75,
    "country_code": "FR",
    "latitude": "47.51048000",
    "longitude": "0.11771000",
    "native": null,
    "timezone": "Europe/Paris",
    "translations": {}
  },
  {
    "id": 44673,
    "name": "Noyant-la-Gravoyère",
    "state_id": 5017,
    "state_code": "49",
    "country_id": 75,
    "country_code": "FR",
    "latitude": "47.70348000",
    "longitude": "-0.95730000",
    "native": null,
    "timezone": "Europe/Paris",
    "translations": {}
  },
  {
    "id": 161921,
    "name": "Noyant-Villages",
    "state_id": 5017,
    "state_code": "49",
    "country_id": 75,
    "country_code": "FR",
    "latitude": "47.51110000",
    "longitude": "0.10270000",
    "native": null,
    "timezone": "Europe/Paris",
    "translations": {}
  },
  {
    "id": 44684,
    "name": "Nuaillé",
    "state_id": 5017,
    "state_code": "49",
    "country_id": 75,
    "country_code": "FR",
    "latitude": "47.09524000",
    "longitude": "-0.79477000",
    "native": null,
    "timezone": "Europe/Paris",
    "translations": {}
  },
  {
    "id": 44686,
    "name": "Nueil-sur-Layon",
    "state_id": 5017,
    "state_code": "49",
    "country_id": 75,
    "country_code": "FR",
    "latitude": "47.11811000",
    "longitude": "-0.36573000",
    "native": null,
    "timezone": "Europe/Paris",
    "translations": {}
  },
  {
    "id": 44689,
    "name": "Nyoiseau",
    "state_id": 5017,
    "state_code": "49",
    "country_id": 75,
    "country_code": "FR",
    "latitude": "47.71667000",
    "longitude": "-0.91667000",
    "native": null,
    "timezone": "Europe/Paris",
    "translations": {}
  },
  {
    "id": 161923,
    "name": "Ombrée d'Anjou",
    "state_id": 5017,
    "state_code": "49",
    "country_id": 75,
    "country_code": "FR",
    "latitude": "47.72320000",
    "longitude": "-1.10860000",
    "native": null,
    "timezone": "Europe/Paris",
    "translations": {}
  },
  {
    "id": 44861,
    "name": "Parçay-les-Pins",
    "state_id": 5017,
    "state_code": "49",
    "country_id": 75,
    "country_code": "FR",
    "latitude": "47.43668000",
    "longitude": "0.16312000",
    "native": null,
    "timezone": "Europe/Paris",
    "translations": {}
  },
  {
    "id": 44887,
    "name": "Pellouailles-les-Vignes",
    "state_id": 5017,
    "state_code": "49",
    "country_id": 75,
    "country_code": "FR",
    "latitude": "47.52172000",
    "longitude": "-0.43954000",
    "native": null,
    "timezone": "Europe/Paris",
    "translations": {}
  },
  {
    "id": 45249,
    "name": "Pouancé",
    "state_id": 5017,
    "state_code": "49",
    "country_id": 75,
    "country_code": "FR",
    "latitude": "47.74167000",
    "longitude": "-1.17366000",
    "native": null,
    "timezone": "Europe/Paris",
    "translations": {}
  },
  {
    "id": 161964,
    "name": "Rives-du-Loir-en-Anjou",
    "state_id": 5017,
    "state_code": "49",
    "country_id": 75,
    "country_code": "FR",
    "latitude": "47.55720000",
    "longitude": "-0.44480000",
    "native": null,
    "timezone": "Europe/Paris",
    "translations": {}
  },
  {
    "id": 45546,
    "name": "Rochefort-sur-Loire",
    "state_id": 5017,
    "state_code": "49",
    "country_id": 75,
    "country_code": "FR",
    "latitude": "47.35705000",
    "longitude": "-0.65696000",
    "native": null,
    "timezone": "Europe/Paris",
    "translations": {}
  },
  {
    "id": 45636,
    "name": "Roussay",
    "state_id": 5017,
    "state_code": "49",
    "country_id": 75,
    "country_code": "FR",
    "latitude": "47.09011000",
    "longitude": "-1.06417000",
    "native": null,
    "timezone": "Europe/Paris",
    "translations": {}
  },
  {
    "id": 45760,
    "name": "Saint-André-de-la-Marche",
    "state_id": 5017,
    "state_code": "49",
    "country_id": 75,
    "country_code": "FR",
    "latitude": "47.09952000",
    "longitude": "-0.99441000",
    "native": null,
    "timezone": "Europe/Paris",
    "translations": {}
  },
  {
    "id": 161977,
    "name": "Saint-Barthélemy-d'Anjou",
    "state_id": 5017,
    "state_code": "49",
    "country_id": 75,
    "country_code": "FR",
    "latitude": "47.47410000",
    "longitude": "-0.48260000",
    "native": null,
    "timezone": "Europe/Paris",
    "translations": {}
  },
  {
    "id": 45857,
    "name": "Saint-Christophe-du-Bois",
    "state_id": 5017,
    "state_code": "49",
    "country_id": 75,
    "country_code": "FR",
    "latitude": "47.03012000",
    "longitude": "-0.94441000",
    "native": null,
    "timezone": "Europe/Paris",
    "translations": {}
  },
  {
    "id": 45872,
    "name": "Saint-Clément-de-la-Place",
    "state_id": 5017,
    "state_code": "49",
    "country_id": 75,
    "country_code": "FR",
    "latitude": "47.52744000",
    "longitude": "-0.74545000",
    "native": null,
    "timezone": "Europe/Paris",
    "translations": {}
  },
  {
    "id": 45873,
    "name": "Saint-Clément-des-Levées",
    "state_id": 5017,
    "state_code": "49",
    "country_id": 75,
    "country_code": "FR",
    "latitude": "47.33333000",
    "longitude": "-0.18222000",
    "native": null,
    "timezone": "Europe/Paris",
    "translations": {}
  },
  {
    "id": 45883,
    "name": "Saint-Cyr-en-Bourg",
    "state_id": 5017,
    "state_code": "49",
    "country_id": 75,
    "country_code": "FR",
    "latitude": "47.19520000",
    "longitude": "-0.06085000",
    "native": null,
    "timezone": "Europe/Paris",
    "translations": {}
  },
  {
    "id": 45991,
    "name": "Saint-Georges-sur-Loire",
    "state_id": 5017,
    "state_code": "49",
    "country_id": 75,
    "country_code": "FR",
    "latitude": "47.40792000",
    "longitude": "-0.76194000",
    "native": null,
    "timezone": "Europe/Paris",
    "translations": {}
  },
  {
    "id": 46108,
    "name": "Saint-Jean-des-Mauvrets",
    "state_id": 5017,
    "state_code": "49",
    "country_id": 75,
    "country_code": "FR",
    "latitude": "47.39857000",
    "longitude": "-0.44929000",
    "native": null,
    "timezone": "Europe/Paris",
    "translations": {}
  },
  {
    "id": 46168,
    "name": "Saint-Lambert-du-Lattay",
    "state_id": 5017,
    "state_code": "49",
    "country_id": 75,
    "country_code": "FR",
    "latitude": "47.30250000",
    "longitude": "-0.63321000",
    "native": null,
    "timezone": "Europe/Paris",
    "translations": {}
  },
  {
    "id": 46169,
    "name": "Saint-Lambert-la-Potherie",
    "state_id": 5017,
    "state_code": "49",
    "country_id": 75,
    "country_code": "FR",
    "latitude": "47.48289000",
    "longitude": "-0.67789000",
    "native": null,
    "timezone": "Europe/Paris",
    "translations": {}
  },
  {
    "id": 46178,
    "name": "Saint-Laurent-de-la-Plaine",
    "state_id": 5017,
    "state_code": "49",
    "country_id": 75,
    "country_code": "FR",
    "latitude": "47.31738000",
    "longitude": "-0.80333000",
    "native": null,
    "timezone": "Europe/Paris",
    "translations": {}
  },
  {
    "id": 161998,
    "name": "Saint-Léger-de-Linières",
    "state_id": 5017,
    "state_code": "49",
    "country_id": 75,
    "country_code": "FR",
    "latitude": "47.46090000",
    "longitude": "-0.70690000",
    "native": null,
    "timezone": "Europe/Paris",
    "translations": {}
  },
  {
    "id": 46211,
    "name": "Saint-Léger-des-Bois",
    "state_id": 5017,
    "state_code": "49",
    "country_id": 75,
    "country_code": "FR",
    "latitude": "47.46238000",
    "longitude": "-0.70953000",
    "native": null,
    "timezone": "Europe/Paris",
    "translations": {}
  },
  {
    "id": 46217,
    "name": "Saint-Léger-sous-Cholet",
    "state_id": 5017,
    "state_code": "49",
    "country_id": 75,
    "country_code": "FR",
    "latitude": "47.09405000",
    "longitude": "-0.91024000",
    "native": null,
    "timezone": "Europe/Paris",
    "translations": {}
  },
  {
    "id": 46227,
    "name": "Saint-Macaire-en-Mauges",
    "state_id": 5017,
    "state_code": "49",
    "country_id": 75,
    "country_code": "FR",
    "latitude": "47.12357000",
    "longitude": "-0.99120000",
    "native": null,
    "timezone": "Europe/Paris",
    "translations": {}
  },
  {
    "id": 46281,
    "name": "Saint-Martin-de-la-Place",
    "state_id": 5017,
    "state_code": "49",
    "country_id": 75,
    "country_code": "FR",
    "latitude": "47.31747000",
    "longitude": "-0.14849000",
    "native": null,
    "timezone": "Europe/Paris",
    "translations": {}
  },
  {
    "id": 46286,
    "name": "Saint-Martin-du-Fouilloux",
    "state_id": 5017,
    "state_code": "49",
    "country_id": 75,
    "country_code": "FR",
    "latitude": "47.43360000",
    "longitude": "-0.70357000",
    "native": null,
    "timezone": "Europe/Paris",
    "translations": {}
  },
  {
    "id": 46308,
    "name": "Saint-Mathurin-sur-Loire",
    "state_id": 5017,
    "state_code": "49",
    "country_id": 75,
    "country_code": "FR",
    "latitude": "47.41667000",
    "longitude": "-0.31667000",
    "native": null,
    "timezone": "Europe/Paris",
    "translations": {}
  },
  {
    "id": 46327,
    "name": "Saint-Melaine-sur-Aubance",
    "state_id": 5017,
    "state_code": "49",
    "country_id": 75,
    "country_code": "FR",
    "latitude": "47.36667000",
    "longitude": "-0.50000000",
    "native": null,
    "timezone": "Europe/Paris",
    "translations": {}
  },
  {
    "id": 46425,
    "name": "Saint-Philbert-du-Peuple",
    "state_id": 5017,
    "state_code": "49",
    "country_id": 75,
    "country_code": "FR",
    "latitude": "47.39314000",
    "longitude": "-0.04360000",
    "native": null,
    "timezone": "Europe/Paris",
    "translations": {}
  },
  {
    "id": 46429,
    "name": "Saint-Pierre-Montlimart",
    "state_id": 5017,
    "state_code": "49",
    "country_id": 75,
    "country_code": "FR",
    "latitude": "47.26976000",
    "longitude": "-1.02738000",
    "native": null,
    "timezone": "Europe/Paris",
    "translations": {}
  },
  {
    "id": 46488,
    "name": "Saint-Quentin-en-Mauges",
    "state_id": 5017,
    "state_code": "49",
    "country_id": 75,
    "country_code": "FR",
    "latitude": "47.29130000",
    "longitude": "-0.91191000",
    "native": null,
    "timezone": "Europe/Paris",
    "translations": {}
  },
  {
    "id": 46512,
    "name": "Saint-Rémy-en-Mauges",
    "state_id": 5017,
    "state_code": "49",
    "country_id": 75,
    "country_code": "FR",
    "latitude": "47.27202000",
    "longitude": "-1.07499000",
    "native": null,
    "timezone": "Europe/Paris",
    "translations": {}
  },
  {
    "id": 46524,
    "name": "Saint-Saturnin-sur-Loire",
    "state_id": 5017,
    "state_code": "49",
    "country_id": 75,
    "country_code": "FR",
    "latitude": "47.39438000",
    "longitude": "-0.43565000",
    "native": null,
    "timezone": "Europe/Paris",
    "translations": {}
  },
  {
    "id": 46690,
    "name": "Sainte-Gemmes-sur-Loire",
    "state_id": 5017,
    "state_code": "49",
    "country_id": 75,
    "country_code": "FR",
    "latitude": "47.42290000",
    "longitude": "-0.55684000",
    "native": null,
    "timezone": "Europe/Paris",
    "translations": {}
  },
  {
    "id": 46852,
    "name": "Saumur",
    "state_id": 5017,
    "state_code": "49",
    "country_id": 75,
    "country_code": "FR",
    "latitude": "47.25908000",
    "longitude": "-0.07796000",
    "native": null,
    "timezone": "Europe/Paris",
    "translations": {}
  },
  {
    "id": 46872,
    "name": "Savennières",
    "state_id": 5017,
    "state_code": "49",
    "country_id": 75,
    "country_code": "FR",
    "latitude": "47.38225000",
    "longitude": "-0.65708000",
    "native": null,
    "timezone": "Europe/Paris",
    "translations": {}
  },
  {
    "id": 46915,
    "name": "Segré",
    "state_id": 5017,
    "state_code": "49",
    "country_id": 75,
    "country_code": "FR",
    "latitude": "47.68646000",
    "longitude": "-0.87237000",
    "native": null,
    "timezone": "Europe/Paris",
    "translations": {}
  },
  {
    "id": 162027,
    "name": "Segré-en-Anjou Bleu",
    "state_id": 5017,
    "state_code": "49",
    "country_id": 75,
    "country_code": "FR",
    "latitude": "47.71110000",
    "longitude": "-0.85400000",
    "native": null,
    "timezone": "Europe/Paris",
    "translations": {}
  },
  {
    "id": 46917,
    "name": "Seiches-sur-le-Loir",
    "state_id": 5017,
    "state_code": "49",
    "country_id": 75,
    "country_code": "FR",
    "latitude": "47.57351000",
    "longitude": "-0.35628000",
    "native": null,
    "timezone": "Europe/Paris",
    "translations": {}
  },
  {
    "id": 162031,
    "name": "Sèvremoine",
    "state_id": 5017,
    "state_code": "49",
    "country_id": 75,
    "country_code": "FR",
    "latitude": "47.08780000",
    "longitude": "-1.09680000",
    "native": null,
    "timezone": "Europe/Paris",
    "translations": {}
  },
  {
    "id": 47057,
    "name": "Soucelles",
    "state_id": 5017,
    "state_code": "49",
    "country_id": 75,
    "country_code": "FR",
    "latitude": "47.56848000",
    "longitude": "-0.41819000",
    "native": null,
    "timezone": "Europe/Paris",
    "translations": {}
  },
  {
    "id": 47069,
    "name": "Soulaines-sur-Aubance",
    "state_id": 5017,
    "state_code": "49",
    "country_id": 75,
    "country_code": "FR",
    "latitude": "47.36381000",
    "longitude": "-0.52265000",
    "native": null,
    "timezone": "Europe/Paris",
    "translations": {}
  },
  {
    "id": 47070,
    "name": "Soulaire-et-Bourg",
    "state_id": 5017,
    "state_code": "49",
    "country_id": 75,
    "country_code": "FR",
    "latitude": "47.57896000",
    "longitude": "-0.55232000",
    "native": null,
    "timezone": "Europe/Paris",
    "translations": {}
  },
  {
    "id": 162035,
    "name": "Terranjou",
    "state_id": 5017,
    "state_code": "49",
    "country_id": 75,
    "country_code": "FR",
    "latitude": "47.26900000",
    "longitude": "-0.44300000",
    "native": null,
    "timezone": "Europe/Paris",
    "translations": {}
  },
  {
    "id": 47253,
    "name": "Thouarcé",
    "state_id": 5017,
    "state_code": "49",
    "country_id": 75,
    "country_code": "FR",
    "latitude": "47.26734000",
    "longitude": "-0.50186000",
    "native": null,
    "timezone": "Europe/Paris",
    "translations": {}
  },
  {
    "id": 47276,
    "name": "Tiercé",
    "state_id": 5017,
    "state_code": "49",
    "country_id": 75,
    "country_code": "FR",
    "latitude": "47.61587000",
    "longitude": "-0.46609000",
    "native": null,
    "timezone": "Europe/Paris",
    "translations": {}
  },
  {
    "id": 47342,
    "name": "Toutlemonde",
    "state_id": 5017,
    "state_code": "49",
    "country_id": 75,
    "country_code": "FR",
    "latitude": "47.05488000",
    "longitude": "-0.76548000",
    "native": null,
    "timezone": "Europe/Paris",
    "translations": {}
  },
  {
    "id": 47396,
    "name": "Trélazé",
    "state_id": 5017,
    "state_code": "49",
    "country_id": 75,
    "country_code": "FR",
    "latitude": "47.44565000",
    "longitude": "-0.46540000",
    "native": null,
    "timezone": "Europe/Paris",
    "translations": {}
  },
  {
    "id": 47401,
    "name": "Trémentines",
    "state_id": 5017,
    "state_code": "49",
    "country_id": 75,
    "country_code": "FR",
    "latitude": "47.12357000",
    "longitude": "-0.78500000",
    "native": null,
    "timezone": "Europe/Paris",
    "translations": {}
  },
  {
    "id": 162056,
    "name": "Val d'Erdre-Auxence",
    "state_id": 5017,
    "state_code": "49",
    "country_id": 75,
    "country_code": "FR",
    "latitude": "47.50490000",
    "longitude": "-0.93740000",
    "native": null,
    "timezone": "Europe/Paris",
    "translations": {}
  },
  {
    "id": 162071,
    "name": "Val-du-Layon",
    "state_id": 5017,
    "state_code": "49",
    "country_id": 75,
    "country_code": "FR",
    "latitude": "47.31350000",
    "longitude": "-0.65290000",
    "native": null,
    "timezone": "Europe/Paris",
    "translations": {}
  },
  {
    "id": 47515,
    "name": "Varennes-sur-Loire",
    "state_id": 5017,
    "state_code": "49",
    "country_id": 75,
    "country_code": "FR",
    "latitude": "47.23767000",
    "longitude": "0.05350000",
    "native": null,
    "timezone": "Europe/Paris",
    "translations": {}
  },
  {
    "id": 47520,
    "name": "Varrains",
    "state_id": 5017,
    "state_code": "49",
    "country_id": 75,
    "country_code": "FR",
    "latitude": "47.22305000",
    "longitude": "-0.06033000",
    "native": null,
    "timezone": "Europe/Paris",
    "translations": {}
  },
  {
    "id": 47528,
    "name": "Vauchrétien",
    "state_id": 5017,
    "state_code": "49",
    "country_id": 75,
    "country_code": "FR",
    "latitude": "47.33234000",
    "longitude": "-0.47678000",
    "native": null,
    "timezone": "Europe/Paris",
    "translations": {}
  },
  {
    "id": 47531,
    "name": "Vaudelnay",
    "state_id": 5017,
    "state_code": "49",
    "country_id": 75,
    "country_code": "FR",
    "latitude": "47.13813000",
    "longitude": "-0.20677000",
    "native": null,
    "timezone": "Europe/Paris",
    "translations": {}
  },
  {
    "id": 47606,
    "name": "Vern-d’Anjou",
    "state_id": 5017,
    "state_code": "49",
    "country_id": 75,
    "country_code": "FR",
    "latitude": "47.60119000",
    "longitude": "-0.83357000",
    "native": null,
    "timezone": "Europe/Paris",
    "translations": {}
  },
  {
    "id": 47609,
    "name": "Vernantes",
    "state_id": 5017,
    "state_code": "49",
    "country_id": 75,
    "country_code": "FR",
    "latitude": "47.39320000",
    "longitude": "0.05304000",
    "native": null,
    "timezone": "Europe/Paris",
    "translations": {}
  },
  {
    "id": 47618,
    "name": "Vernoil-le-Fourrier",
    "state_id": 5017,
    "state_code": "49",
    "country_id": 75,
    "country_code": "FR",
    "latitude": "47.38333000",
    "longitude": "0.08333000",
    "native": null,
    "timezone": "Europe/Paris",
    "translations": {}
  },
  {
    "id": 162088,
    "name": "Verrières-en-Anjou",
    "state_id": 5017,
    "state_code": "49",
    "country_id": 75,
    "country_code": "FR",
    "latitude": "47.51820000",
    "longitude": "-0.47460000",
    "native": null,
    "timezone": "Europe/Paris",
    "translations": {}
  },
  {
    "id": 47658,
    "name": "Vezins",
    "state_id": 5017,
    "state_code": "49",
    "country_id": 75,
    "country_code": "FR",
    "latitude": "47.12015000",
    "longitude": "-0.70971000",
    "native": null,
    "timezone": "Europe/Paris",
    "translations": {}
  },
  {
    "id": 47703,
    "name": "Vihiers",
    "state_id": 5017,
    "state_code": "49",
    "country_id": 75,
    "country_code": "FR",
    "latitude": "47.14631000",
    "longitude": "-0.53238000",
    "native": null,
    "timezone": "Europe/Paris",
    "translations": {}
  },
  {
    "id": 47722,
    "name": "Villebernier",
    "state_id": 5017,
    "state_code": "49",
    "country_id": 75,
    "country_code": "FR",
    "latitude": "47.25374000",
    "longitude": "-0.03229000",
    "native": null,
    "timezone": "Europe/Paris",
    "translations": {}
  },
  {
    "id": 47729,
    "name": "Villedieu-la-Blouère",
    "state_id": 5017,
    "state_code": "49",
    "country_id": 75,
    "country_code": "FR",
    "latitude": "47.14738000",
    "longitude": "-1.06286000",
    "native": null,
    "timezone": "Europe/Paris",
    "translations": {}
  },
  {
    "id": 47823,
    "name": "Villevêque",
    "state_id": 5017,
    "state_code": "49",
    "country_id": 75,
    "country_code": "FR",
    "latitude": "47.56095000",
    "longitude": "-0.42383000",
    "native": null,
    "timezone": "Europe/Paris",
    "translations": {}
  },
  {
    "id": 47887,
    "name": "Vivy",
    "state_id": 5017,
    "state_code": "49",
    "country_id": 75,
    "country_code": "FR",
    "latitude": "47.32648000",
    "longitude": "-0.05531000",
    "native": null,
    "timezone": "Europe/Paris",
    "translations": {}
  },
  {
    "id": 48020,
    "name": "Yzernay",
    "state_id": 5017,
    "state_code": "49",
    "country_id": 75,
    "country_code": "FR",
    "latitude": "47.02229000",
    "longitude": "-0.70295000",
    "native": null,
    "timezone": "Europe/Paris",
    "translations": {}
  }
]