[
  {
    "id": 135330,
    "name": "Ailano",
    "state_id": 1731,
    "state_code": "CE",
    "country_id": 107,
    "country_code": "IT",
    "latitude": "41.39001000",
    "longitude": "14.20536000",
    "native": null,
    "timezone": "Europe/Rome",
    "translations": {}
  },
  {
    "id": 135411,
    "name": "Alife",
    "state_id": 1731,
    "state_code": "CE",
    "country_id": 107,
    "country_code": "IT",
    "latitude": "41.32612000",
    "longitude": "14.33403000",
    "native": null,
    "timezone": "Europe/Rome",
    "translations": {}
  },
  {
    "id": 135448,
    "name": "Alvignano",
    "state_id": 1731,
    "state_code": "CE",
    "country_id": 107,
    "country_code": "IT",
    "latitude": "41.24427000",
    "longitude": "14.33671000",
    "native": null,
    "timezone": "Europe/Rome",
    "translations": {}
  },
  {
    "id": 135508,
    "name": "Annunziata",
    "state_id": 1731,
    "state_code": "CE",
    "country_id": 107,
    "country_code": "IT",
    "latitude": "41.12100000",
    "longitude": "14.36518000",
    "native": null,
    "timezone": "Europe/Rome",
    "translations": {}
  },
  {
    "id": 135603,
    "name": "Arienzo",
    "state_id": 1731,
    "state_code": "CE",
    "country_id": 107,
    "country_code": "IT",
    "latitude": "41.02734000",
    "longitude": "14.49770000",
    "native": null,
    "timezone": "Europe/Rome",
    "translations": {}
  },
  {
    "id": 135702,
    "name": "Aversa",
    "state_id": 1731,
    "state_code": "CE",
    "country_id": 107,
    "country_code": "IT",
    "latitude": "40.97259000",
    "longitude": "14.20745000",
    "native": null,
    "timezone": "Europe/Rome",
    "translations": {}
  },
  {
    "id": 135777,
    "name": "Baia",
    "state_id": 1731,
    "state_code": "CE",
    "country_id": 107,
    "country_code": "IT",
    "latitude": "41.30366000",
    "longitude": "14.25016000",
    "native": null,
    "timezone": "Europe/Rome",
    "translations": {}
  },
  {
    "id": 135947,
    "name": "Bellona",
    "state_id": 1731,
    "state_code": "CE",
    "country_id": 107,
    "country_code": "IT",
    "latitude": "41.16052000",
    "longitude": "14.23313000",
    "native": null,
    "timezone": "Europe/Rome",
    "translations": {}
  },
  {
    "id": 136322,
    "name": "Brezza",
    "state_id": 1731,
    "state_code": "CE",
    "country_id": 107,
    "country_code": "IT",
    "latitude": "41.11073000",
    "longitude": "14.11201000",
    "native": null,
    "timezone": "Europe/Rome",
    "translations": {}
  },
  {
    "id": 136474,
    "name": "Caianello",
    "state_id": 1731,
    "state_code": "CE",
    "country_id": 107,
    "country_code": "IT",
    "latitude": "41.30509000",
    "longitude": "14.08516000",
    "native": null,
    "timezone": "Europe/Rome",
    "translations": {}
  },
  {
    "id": 136475,
    "name": "Caiazzo",
    "state_id": 1731,
    "state_code": "CE",
    "country_id": 107,
    "country_code": "IT",
    "latitude": "41.18435000",
    "longitude": "14.35946000",
    "native": null,
    "timezone": "Europe/Rome",
    "translations": {}
  },
  {
    "id": 136558,
    "name": "Calvi Risorta",
    "state_id": 1731,
    "state_code": "CE",
    "country_id": 107,
    "country_code": "IT",
    "latitude": "41.21598000",
    "longitude": "14.13092000",
    "native": null,
    "timezone": "Europe/Rome",
    "translations": {}
  },
  {
    "id": 136586,
    "name": "Camigliano",
    "state_id": 1731,
    "state_code": "CE",
    "country_id": 107,
    "country_code": "IT",
    "latitude": "41.18116000",
    "longitude": "14.20978000",
    "native": null,
    "timezone": "Europe/Rome",
    "translations": {}
  },
  {
    "id": 136695,
    "name": "Cancello-Arnone",
    "state_id": 1731,
    "state_code": "CE",
    "country_id": 107,
    "country_code": "IT",
    "latitude": "41.07340000",
    "longitude": "14.02542000",
    "native": null,
    "timezone": "Europe/Rome",
    "translations": {}
  },
  {
    "id": 136782,
    "name": "Capodrise",
    "state_id": 1731,
    "state_code": "CE",
    "country_id": 107,
    "country_code": "IT",
    "latitude": "41.04268000",
    "longitude": "14.30607000",
    "native": null,
    "timezone": "Europe/Rome",
    "translations": {}
  },
  {
    "id": 136816,
    "name": "Capriati A Volturno",
    "state_id": 1731,
    "state_code": "CE",
    "country_id": 107,
    "country_code": "IT",
    "latitude": "41.46801000",
    "longitude": "14.14602000",
    "native": null,
    "timezone": "Europe/Rome",
    "translations": {}
  },
  {
    "id": 136825,
    "name": "Capua",
    "state_id": 1731,
    "state_code": "CE",
    "country_id": 107,
    "country_code": "IT",
    "latitude": "41.10519000",
    "longitude": "14.21269000",
    "native": null,
    "timezone": "Europe/Rome",
    "translations": {}
  },
  {
    "id": 136832,
    "name": "Carano",
    "state_id": 1731,
    "state_code": "CE",
    "country_id": 107,
    "country_code": "IT",
    "latitude": "41.20526000",
    "longitude": "13.90972000",
    "native": null,
    "timezone": "Europe/Rome",
    "translations": {}
  },
  {
    "id": 136879,
    "name": "Carinaro",
    "state_id": 1731,
    "state_code": "CE",
    "country_id": 107,
    "country_code": "IT",
    "latitude": "40.98291000",
    "longitude": "14.21963000",
    "native": null,
    "timezone": "Europe/Rome",
    "translations": {}
  },
  {
    "id": 136881,
    "name": "Carinola",
    "state_id": 1731,
    "state_code": "CE",
    "country_id": 107,
    "country_code": "IT",
    "latitude": "41.18775000",
    "longitude": "13.98240000",
    "native": null,
    "timezone": "Europe/Rome",
    "translations": {}
  },
  {
    "id": 136956,
    "name": "Casagiove",
    "state_id": 1731,
    "state_code": "CE",
    "country_id": 107,
    "country_code": "IT",
    "latitude": "41.07124000",
    "longitude": "14.31163000",
    "native": null,
    "timezone": "Europe/Rome",
    "translations": {}
  },
  {
    "id": 136960,
    "name": "Casal di Principe",
    "state_id": 1731,
    "state_code": "CE",
    "country_id": 107,
    "country_code": "IT",
    "latitude": "41.00996000",
    "longitude": "14.13013000",
    "native": null,
    "timezone": "Europe/Rome",
    "translations": {}
  },
  {
    "id": 136972,
    "name": "Casale",
    "state_id": 1731,
    "state_code": "CE",
    "country_id": 107,
    "country_code": "IT",
    "latitude": "41.21972000",
    "longitude": "14.00231000",
    "native": null,
    "timezone": "Europe/Rome",
    "translations": {}
  },
  {
    "id": 137009,
    "name": "Casaluce",
    "state_id": 1731,
    "state_code": "CE",
    "country_id": 107,
    "country_code": "IT",
    "latitude": "40.99785000",
    "longitude": "14.19671000",
    "native": null,
    "timezone": "Europe/Rome",
    "translations": {}
  },
  {
    "id": 137021,
    "name": "Casanova",
    "state_id": 1731,
    "state_code": "CE",
    "country_id": 107,
    "country_code": "IT",
    "latitude": "41.19254000",
    "longitude": "13.96344000",
    "native": null,
    "timezone": "Europe/Rome",
    "translations": {}
  },
  {
    "id": 137026,
    "name": "Casapesenna",
    "state_id": 1731,
    "state_code": "CE",
    "country_id": 107,
    "country_code": "IT",
    "latitude": "40.99151000",
    "longitude": "14.13613000",
    "native": null,
    "timezone": "Europe/Rome",
    "translations": {}
  },
  {
    "id": 137029,
    "name": "Casapulla",
    "state_id": 1731,
    "state_code": "CE",
    "country_id": 107,
    "country_code": "IT",
    "latitude": "41.07665000",
    "longitude": "14.28927000",
    "native": null,
    "timezone": "Europe/Rome",
    "translations": {}
  },
  {
    "id": 137044,
    "name": "Cascano",
    "state_id": 1731,
    "state_code": "CE",
    "country_id": 107,
    "country_code": "IT",
    "latitude": "41.23232000",
    "longitude": "13.96927000",
    "native": null,
    "timezone": "Europe/Rome",
    "translations": {}
  },
  {
    "id": 137065,
    "name": "Caserta",
    "state_id": 1731,
    "state_code": "CE",
    "country_id": 107,
    "country_code": "IT",
    "latitude": "41.07262000",
    "longitude": "14.33231000",
    "native": null,
    "timezone": "Europe/Rome",
    "translations": {}
  },
  {
    "id": 137077,
    "name": "Casola",
    "state_id": 1731,
    "state_code": "CE",
    "country_id": 107,
    "country_code": "IT",
    "latitude": "41.09513000",
    "longitude": "14.38172000",
    "native": null,
    "timezone": "Europe/Rome",
    "translations": {}
  },
  {
    "id": 137132,
    "name": "Castel Campagnano",
    "state_id": 1731,
    "state_code": "CE",
    "country_id": 107,
    "country_code": "IT",
    "latitude": "41.18240000",
    "longitude": "14.45300000",
    "native": null,
    "timezone": "Europe/Rome",
    "translations": {}
  },
  {
    "id": 137174,
    "name": "Castel di Sasso",
    "state_id": 1731,
    "state_code": "CE",
    "country_id": 107,
    "country_code": "IT",
    "latitude": "41.19242000",
    "longitude": "14.27773000",
    "native": null,
    "timezone": "Europe/Rome",
    "translations": {}
  },
  {
    "id": 137146,
    "name": "Castel Morrone",
    "state_id": 1731,
    "state_code": "CE",
    "country_id": 107,
    "country_code": "IT",
    "latitude": "41.12102000",
    "longitude": "14.35473000",
    "native": null,
    "timezone": "Europe/Rome",
    "translations": {}
  },
  {
    "id": 137161,
    "name": "Castel Volturno",
    "state_id": 1731,
    "state_code": "CE",
    "country_id": 107,
    "country_code": "IT",
    "latitude": "41.03288000",
    "longitude": "13.94354000",
    "native": null,
    "timezone": "Europe/Rome",
    "translations": {}
  },
  {
    "id": 137257,
    "name": "Castello del Matese",
    "state_id": 1731,
    "state_code": "CE",
    "country_id": 107,
    "country_code": "IT",
    "latitude": "41.36672000",
    "longitude": "14.37773000",
    "native": null,
    "timezone": "Europe/Rome",
    "translations": {}
  },
  {
    "id": 137482,
    "name": "Cellole",
    "state_id": 1731,
    "state_code": "CE",
    "country_id": 107,
    "country_code": "IT",
    "latitude": "41.20338000",
    "longitude": "13.85332000",
    "native": null,
    "timezone": "Europe/Rome",
    "translations": {}
  },
  {
    "id": 137596,
    "name": "Cervino",
    "state_id": 1731,
    "state_code": "CE",
    "country_id": 107,
    "country_code": "IT",
    "latitude": "41.04001000",
    "longitude": "14.42403000",
    "native": null,
    "timezone": "Europe/Rome",
    "translations": {}
  },
  {
    "id": 137600,
    "name": "Cesa",
    "state_id": 1731,
    "state_code": "CE",
    "country_id": 107,
    "country_code": "IT",
    "latitude": "40.96287000",
    "longitude": "14.23081000",
    "native": null,
    "timezone": "Europe/Rome",
    "translations": {}
  },
  {
    "id": 137743,
    "name": "Ciorlano",
    "state_id": 1731,
    "state_code": "CE",
    "country_id": 107,
    "country_code": "IT",
    "latitude": "41.45022000",
    "longitude": "14.15832000",
    "native": null,
    "timezone": "Europe/Rome",
    "translations": {}
  },
  {
    "id": 137955,
    "name": "Conca della Campania",
    "state_id": 1731,
    "state_code": "CE",
    "country_id": 107,
    "country_code": "IT",
    "latitude": "41.33174000",
    "longitude": "13.99142000",
    "native": null,
    "timezone": "Europe/Rome",
    "translations": {}
  },
  {
    "id": 138209,
    "name": "Curti",
    "state_id": 1731,
    "state_code": "CE",
    "country_id": 107,
    "country_code": "IT",
    "latitude": "41.07616000",
    "longitude": "14.28039000",
    "native": null,
    "timezone": "Europe/Rome",
    "translations": {}
  },
  {
    "id": 138326,
    "name": "Dragoni",
    "state_id": 1731,
    "state_code": "CE",
    "country_id": 107,
    "country_code": "IT",
    "latitude": "41.27619000",
    "longitude": "14.30368000",
    "native": null,
    "timezone": "Europe/Rome",
    "translations": {}
  },
  {
    "id": 138414,
    "name": "Falciano del Massico",
    "state_id": 1731,
    "state_code": "CE",
    "country_id": 107,
    "country_code": "IT",
    "latitude": "41.16271000",
    "longitude": "13.94812000",
    "native": null,
    "timezone": "Europe/Rome",
    "translations": {}
  },
  {
    "id": 138611,
    "name": "Fontegreca",
    "state_id": 1731,
    "state_code": "CE",
    "country_id": 107,
    "country_code": "IT",
    "latitude": "41.45653000",
    "longitude": "14.18385000",
    "native": null,
    "timezone": "Europe/Rome",
    "translations": {}
  },
  {
    "id": 138638,
    "name": "Formicola",
    "state_id": 1731,
    "state_code": "CE",
    "country_id": 107,
    "country_code": "IT",
    "latitude": "41.21084000",
    "longitude": "14.23462000",
    "native": null,
    "timezone": "Europe/Rome",
    "translations": {}
  },
  {
    "id": 138705,
    "name": "Francolise",
    "state_id": 1731,
    "state_code": "CE",
    "country_id": 107,
    "country_code": "IT",
    "latitude": "41.18501000",
    "longitude": "14.05672000",
    "native": null,
    "timezone": "Europe/Rome",
    "translations": {}
  },
  {
    "id": 138734,
    "name": "Frignano",
    "state_id": 1731,
    "state_code": "CE",
    "country_id": 107,
    "country_code": "IT",
    "latitude": "40.99811000",
    "longitude": "14.17913000",
    "native": null,
    "timezone": "Europe/Rome",
    "translations": {}
  },
  {
    "id": 138816,
    "name": "Gallo",
    "state_id": 1731,
    "state_code": "CE",
    "country_id": 107,
    "country_code": "IT",
    "latitude": "41.46499000",
    "longitude": "14.22519000",
    "native": null,
    "timezone": "Europe/Rome",
    "translations": {}
  },
  {
    "id": 138817,
    "name": "Gallo Matese",
    "state_id": 1731,
    "state_code": "CE",
    "country_id": 107,
    "country_code": "IT",
    "latitude": "41.46452000",
    "longitude": "14.22502000",
    "native": null,
    "timezone": "Europe/Rome",
    "translations": {}
  },
  {
    "id": 138820,
    "name": "Galluccio",
    "state_id": 1731,
    "state_code": "CE",
    "country_id": 107,
    "country_code": "IT",
    "latitude": "41.35232000",
    "longitude": "13.95372000",
    "native": null,
    "timezone": "Europe/Rome",
    "translations": {}
  },
  {
    "id": 138942,
    "name": "Giano Vetusto",
    "state_id": 1731,
    "state_code": "CE",
    "country_id": 107,
    "country_code": "IT",
    "latitude": "41.20272000",
    "longitude": "14.19342000",
    "native": null,
    "timezone": "Europe/Rome",
    "translations": {}
  },
  {
    "id": 138968,
    "name": "Gioia Sannitica",
    "state_id": 1731,
    "state_code": "CE",
    "country_id": 107,
    "country_code": "IT",
    "latitude": "41.29965000",
    "longitude": "14.44381000",
    "native": null,
    "timezone": "Europe/Rome",
    "translations": {}
  },
  {
    "id": 139084,
    "name": "Grazzanise",
    "state_id": 1731,
    "state_code": "CE",
    "country_id": 107,
    "country_code": "IT",
    "latitude": "41.08970000",
    "longitude": "14.09878000",
    "native": null,
    "timezone": "Europe/Rome",
    "translations": {}
  },
  {
    "id": 139096,
    "name": "Gricignano di Aversa",
    "state_id": 1731,
    "state_code": "CE",
    "country_id": 107,
    "country_code": "IT",
    "latitude": "40.97973000",
    "longitude": "14.23087000",
    "native": null,
    "timezone": "Europe/Rome",
    "translations": {}
  },
  {
    "id": 139129,
    "name": "Grottola",
    "state_id": 1731,
    "state_code": "CE",
    "country_id": 107,
    "country_code": "IT",
    "latitude": "41.31708000",
    "longitude": "14.04121000",
    "native": null,
    "timezone": "Europe/Rome",
    "translations": {}
  },
  {
    "id": 139476,
    "name": "Letino",
    "state_id": 1731,
    "state_code": "CE",
    "country_id": 107,
    "country_code": "IT",
    "latitude": "41.45302000",
    "longitude": "14.25542000",
    "native": null,
    "timezone": "Europe/Rome",
    "translations": {}
  },
  {
    "id": 139492,
    "name": "Liberi",
    "state_id": 1731,
    "state_code": "CE",
    "country_id": 107,
    "country_code": "IT",
    "latitude": "41.22648000",
    "longitude": "14.28985000",
    "native": null,
    "timezone": "Europe/Rome",
    "translations": {}
  },
  {
    "id": 139670,
    "name": "Lusciano",
    "state_id": 1731,
    "state_code": "CE",
    "country_id": 107,
    "country_code": "IT",
    "latitude": "40.97001000",
    "longitude": "14.19043000",
    "native": null,
    "timezone": "Europe/Rome",
    "translations": {}
  },
  {
    "id": 139697,
    "name": "Macerata Campania",
    "state_id": 1731,
    "state_code": "CE",
    "country_id": 107,
    "country_code": "IT",
    "latitude": "41.06327000",
    "longitude": "14.27750000",
    "native": null,
    "timezone": "Europe/Rome",
    "translations": {}
  },
  {
    "id": 139706,
    "name": "Maddaloni",
    "state_id": 1731,
    "state_code": "CE",
    "country_id": 107,
    "country_code": "IT",
    "latitude": "41.03578000",
    "longitude": "14.38230000",
    "native": null,
    "timezone": "Europe/Rome",
    "translations": {}
  },
  {
    "id": 139847,
    "name": "Marcianise",
    "state_id": 1731,
    "state_code": "CE",
    "country_id": 107,
    "country_code": "IT",
    "latitude": "41.03064000",
    "longitude": "14.29868000",
    "native": null,
    "timezone": "Europe/Rome",
    "translations": {}
  },
  {
    "id": 139944,
    "name": "Marzanello",
    "state_id": 1731,
    "state_code": "CE",
    "country_id": 107,
    "country_code": "IT",
    "latitude": "41.31447000",
    "longitude": "14.11611000",
    "native": null,
    "timezone": "Europe/Rome",
    "translations": {}
  },
  {
    "id": 139946,
    "name": "Marzano Appio",
    "state_id": 1731,
    "state_code": "CE",
    "country_id": 107,
    "country_code": "IT",
    "latitude": "41.31772000",
    "longitude": "14.04502000",
    "native": null,
    "timezone": "Europe/Rome",
    "translations": {}
  },
  {
    "id": 140141,
    "name": "Mignano Monte Lungo",
    "state_id": 1731,
    "state_code": "CE",
    "country_id": 107,
    "country_code": "IT",
    "latitude": "41.40592000",
    "longitude": "13.98552000",
    "native": null,
    "timezone": "Europe/Rome",
    "translations": {}
  },
  {
    "id": 140276,
    "name": "Mondragone",
    "state_id": 1731,
    "state_code": "CE",
    "country_id": 107,
    "country_code": "IT",
    "latitude": "41.11399000",
    "longitude": "13.89157000",
    "native": null,
    "timezone": "Europe/Rome",
    "translations": {}
  },
  {
    "id": 140426,
    "name": "Montedecoro",
    "state_id": 1731,
    "state_code": "CE",
    "country_id": 107,
    "country_code": "IT",
    "latitude": "41.02772000",
    "longitude": "14.41774000",
    "native": null,
    "timezone": "Europe/Rome",
    "translations": {}
  },
  {
    "id": 140781,
    "name": "Nocelleto",
    "state_id": 1731,
    "state_code": "CE",
    "country_id": 107,
    "country_code": "IT",
    "latitude": "41.17067000",
    "longitude": "14.01565000",
    "native": null,
    "timezone": "Europe/Rome",
    "translations": {}
  },
  {
    "id": 140979,
    "name": "Orta di Atella",
    "state_id": 1731,
    "state_code": "CE",
    "country_id": 107,
    "country_code": "IT",
    "latitude": "40.96441000",
    "longitude": "14.26854000",
    "native": null,
    "timezone": "Europe/Rome",
    "translations": {}
  },
  {
    "id": 58303,
    "name": "Parete",
    "state_id": 1731,
    "state_code": "CE",
    "country_id": 107,
    "country_code": "IT",
    "latitude": "40.95891000",
    "longitude": "14.16193000",
    "native": null,
    "timezone": "Europe/Rome",
    "translations": {}
  },
  {
    "id": 58339,
    "name": "Pastorano",
    "state_id": 1731,
    "state_code": "CE",
    "country_id": 107,
    "country_code": "IT",
    "latitude": "41.18082000",
    "longitude": "14.19823000",
    "native": null,
    "timezone": "Europe/Rome",
    "translations": {}
  },
  {
    "id": 58515,
    "name": "Piana di Monte Verna",
    "state_id": 1731,
    "state_code": "CE",
    "country_id": 107,
    "country_code": "IT",
    "latitude": "41.16712000",
    "longitude": "14.33373000",
    "native": null,
    "timezone": "Europe/Rome",
    "translations": {}
  },
  {
    "id": 58588,
    "name": "Piedimonte",
    "state_id": 1731,
    "state_code": "CE",
    "country_id": 107,
    "country_code": "IT",
    "latitude": "41.18886000",
    "longitude": "13.89856000",
    "native": null,
    "timezone": "Europe/Rome",
    "translations": {}
  },
  {
    "id": 58590,
    "name": "Piedimonte Matese",
    "state_id": 1731,
    "state_code": "CE",
    "country_id": 107,
    "country_code": "IT",
    "latitude": "41.35082000",
    "longitude": "14.36803000",
    "native": null,
    "timezone": "Europe/Rome",
    "translations": {}
  },
  {
    "id": 58616,
    "name": "Pietramelara",
    "state_id": 1731,
    "state_code": "CE",
    "country_id": 107,
    "country_code": "IT",
    "latitude": "41.27086000",
    "longitude": "14.18711000",
    "native": null,
    "timezone": "Europe/Rome",
    "translations": {}
  },
  {
    "id": 58627,
    "name": "Pietravairano",
    "state_id": 1731,
    "state_code": "CE",
    "country_id": 107,
    "country_code": "IT",
    "latitude": "41.32522000",
    "longitude": "14.16592000",
    "native": null,
    "timezone": "Europe/Rome",
    "translations": {}
  },
  {
    "id": 58662,
    "name": "Pignataro Maggiore",
    "state_id": 1731,
    "state_code": "CE",
    "country_id": 107,
    "country_code": "IT",
    "latitude": "41.19006000",
    "longitude": "14.16978000",
    "native": null,
    "timezone": "Europe/Rome",
    "translations": {}
  },
  {
    "id": 58873,
    "name": "Pontelatone",
    "state_id": 1731,
    "state_code": "CE",
    "country_id": 107,
    "country_code": "IT",
    "latitude": "41.19460000",
    "longitude": "14.24814000",
    "native": null,
    "timezone": "Europe/Rome",
    "translations": {}
  },
  {
    "id": 58918,
    "name": "Portico di Caserta",
    "state_id": 1731,
    "state_code": "CE",
    "country_id": 107,
    "country_code": "IT",
    "latitude": "41.05562000",
    "longitude": "14.28022000",
    "native": null,
    "timezone": "Europe/Rome",
    "translations": {}
  },
  {
    "id": 58981,
    "name": "Pozzillo",
    "state_id": 1731,
    "state_code": "CE",
    "country_id": 107,
    "country_code": "IT",
    "latitude": "41.20337000",
    "longitude": "14.19530000",
    "native": null,
    "timezone": "Europe/Rome",
    "translations": {}
  },
  {
    "id": 59014,
    "name": "Prata Sannita Centro",
    "state_id": 1731,
    "state_code": "CE",
    "country_id": 107,
    "country_code": "IT",
    "latitude": "41.43282000",
    "longitude": "14.20272000",
    "native": null,
    "timezone": "Europe/Rome",
    "translations": {}
  },
  {
    "id": 59019,
    "name": "Pratella",
    "state_id": 1731,
    "state_code": "CE",
    "country_id": 107,
    "country_code": "IT",
    "latitude": "41.40579000",
    "longitude": "14.17913000",
    "native": null,
    "timezone": "Europe/Rome",
    "translations": {}
  },
  {
    "id": 59065,
    "name": "Presenzano",
    "state_id": 1731,
    "state_code": "CE",
    "country_id": 107,
    "country_code": "IT",
    "latitude": "41.37823000",
    "longitude": "14.09162000",
    "native": null,
    "timezone": "Europe/Rome",
    "translations": {}
  },
  {
    "id": 59302,
    "name": "Raviscanina",
    "state_id": 1731,
    "state_code": "CE",
    "country_id": 107,
    "country_code": "IT",
    "latitude": "41.37090000",
    "longitude": "14.24335000",
    "native": null,
    "timezone": "Europe/Rome",
    "translations": {}
  },
  {
    "id": 59309,
    "name": "Recale",
    "state_id": 1731,
    "state_code": "CE",
    "country_id": 107,
    "country_code": "IT",
    "latitude": "41.05702000",
    "longitude": "14.30270000",
    "native": null,
    "timezone": "Europe/Rome",
    "translations": {}
  },
  {
    "id": 59358,
    "name": "Riardo",
    "state_id": 1731,
    "state_code": "CE",
    "country_id": 107,
    "country_code": "IT",
    "latitude": "41.26197000",
    "longitude": "14.15045000",
    "native": null,
    "timezone": "Europe/Rome",
    "translations": {}
  },
  {
    "id": 59509,
    "name": "Roccamonfina",
    "state_id": 1731,
    "state_code": "CE",
    "country_id": 107,
    "country_code": "IT",
    "latitude": "41.28683000",
    "longitude": "13.97905000",
    "native": null,
    "timezone": "Europe/Rome",
    "translations": {}
  },
  {
    "id": 59517,
    "name": "Roccaromana",
    "state_id": 1731,
    "state_code": "CE",
    "country_id": 107,
    "country_code": "IT",
    "latitude": "41.27360000",
    "longitude": "14.22190000",
    "native": null,
    "timezone": "Europe/Rome",
    "translations": {}
  },
  {
    "id": 59535,
    "name": "Rocchetta",
    "state_id": 1731,
    "state_code": "CE",
    "country_id": 107,
    "country_code": "IT",
    "latitude": "41.23716000",
    "longitude": "14.15765000",
    "native": null,
    "timezone": "Europe/Rome",
    "translations": {}
  },
  {
    "id": 59707,
    "name": "Ruviano",
    "state_id": 1731,
    "state_code": "CE",
    "country_id": 107,
    "country_code": "IT",
    "latitude": "41.21063000",
    "longitude": "14.40983000",
    "native": null,
    "timezone": "Europe/Rome",
    "translations": {}
  },
  {
    "id": 59861,
    "name": "San Castrese",
    "state_id": 1731,
    "state_code": "CE",
    "country_id": 107,
    "country_code": "IT",
    "latitude": "41.25862000",
    "longitude": "13.86541000",
    "native": null,
    "timezone": "Europe/Rome",
    "translations": {}
  },
  {
    "id": 59871,
    "name": "San Cipriano d'Aversa",
    "state_id": 1731,
    "state_code": "CE",
    "country_id": 107,
    "country_code": "IT",
    "latitude": "40.99881000",
    "longitude": "14.13173000",
    "native": null,
    "timezone": "Europe/Rome",
    "translations": {}
  },
  {
    "id": 59875,
    "name": "San Clemente",
    "state_id": 1731,
    "state_code": "CE",
    "country_id": 107,
    "country_code": "IT",
    "latitude": "41.34027000",
    "longitude": "13.95597000",
    "native": null,
    "timezone": "Europe/Rome",
    "translations": {}
  },
  {
    "id": 59908,
    "name": "San Felice A Cancello",
    "state_id": 1731,
    "state_code": "CE",
    "country_id": 107,
    "country_code": "IT",
    "latitude": "41.01702000",
    "longitude": "14.48736000",
    "native": null,
    "timezone": "Europe/Rome",
    "translations": {}
  },
  {
    "id": 59952,
    "name": "San Giorgio",
    "state_id": 1731,
    "state_code": "CE",
    "country_id": 107,
    "country_code": "IT",
    "latitude": "41.27065000",
    "longitude": "14.31278000",
    "native": null,
    "timezone": "Europe/Rome",
    "translations": {}
  },
  {
    "id": 60021,
    "name": "San Gregorio Matese",
    "state_id": 1731,
    "state_code": "CE",
    "country_id": 107,
    "country_code": "IT",
    "latitude": "41.38556000",
    "longitude": "14.37217000",
    "native": null,
    "timezone": "Europe/Rome",
    "translations": {}
  },
  {
    "id": 60057,
    "name": "San Marcellino",
    "state_id": 1731,
    "state_code": "CE",
    "country_id": 107,
    "country_code": "IT",
    "latitude": "40.99001000",
    "longitude": "14.17583000",
    "native": null,
    "timezone": "Europe/Rome",
    "translations": {}
  },
  {
    "id": 60062,
    "name": "San Marco Evangelista",
    "state_id": 1731,
    "state_code": "CE",
    "country_id": 107,
    "country_code": "IT",
    "latitude": "41.03702000",
    "longitude": "14.33979000",
    "native": null,
    "timezone": "Europe/Rome",
    "translations": {}
  },
  {
    "id": 60142,
    "name": "San Nicola la Strada",
    "state_id": 1731,
    "state_code": "CE",
    "country_id": 107,
    "country_code": "IT",
    "latitude": "41.05237000",
    "longitude": "14.33334000",
    "native": null,
    "timezone": "Europe/Rome",
    "translations": {}
  },
  {
    "id": 60179,
    "name": "San Pietro Infine",
    "state_id": 1731,
    "state_code": "CE",
    "country_id": 107,
    "country_code": "IT",
    "latitude": "41.44552000",
    "longitude": "13.96029000",
    "native": null,
    "timezone": "Europe/Rome",
    "translations": {}
  },
  {
    "id": 60211,
    "name": "San Potito Sannitico",
    "state_id": 1731,
    "state_code": "CE",
    "country_id": 107,
    "country_code": "IT",
    "latitude": "41.33698000",
    "longitude": "14.39185000",
    "native": null,
    "timezone": "Europe/Rome",
    "translations": {}
  },
  {
    "id": 60213,
    "name": "San Prisco",
    "state_id": 1731,
    "state_code": "CE",
    "country_id": 107,
    "country_code": "IT",
    "latitude": "41.08592000",
    "longitude": "14.27675000",
    "native": null,
    "timezone": "Europe/Rome",
    "translations": {}
  },
  {
    "id": 60251,
    "name": "San Tammaro",
    "state_id": 1731,
    "state_code": "CE",
    "country_id": 107,
    "country_code": "IT",
    "latitude": "41.07588000",
    "longitude": "14.23105000",
    "native": null,
    "timezone": "Europe/Rome",
    "translations": {}
  },
  {
    "id": 60350,
    "name": "Sant'Andrea-Pizzone-Ciamprisco",
    "state_id": 1731,
    "state_code": "CE",
    "country_id": 107,
    "country_code": "IT",
    "latitude": "41.15000000",
    "longitude": "14.03333000",
    "native": null,
    "timezone": "Europe/Rome",
    "translations": {}
  },
  {
    "id": 60362,
    "name": "Sant'Angelo d'Alife",
    "state_id": 1731,
    "state_code": "CE",
    "country_id": 107,
    "country_code": "IT",
    "latitude": "41.36119000",
    "longitude": "14.26125000",
    "native": null,
    "timezone": "Europe/Rome",
    "translations": {}
  },
  {
    "id": 60367,
    "name": "Sant'Angelo in Formis",
    "state_id": 1731,
    "state_code": "CE",
    "country_id": 107,
    "country_code": "IT",
    "latitude": "41.11667000",
    "longitude": "14.25000000",
    "native": null,
    "timezone": "Europe/Rome",
    "translations": {}
  },
  {
    "id": 60389,
    "name": "Sant'Arpino",
    "state_id": 1731,
    "state_code": "CE",
    "country_id": 107,
    "country_code": "IT",
    "latitude": "40.95716000",
    "longitude": "14.25075000",
    "native": null,
    "timezone": "Europe/Rome",
    "translations": {}
  },
  {
    "id": 60445,
    "name": "Santa Lucia",
    "state_id": 1731,
    "state_code": "CE",
    "country_id": 107,
    "country_code": "IT",
    "latitude": "41.30409000",
    "longitude": "14.07937000",
    "native": null,
    "timezone": "Europe/Rome",
    "translations": {}
  },
  {
    "id": 60457,
    "name": "Santa Maria A Vico",
    "state_id": 1731,
    "state_code": "CE",
    "country_id": 107,
    "country_code": "IT",
    "latitude": "41.02611000",
    "longitude": "14.46515000",
    "native": null,
    "timezone": "Europe/Rome",
    "translations": {}
  },
  {
    "id": 60459,
    "name": "Santa Maria Capua Vetere",
    "state_id": 1731,
    "state_code": "CE",
    "country_id": 107,
    "country_code": "IT",
    "latitude": "41.08156000",
    "longitude": "14.25342000",
    "native": null,
    "timezone": "Europe/Rome",
    "translations": {}
  },
  {
    "id": 60479,
    "name": "Santa Maria la Fossa",
    "state_id": 1731,
    "state_code": "CE",
    "country_id": 107,
    "country_code": "IT",
    "latitude": "41.09171000",
    "longitude": "14.12822000",
    "native": null,
    "timezone": "Europe/Rome",
    "translations": {}
  },
  {
    "id": 60788,
    "name": "Sessa Aurunca",
    "state_id": 1731,
    "state_code": "CE",
    "country_id": 107,
    "country_code": "IT",
    "latitude": "41.23987000",
    "longitude": "13.92966000",
    "native": null,
    "timezone": "Europe/Rome",
    "translations": {}
  },
  {
    "id": 60990,
    "name": "Sparanise",
    "state_id": 1731,
    "state_code": "CE",
    "country_id": 107,
    "country_code": "IT",
    "latitude": "41.18788000",
    "longitude": "14.09628000",
    "native": null,
    "timezone": "Europe/Rome",
    "translations": {}
  },
  {
    "id": 61110,
    "name": "Succivo",
    "state_id": 1731,
    "state_code": "CE",
    "country_id": 107,
    "country_code": "IT",
    "latitude": "40.96801000",
    "longitude": "14.25563000",
    "native": null,
    "timezone": "Europe/Rome",
    "translations": {}
  },
  {
    "id": 61199,
    "name": "Teano",
    "state_id": 1731,
    "state_code": "CE",
    "country_id": 107,
    "country_code": "IT",
    "latitude": "41.25132000",
    "longitude": "14.06652000",
    "native": null,
    "timezone": "Europe/Rome",
    "translations": {}
  },
  {
    "id": 61269,
    "name": "Teverola",
    "state_id": 1731,
    "state_code": "CE",
    "country_id": 107,
    "country_code": "IT",
    "latitude": "40.99561000",
    "longitude": "14.20763000",
    "native": null,
    "timezone": "Europe/Rome",
    "translations": {}
  },
  {
    "id": 61315,
    "name": "Tora",
    "state_id": 1731,
    "state_code": "CE",
    "country_id": 107,
    "country_code": "IT",
    "latitude": "41.33987000",
    "longitude": "14.02399000",
    "native": null,
    "timezone": "Europe/Rome",
    "translations": {}
  },
  {
    "id": 61484,
    "name": "Trentola-Ducenta",
    "state_id": 1731,
    "state_code": "CE",
    "country_id": 107,
    "country_code": "IT",
    "latitude": "40.97517000",
    "longitude": "14.17490000",
    "native": null,
    "timezone": "Europe/Rome",
    "translations": {}
  },
  {
    "id": 61641,
    "name": "Vairano-Patenora",
    "state_id": 1731,
    "state_code": "CE",
    "country_id": 107,
    "country_code": "IT",
    "latitude": "41.33702000",
    "longitude": "14.13112000",
    "native": null,
    "timezone": "Europe/Rome",
    "translations": {}
  },
  {
    "id": 61684,
    "name": "Valle Agricola",
    "state_id": 1731,
    "state_code": "CE",
    "country_id": 107,
    "country_code": "IT",
    "latitude": "41.42477000",
    "longitude": "14.25584000",
    "native": null,
    "timezone": "Europe/Rome",
    "translations": {}
  },
  {
    "id": 61698,
    "name": "Valle di Maddaloni",
    "state_id": 1731,
    "state_code": "CE",
    "country_id": 107,
    "country_code": "IT",
    "latitude": "41.07946000",
    "longitude": "14.41788000",
    "native": null,
    "timezone": "Europe/Rome",
    "translations": {}
  },
  {
    "id": 62040,
    "name": "Villa di Briano",
    "state_id": 1731,
    "state_code": "CE",
    "country_id": 107,
    "country_code": "IT",
    "latitude": "41.00001000",
    "longitude": "14.16073000",
    "native": null,
    "timezone": "Europe/Rome",
    "translations": {}
  },
  {
    "id": 62004,
    "name": "Villa Literno",
    "state_id": 1731,
    "state_code": "CE",
    "country_id": 107,
    "country_code": "IT",
    "latitude": "41.00942000",
    "longitude": "14.07612000",
    "native": null,
    "timezone": "Europe/Rome",
    "translations": {}
  },
  {
    "id": 62189,
    "name": "Vitulazio",
    "state_id": 1731,
    "state_code": "CE",
    "country_id": 107,
    "country_code": "IT",
    "latitude": "41.16302000",
    "longitude": "14.21341000",
    "native": null,
    "timezone": "Europe/Rome",
    "translations": {}
  },
  {
    "id": 62288,
    "name": "Zuni",
    "state_id": 1731,
    "state_code": "CE",
    "country_id": 107,
    "country_code": "IT",
    "latitude": "41.21722000",
    "longitude": "14.13082000",
    "native": null,
    "timezone": "Europe/Rome",
    "translations": {}
  }
]