[
  {
    "id": 162678,
    "name": "Arenitas Blancas",
    "state_id": 3220,
    "state_code": "SA",
    "country_id": 235,
    "country_code": "UY",
    "latitude": "-31.41679667",
    "longitude": "-57.99969572",
    "native": null,
    "timezone": "America/Montevideo",
    "translations": {}
  },
  {
    "id": 162674,
    "name": "Balneario Albisu",
    "state_id": 3220,
    "state_code": "SA",
    "country_id": 235,
    "country_code": "UY",
    "latitude": "-31.38398302",
    "longitude": "-57.81490573",
    "native": null,
    "timezone": "America/Montevideo",
    "translations": {}
  },
  {
    "id": 129783,
    "name": "Belén",
    "state_id": 3220,
    "state_code": "SA",
    "country_id": 235,
    "country_code": "UY",
    "latitude": "-30.78716000",
    "longitude": "-57.77577000",
    "native": null,
    "timezone": "America/Montevideo",
    "translations": {}
  },
  {
    "id": 162675,
    "name": "Biassini",
    "state_id": 3220,
    "state_code": "SA",
    "country_id": 235,
    "country_code": "UY",
    "latitude": "-31.27792172",
    "longitude": "-57.12313960",
    "native": null,
    "timezone": "America/Montevideo",
    "translations": {}
  },
  {
    "id": 163329,
    "name": "Bordenave",
    "state_id": 3220,
    "state_code": "SA",
    "country_id": 235,
    "country_code": "UY",
    "latitude": "-31.08836990",
    "longitude": "-56.69387440",
    "native": null,
    "timezone": "America/Montevideo",
    "translations": {}
  },
  {
    "id": 162676,
    "name": "Campo de Todos",
    "state_id": 3220,
    "state_code": "SA",
    "country_id": 235,
    "country_code": "UY",
    "latitude": "-31.56345294",
    "longitude": "-57.61672822",
    "native": null,
    "timezone": "America/Montevideo",
    "translations": {}
  },
  {
    "id": 163326,
    "name": "Carumbe",
    "state_id": 3220,
    "state_code": "SA",
    "country_id": 235,
    "country_code": "UY",
    "latitude": "-31.52734479",
    "longitude": "-56.60395021",
    "native": null,
    "timezone": "America/Montevideo",
    "translations": {}
  },
  {
    "id": 163327,
    "name": "Cerrillada",
    "state_id": 3220,
    "state_code": "SA",
    "country_id": 235,
    "country_code": "UY",
    "latitude": "-31.64405554",
    "longitude": "-56.82942137",
    "native": null,
    "timezone": "America/Montevideo",
    "translations": {}
  },
  {
    "id": 163342,
    "name": "Cerrilladas de Saucedo",
    "state_id": 3220,
    "state_code": "SA",
    "country_id": 235,
    "country_code": "UY",
    "latitude": "-31.13847843",
    "longitude": "-57.51688919",
    "native": null,
    "timezone": "America/Montevideo",
    "translations": {}
  },
  {
    "id": 163323,
    "name": "Cerro Chato",
    "state_id": 3220,
    "state_code": "SA",
    "country_id": 235,
    "country_code": "UY",
    "latitude": "-31.34057780",
    "longitude": "-56.65440641",
    "native": null,
    "timezone": "America/Montevideo",
    "translations": {}
  },
  {
    "id": 162679,
    "name": "Cerros de Vera",
    "state_id": 3220,
    "state_code": "SA",
    "country_id": 235,
    "country_code": "UY",
    "latitude": "-31.60075486",
    "longitude": "-56.81262106",
    "native": null,
    "timezone": "America/Montevideo",
    "translations": {}
  },
  {
    "id": 163938,
    "name": "Chacras de Belen",
    "state_id": 3220,
    "state_code": "SA",
    "country_id": 235,
    "country_code": "UY",
    "latitude": "-30.76144628",
    "longitude": "-57.75976936",
    "native": null,
    "timezone": "America/Montevideo",
    "translations": {}
  },
  {
    "id": 163349,
    "name": "Chacras de Constitucion",
    "state_id": 3220,
    "state_code": "SA",
    "country_id": 235,
    "country_code": "UY",
    "latitude": "-31.07703954",
    "longitude": "-57.78830795",
    "native": null,
    "timezone": "America/Montevideo",
    "translations": {}
  },
  {
    "id": 162666,
    "name": "Colonia 18 de Julio",
    "state_id": 3220,
    "state_code": "SA",
    "country_id": 235,
    "country_code": "UY",
    "latitude": "-31.35776366",
    "longitude": "-57.87448809",
    "native": null,
    "timezone": "America/Montevideo",
    "translations": {}
  },
  {
    "id": 162673,
    "name": "Colonia Itapebi",
    "state_id": 3220,
    "state_code": "SA",
    "country_id": 235,
    "country_code": "UY",
    "latitude": "-31.33778634",
    "longitude": "-57.40668813",
    "native": null,
    "timezone": "America/Montevideo",
    "translations": {}
  },
  {
    "id": 163842,
    "name": "Colonia Osimani y Llerena",
    "state_id": 3220,
    "state_code": "SA",
    "country_id": 235,
    "country_code": "UY",
    "latitude": "-31.33229167",
    "longitude": "-57.96481615",
    "native": null,
    "timezone": "America/Montevideo",
    "translations": {}
  },
  {
    "id": 163896,
    "name": "Colonia Rubio",
    "state_id": 3220,
    "state_code": "SA",
    "country_id": 235,
    "country_code": "UY",
    "latitude": "-31.26774798",
    "longitude": "-57.73645435",
    "native": null,
    "timezone": "America/Montevideo",
    "translations": {}
  },
  {
    "id": 162670,
    "name": "Constitucion",
    "state_id": 3220,
    "state_code": "SA",
    "country_id": 235,
    "country_code": "UY",
    "latitude": "-31.07712133",
    "longitude": "-57.82143110",
    "native": null,
    "timezone": "America/Montevideo",
    "translations": {}
  },
  {
    "id": 163320,
    "name": "Corral de Piedra",
    "state_id": 3220,
    "state_code": "SA",
    "country_id": 235,
    "country_code": "UY",
    "latitude": "-31.52904422",
    "longitude": "-56.45696154",
    "native": null,
    "timezone": "America/Montevideo",
    "translations": {}
  },
  {
    "id": 163352,
    "name": "Corralito",
    "state_id": 3220,
    "state_code": "SA",
    "country_id": 235,
    "country_code": "UY",
    "latitude": "-31.47067765",
    "longitude": "-58.05000445",
    "native": null,
    "timezone": "America/Montevideo",
    "translations": {}
  },
  {
    "id": 162260,
    "name": "Cuchilla de Guaviyu",
    "state_id": 3220,
    "state_code": "SA",
    "country_id": 235,
    "country_code": "UY",
    "latitude": "-31.03446860",
    "longitude": "-56.63392595",
    "native": null,
    "timezone": "America/Montevideo",
    "translations": {}
  },
  {
    "id": 163897,
    "name": "Cuchilla del Salto",
    "state_id": 3220,
    "state_code": "SA",
    "country_id": 235,
    "country_code": "UY",
    "latitude": "-31.41304493",
    "longitude": "-57.50445547",
    "native": null,
    "timezone": "America/Montevideo",
    "translations": {}
  },
  {
    "id": 163348,
    "name": "El Espinillar",
    "state_id": 3220,
    "state_code": "SA",
    "country_id": 235,
    "country_code": "UY",
    "latitude": "-30.95497449",
    "longitude": "-57.84547663",
    "native": null,
    "timezone": "America/Montevideo",
    "translations": {}
  },
  {
    "id": 163339,
    "name": "El Mellado",
    "state_id": 3220,
    "state_code": "SA",
    "country_id": 235,
    "country_code": "UY",
    "latitude": "-31.58506320",
    "longitude": "-57.40071280",
    "native": null,
    "timezone": "America/Montevideo",
    "translations": {}
  },
  {
    "id": 163332,
    "name": "Ferreira",
    "state_id": 3220,
    "state_code": "SA",
    "country_id": 235,
    "country_code": "UY",
    "latitude": "-31.10609771",
    "longitude": "-56.96004147",
    "native": null,
    "timezone": "America/Montevideo",
    "translations": {}
  },
  {
    "id": 162680,
    "name": "Garibaldi",
    "state_id": 3220,
    "state_code": "SA",
    "country_id": 235,
    "country_code": "UY",
    "latitude": "-31.33767544",
    "longitude": "-57.82722401",
    "native": null,
    "timezone": "America/Montevideo",
    "translations": {}
  },
  {
    "id": 162601,
    "name": "Guaviyu de Arapey",
    "state_id": 3220,
    "state_code": "SA",
    "country_id": 235,
    "country_code": "UY",
    "latitude": "-31.08872792",
    "longitude": "-56.68768386",
    "native": null,
    "timezone": "America/Montevideo",
    "translations": {}
  },
  {
    "id": 163350,
    "name": "Itapebi",
    "state_id": 3220,
    "state_code": "SA",
    "country_id": 235,
    "country_code": "UY",
    "latitude": "-31.28773580",
    "longitude": "-57.70446449",
    "native": null,
    "timezone": "America/Montevideo",
    "translations": {}
  },
  {
    "id": 163836,
    "name": "La Bolsa",
    "state_id": 3220,
    "state_code": "SA",
    "country_id": 235,
    "country_code": "UY",
    "latitude": "-31.42756171",
    "longitude": "-57.79650059",
    "native": null,
    "timezone": "America/Montevideo",
    "translations": {}
  },
  {
    "id": 163336,
    "name": "La Bolsa 02",
    "state_id": 3220,
    "state_code": "SA",
    "country_id": 235,
    "country_code": "UY",
    "latitude": "-31.29572977",
    "longitude": "-57.20025720",
    "native": null,
    "timezone": "America/Montevideo",
    "translations": {}
  },
  {
    "id": 163333,
    "name": "La Bolsa 03",
    "state_id": 3220,
    "state_code": "SA",
    "country_id": 235,
    "country_code": "UY",
    "latitude": "-31.05336268",
    "longitude": "-57.03416878",
    "native": null,
    "timezone": "America/Montevideo",
    "translations": {}
  },
  {
    "id": 163920,
    "name": "La Caballada",
    "state_id": 3220,
    "state_code": "SA",
    "country_id": 235,
    "country_code": "UY",
    "latitude": "-31.40401789",
    "longitude": "-57.98994207",
    "native": null,
    "timezone": "America/Montevideo",
    "translations": {}
  },
  {
    "id": 163344,
    "name": "La Viticola",
    "state_id": 3220,
    "state_code": "SA",
    "country_id": 235,
    "country_code": "UY",
    "latitude": "-31.32816698",
    "longitude": "-57.72537816",
    "native": null,
    "timezone": "America/Montevideo",
    "translations": {}
  },
  {
    "id": 162265,
    "name": "Las Flores",
    "state_id": 3220,
    "state_code": "SA",
    "country_id": 235,
    "country_code": "UY",
    "latitude": "-31.05688382",
    "longitude": "-57.03378713",
    "native": null,
    "timezone": "America/Montevideo",
    "translations": {}
  },
  {
    "id": 162669,
    "name": "Laureles",
    "state_id": 3220,
    "state_code": "SA",
    "country_id": 235,
    "country_code": "UY",
    "latitude": "-31.49955273",
    "longitude": "-57.52462283",
    "native": null,
    "timezone": "America/Montevideo",
    "translations": {}
  },
  {
    "id": 162455,
    "name": "Lluveras",
    "state_id": 3220,
    "state_code": "SA",
    "country_id": 235,
    "country_code": "UY",
    "latitude": "-31.10288071",
    "longitude": "-57.06261422",
    "native": null,
    "timezone": "America/Montevideo",
    "translations": {}
  },
  {
    "id": 163321,
    "name": "Los Orientales",
    "state_id": 3220,
    "state_code": "SA",
    "country_id": 235,
    "country_code": "UY",
    "latitude": "-31.60158884",
    "longitude": "-56.44579782",
    "native": null,
    "timezone": "America/Montevideo",
    "translations": {}
  },
  {
    "id": 163898,
    "name": "Mataojito",
    "state_id": 3220,
    "state_code": "SA",
    "country_id": 235,
    "country_code": "UY",
    "latitude": "-31.12287542",
    "longitude": "-56.58608875",
    "native": null,
    "timezone": "America/Montevideo",
    "translations": {}
  },
  {
    "id": 163331,
    "name": "Mataojo Grande",
    "state_id": 3220,
    "state_code": "SA",
    "country_id": 235,
    "country_code": "UY",
    "latitude": "-31.19808604",
    "longitude": "-56.52658481",
    "native": null,
    "timezone": "America/Montevideo",
    "translations": {}
  },
  {
    "id": 162363,
    "name": "Migliaro - Colonia Lavalleja",
    "state_id": 3220,
    "state_code": "SA",
    "country_id": 235,
    "country_code": "UY",
    "latitude": "-31.09681529",
    "longitude": "-57.02379703",
    "native": null,
    "timezone": "America/Montevideo",
    "translations": {}
  },
  {
    "id": 163351,
    "name": "Nueva Hesperides",
    "state_id": 3220,
    "state_code": "SA",
    "country_id": 235,
    "country_code": "UY",
    "latitude": "-31.44496189",
    "longitude": "-57.97749228",
    "native": null,
    "timezone": "America/Montevideo",
    "translations": {}
  },
  {
    "id": 162632,
    "name": "Olivera",
    "state_id": 3220,
    "state_code": "SA",
    "country_id": 235,
    "country_code": "UY",
    "latitude": "-31.12264108",
    "longitude": "-56.87856177",
    "native": null,
    "timezone": "America/Montevideo",
    "translations": {}
  },
  {
    "id": 162470,
    "name": "Osimani y Llerena",
    "state_id": 3220,
    "state_code": "SA",
    "country_id": 235,
    "country_code": "UY",
    "latitude": "-31.33202411",
    "longitude": "-57.96490751",
    "native": null,
    "timezone": "America/Montevideo",
    "translations": {}
  },
  {
    "id": 162454,
    "name": "Palomas",
    "state_id": 3220,
    "state_code": "SA",
    "country_id": 235,
    "country_code": "UY",
    "latitude": "-31.08029497",
    "longitude": "-57.61026789",
    "native": null,
    "timezone": "America/Montevideo",
    "translations": {}
  },
  {
    "id": 163346,
    "name": "Parada Herreria",
    "state_id": 3220,
    "state_code": "SA",
    "country_id": 235,
    "country_code": "UY",
    "latitude": "-31.37116456",
    "longitude": "-57.79530814",
    "native": null,
    "timezone": "America/Montevideo",
    "translations": {}
  },
  {
    "id": 162671,
    "name": "Parque Jose Luis",
    "state_id": 3220,
    "state_code": "SA",
    "country_id": 235,
    "country_code": "UY",
    "latitude": "-31.28993281",
    "longitude": "-57.94393988",
    "native": null,
    "timezone": "America/Montevideo",
    "translations": {}
  },
  {
    "id": 162313,
    "name": "Paso  Valega",
    "state_id": 3220,
    "state_code": "SA",
    "country_id": 235,
    "country_code": "UY",
    "latitude": "-31.32583279",
    "longitude": "-56.31888431",
    "native": null,
    "timezone": "America/Montevideo",
    "translations": {}
  },
  {
    "id": 162604,
    "name": "Paso Cementerio",
    "state_id": 3220,
    "state_code": "SA",
    "country_id": 235,
    "country_code": "UY",
    "latitude": "-31.40253044",
    "longitude": "-56.74170651",
    "native": null,
    "timezone": "America/Montevideo",
    "translations": {}
  },
  {
    "id": 162637,
    "name": "Paso de las Piedras de Arerungua",
    "state_id": 3220,
    "state_code": "SA",
    "country_id": 235,
    "country_code": "UY",
    "latitude": "-31.65837644",
    "longitude": "-56.61672640",
    "native": null,
    "timezone": "America/Montevideo",
    "translations": {}
  },
  {
    "id": 162487,
    "name": "Paso del Parque del Dayman",
    "state_id": 3220,
    "state_code": "SA",
    "country_id": 235,
    "country_code": "UY",
    "latitude": "-31.78100974",
    "longitude": "-57.03898288",
    "native": null,
    "timezone": "America/Montevideo",
    "translations": {}
  },
  {
    "id": 163325,
    "name": "Paso del Potrero",
    "state_id": 3220,
    "state_code": "SA",
    "country_id": 235,
    "country_code": "UY",
    "latitude": "-31.44276271",
    "longitude": "-56.83815526",
    "native": null,
    "timezone": "America/Montevideo",
    "translations": {}
  },
  {
    "id": 163328,
    "name": "Paso del Tapado",
    "state_id": 3220,
    "state_code": "SA",
    "country_id": 235,
    "country_code": "UY",
    "latitude": "-31.60654018",
    "longitude": "-56.73426413",
    "native": null,
    "timezone": "America/Montevideo",
    "translations": {}
  },
  {
    "id": 163337,
    "name": "Paso Fialho",
    "state_id": 3220,
    "state_code": "SA",
    "country_id": 235,
    "country_code": "UY",
    "latitude": "-31.46002588",
    "longitude": "-57.57830513",
    "native": null,
    "timezone": "America/Montevideo",
    "translations": {}
  },
  {
    "id": 163330,
    "name": "Paso Nuevo del Arapey",
    "state_id": 3220,
    "state_code": "SA",
    "country_id": 235,
    "country_code": "UY",
    "latitude": "-31.13127932",
    "longitude": "-56.66500660",
    "native": null,
    "timezone": "America/Montevideo",
    "translations": {}
  },
  {
    "id": 163875,
    "name": "Pepe Nuñez",
    "state_id": 3220,
    "state_code": "SA",
    "country_id": 235,
    "country_code": "UY",
    "latitude": "-31.45449737",
    "longitude": "-56.38029507",
    "native": null,
    "timezone": "America/Montevideo",
    "translations": {}
  },
  {
    "id": 162219,
    "name": "Pueblo Cayetano",
    "state_id": 3220,
    "state_code": "SA",
    "country_id": 235,
    "country_code": "UY",
    "latitude": "-31.24191731",
    "longitude": "-56.77284603",
    "native": null,
    "timezone": "America/Montevideo",
    "translations": {}
  },
  {
    "id": 162488,
    "name": "Pueblo Celeste",
    "state_id": 3220,
    "state_code": "SA",
    "country_id": 235,
    "country_code": "UY",
    "latitude": "-31.31453560",
    "longitude": "-57.12017862",
    "native": null,
    "timezone": "America/Montevideo",
    "translations": {}
  },
  {
    "id": 163341,
    "name": "Pueblo Farias",
    "state_id": 3220,
    "state_code": "SA",
    "country_id": 235,
    "country_code": "UY",
    "latitude": "-31.07538411",
    "longitude": "-57.52290856",
    "native": null,
    "timezone": "America/Montevideo",
    "translations": {}
  },
  {
    "id": 162672,
    "name": "Pueblo Fernandez",
    "state_id": 3220,
    "state_code": "SA",
    "country_id": 235,
    "country_code": "UY",
    "latitude": "-31.18144655",
    "longitude": "-56.36639405",
    "native": null,
    "timezone": "America/Montevideo",
    "translations": {}
  },
  {
    "id": 162263,
    "name": "Pueblo Quintana",
    "state_id": 3220,
    "state_code": "SA",
    "country_id": 235,
    "country_code": "UY",
    "latitude": "-31.34865835",
    "longitude": "-56.39474899",
    "native": null,
    "timezone": "America/Montevideo",
    "translations": {}
  },
  {
    "id": 163925,
    "name": "Pueblo Ramos",
    "state_id": 3220,
    "state_code": "SA",
    "country_id": 235,
    "country_code": "UY",
    "latitude": "-31.57022859",
    "longitude": "-56.63836649",
    "native": null,
    "timezone": "America/Montevideo",
    "translations": {}
  },
  {
    "id": 162477,
    "name": "Puntas de Valentin",
    "state_id": 3220,
    "state_code": "SA",
    "country_id": 235,
    "country_code": "UY",
    "latitude": "-31.50002678",
    "longitude": "-57.13330392",
    "native": null,
    "timezone": "America/Montevideo",
    "translations": {}
  },
  {
    "id": 162256,
    "name": "Rincon de Valentin",
    "state_id": 3220,
    "state_code": "SA",
    "country_id": 235,
    "country_code": "UY",
    "latitude": "-31.28301951",
    "longitude": "-57.19907343",
    "native": null,
    "timezone": "America/Montevideo",
    "translations": {}
  },
  {
    "id": 162603,
    "name": "Russo",
    "state_id": 3220,
    "state_code": "SA",
    "country_id": 235,
    "country_code": "UY",
    "latitude": "-31.07175177",
    "longitude": "-56.66344813",
    "native": null,
    "timezone": "America/Montevideo",
    "translations": {}
  },
  {
    "id": 129857,
    "name": "Salto",
    "state_id": 3220,
    "state_code": "SA",
    "country_id": 235,
    "country_code": "UY",
    "latitude": "-31.38333000",
    "longitude": "-57.96667000",
    "native": null,
    "timezone": "America/Montevideo",
    "translations": {}
  },
  {
    "id": 162665,
    "name": "San Antonio",
    "state_id": 3220,
    "state_code": "SA",
    "country_id": 235,
    "country_code": "UY",
    "latitude": "-31.35470898",
    "longitude": "-57.76366704",
    "native": null,
    "timezone": "America/Montevideo",
    "translations": {}
  },
  {
    "id": 162264,
    "name": "Sarandi de Arapey",
    "state_id": 3220,
    "state_code": "SA",
    "country_id": 235,
    "country_code": "UY",
    "latitude": "-30.98861697",
    "longitude": "-56.21615879",
    "native": null,
    "timezone": "America/Montevideo",
    "translations": {}
  },
  {
    "id": 163338,
    "name": "Sauce Chico",
    "state_id": 3220,
    "state_code": "SA",
    "country_id": 235,
    "country_code": "UY",
    "latitude": "-31.54469128",
    "longitude": "-57.57306899",
    "native": null,
    "timezone": "America/Montevideo",
    "translations": {}
  },
  {
    "id": 162667,
    "name": "Saucedo",
    "state_id": 3220,
    "state_code": "SA",
    "country_id": 235,
    "country_code": "UY",
    "latitude": "-31.10742961",
    "longitude": "-57.52981811",
    "native": null,
    "timezone": "America/Montevideo",
    "translations": {}
  },
  {
    "id": 163933,
    "name": "Sopas",
    "state_id": 3220,
    "state_code": "SA",
    "country_id": 235,
    "country_code": "UY",
    "latitude": "-31.50955716",
    "longitude": "-56.53667466",
    "native": null,
    "timezone": "America/Montevideo",
    "translations": {}
  },
  {
    "id": 163343,
    "name": "Talas de Itapebi",
    "state_id": 3220,
    "state_code": "SA",
    "country_id": 235,
    "country_code": "UY",
    "latitude": "-31.29862559",
    "longitude": "-57.53385138",
    "native": null,
    "timezone": "America/Montevideo",
    "translations": {}
  },
  {
    "id": 162668,
    "name": "Termas del Arapey",
    "state_id": 3220,
    "state_code": "SA",
    "country_id": 235,
    "country_code": "UY",
    "latitude": "-30.94752091",
    "longitude": "-57.52218307",
    "native": null,
    "timezone": "America/Montevideo",
    "translations": {}
  },
  {
    "id": 162139,
    "name": "Termas del Dayman",
    "state_id": 3220,
    "state_code": "SA",
    "country_id": 235,
    "country_code": "UY",
    "latitude": "-31.45047934",
    "longitude": "-57.91071339",
    "native": null,
    "timezone": "America/Montevideo",
    "translations": {}
  },
  {
    "id": 163324,
    "name": "Toro Negro",
    "state_id": 3220,
    "state_code": "SA",
    "country_id": 235,
    "country_code": "UY",
    "latitude": "-31.33906137",
    "longitude": "-56.58920677",
    "native": null,
    "timezone": "America/Montevideo",
    "translations": {}
  },
  {
    "id": 163347,
    "name": "Tropezon",
    "state_id": 3220,
    "state_code": "SA",
    "country_id": 235,
    "country_code": "UY",
    "latitude": "-31.37742202",
    "longitude": "-57.86682551",
    "native": null,
    "timezone": "America/Montevideo",
    "translations": {}
  },
  {
    "id": 163345,
    "name": "Tropiezo",
    "state_id": 3220,
    "state_code": "SA",
    "country_id": 235,
    "country_code": "UY",
    "latitude": "-31.40030327",
    "longitude": "-57.78345739",
    "native": null,
    "timezone": "America/Montevideo",
    "translations": {}
  },
  {
    "id": 163335,
    "name": "Valentin Grande",
    "state_id": 3220,
    "state_code": "SA",
    "country_id": 235,
    "country_code": "UY",
    "latitude": "-31.27694264",
    "longitude": "-57.15895035",
    "native": null,
    "timezone": "America/Montevideo",
    "translations": {}
  },
  {
    "id": 129889,
    "name": "Villa Constitución",
    "state_id": 3220,
    "state_code": "SA",
    "country_id": 235,
    "country_code": "UY",
    "latitude": "-31.06913000",
    "longitude": "-57.84946000",
    "native": null,
    "timezone": "America/Montevideo",
    "translations": {}
  },
  {
    "id": 163939,
    "name": "Yacuy",
    "state_id": 3220,
    "state_code": "SA",
    "country_id": 235,
    "country_code": "UY",
    "latitude": "-30.77259456",
    "longitude": "-57.76018361",
    "native": null,
    "timezone": "America/Montevideo",
    "translations": {}
  },
  {
    "id": 163334,
    "name": "Zanja de Alcain",
    "state_id": 3220,
    "state_code": "SA",
    "country_id": 235,
    "country_code": "UY",
    "latitude": "-31.06922698",
    "longitude": "-57.22718261",
    "native": null,
    "timezone": "America/Montevideo",
    "translations": {}
  },
  {
    "id": 163322,
    "name": "Zanja del Tigre",
    "state_id": 3220,
    "state_code": "SA",
    "country_id": 235,
    "country_code": "UY",
    "latitude": "-31.26317347",
    "longitude": "-56.48462606",
    "native": null,
    "timezone": "America/Montevideo",
    "translations": {}
  }
]