[
  {
    "id": 39353,
    "name": "Ambleny",
    "state_id": 4968,
    "state_code": "02",
    "country_id": 75,
    "country_code": "FR",
    "latitude": "49.38079000",
    "longitude": "3.18447000",
    "native": null,
    "timezone": "Europe/Paris",
    "translations": {}
  },
  {
    "id": 39412,
    "name": "Anizy-le-Château",
    "state_id": 4968,
    "state_code": "02",
    "country_id": 75,
    "country_code": "FR",
    "latitude": "49.50678000",
    "longitude": "3.45119000",
    "native": null,
    "timezone": "Europe/Paris",
    "translations": {}
  },
  {
    "id": 161662,
    "name": "Anizy-le-Grand",
    "state_id": 4968,
    "state_code": "02",
    "country_id": 75,
    "country_code": "FR",
    "latitude": "49.51590000",
    "longitude": "3.44260000",
    "native": null,
    "timezone": "Europe/Paris",
    "translations": {}
  },
  {
    "id": 39556,
    "name": "Athies-sous-Laon",
    "state_id": 4968,
    "state_code": "02",
    "country_id": 75,
    "country_code": "FR",
    "latitude": "49.57369000",
    "longitude": "3.68417000",
    "native": null,
    "timezone": "Europe/Paris",
    "translations": {}
  },
  {
    "id": 39611,
    "name": "Aulnois-sous-Laon",
    "state_id": 4968,
    "state_code": "02",
    "country_id": 75,
    "country_code": "FR",
    "latitude": "49.61429000",
    "longitude": "3.60547000",
    "native": null,
    "timezone": "Europe/Paris",
    "translations": {}
  },
  {
    "id": 39884,
    "name": "Beaurevoir",
    "state_id": 4968,
    "state_code": "02",
    "country_id": 75,
    "country_code": "FR",
    "latitude": "49.99714000",
    "longitude": "3.30855000",
    "native": null,
    "timezone": "Europe/Paris",
    "translations": {}
  },
  {
    "id": 39888,
    "name": "Beautor",
    "state_id": 4968,
    "state_code": "02",
    "country_id": 75,
    "country_code": "FR",
    "latitude": "49.65214000",
    "longitude": "3.34475000",
    "native": null,
    "timezone": "Europe/Paris",
    "translations": {}
  },
  {
    "id": 39920,
    "name": "Belleu",
    "state_id": 4968,
    "state_code": "02",
    "country_id": 75,
    "country_code": "FR",
    "latitude": "49.35917000",
    "longitude": "3.33556000",
    "native": null,
    "timezone": "Europe/Paris",
    "translations": {}
  },
  {
    "id": 40024,
    "name": "Billy-sur-Aisne",
    "state_id": 4968,
    "state_code": "02",
    "country_id": 75,
    "country_code": "FR",
    "latitude": "49.35632000",
    "longitude": "3.38357000",
    "native": null,
    "timezone": "Europe/Paris",
    "translations": {}
  },
  {
    "id": 40075,
    "name": "Blérancourt",
    "state_id": 4968,
    "state_code": "02",
    "country_id": 75,
    "country_code": "FR",
    "latitude": "49.51667000",
    "longitude": "3.15000000",
    "native": null,
    "timezone": "Europe/Paris",
    "translations": {}
  },
  {
    "id": 40081,
    "name": "Bohain-en-Vermandois",
    "state_id": 4968,
    "state_code": "02",
    "country_id": 75,
    "country_code": "FR",
    "latitude": "49.98730000",
    "longitude": "3.45300000",
    "native": null,
    "timezone": "Europe/Paris",
    "translations": {}
  },
  {
    "id": 40238,
    "name": "Boué",
    "state_id": 4968,
    "state_code": "02",
    "country_id": 75,
    "country_code": "FR",
    "latitude": "50.01141000",
    "longitude": "3.69608000",
    "native": null,
    "timezone": "Europe/Paris",
    "translations": {}
  },
  {
    "id": 40249,
    "name": "Braine",
    "state_id": 4968,
    "state_code": "02",
    "country_id": 75,
    "country_code": "FR",
    "latitude": "49.34261000",
    "longitude": "3.53262000",
    "native": null,
    "timezone": "Europe/Paris",
    "translations": {}
  },
  {
    "id": 40259,
    "name": "Brasles",
    "state_id": 4968,
    "state_code": "02",
    "country_id": 75,
    "country_code": "FR",
    "latitude": "49.04810000",
    "longitude": "3.43000000",
    "native": null,
    "timezone": "Europe/Paris",
    "translations": {}
  },
  {
    "id": 40349,
    "name": "Bruyères-et-Montbérault",
    "state_id": 4968,
    "state_code": "02",
    "country_id": 75,
    "country_code": "FR",
    "latitude": "49.52535000",
    "longitude": "3.66369000",
    "native": null,
    "timezone": "Europe/Paris",
    "translations": {}
  },
  {
    "id": 40373,
    "name": "Bucy-le-Long",
    "state_id": 4968,
    "state_code": "02",
    "country_id": 75,
    "country_code": "FR",
    "latitude": "49.39072000",
    "longitude": "3.39582000",
    "native": null,
    "timezone": "Europe/Paris",
    "translations": {}
  },
  {
    "id": 40378,
    "name": "Buironfosse",
    "state_id": 4968,
    "state_code": "02",
    "country_id": 75,
    "country_code": "FR",
    "latitude": "49.96659000",
    "longitude": "3.83587000",
    "native": null,
    "timezone": "Europe/Paris",
    "translations": {}
  },
  {
    "id": 40805,
    "name": "Charly-sur-Marne",
    "state_id": 4968,
    "state_code": "02",
    "country_id": 75,
    "country_code": "FR",
    "latitude": "48.97749000",
    "longitude": "3.28464000",
    "native": null,
    "timezone": "Europe/Paris",
    "translations": {}
  },
  {
    "id": 40946,
    "name": "Château-Thierry",
    "state_id": 4968,
    "state_code": "02",
    "country_id": 75,
    "country_code": "FR",
    "latitude": "49.04636000",
    "longitude": "3.40304000",
    "native": null,
    "timezone": "Europe/Paris",
    "translations": {}
  },
  {
    "id": 40849,
    "name": "Chauny",
    "state_id": 4968,
    "state_code": "02",
    "country_id": 75,
    "country_code": "FR",
    "latitude": "49.61514000",
    "longitude": "3.21857000",
    "native": null,
    "timezone": "Europe/Paris",
    "translations": {}
  },
  {
    "id": 41017,
    "name": "Chézy-sur-Marne",
    "state_id": 4968,
    "state_code": "02",
    "country_id": 75,
    "country_code": "FR",
    "latitude": "48.98881000",
    "longitude": "3.36786000",
    "native": null,
    "timezone": "Europe/Paris",
    "translations": {}
  },
  {
    "id": 40906,
    "name": "Chierry",
    "state_id": 4968,
    "state_code": "02",
    "country_id": 75,
    "country_code": "FR",
    "latitude": "49.03940000",
    "longitude": "3.42976000",
    "native": null,
    "timezone": "Europe/Paris",
    "translations": {}
  },
  {
    "id": 41085,
    "name": "Coincy",
    "state_id": 4968,
    "state_code": "02",
    "country_id": 75,
    "country_code": "FR",
    "latitude": "49.16036000",
    "longitude": "3.42202000",
    "native": null,
    "timezone": "Europe/Paris",
    "translations": {}
  },
  {
    "id": 41218,
    "name": "Coucy-le-Château-Auffrique",
    "state_id": 4968,
    "state_code": "02",
    "country_id": 75,
    "country_code": "FR",
    "latitude": "49.52083000",
    "longitude": "3.32381000",
    "native": null,
    "timezone": "Europe/Paris",
    "translations": {}
  },
  {
    "id": 41254,
    "name": "Courmelles",
    "state_id": 4968,
    "state_code": "02",
    "country_id": 75,
    "country_code": "FR",
    "latitude": "49.34595000",
    "longitude": "3.31215000",
    "native": null,
    "timezone": "Europe/Paris",
    "translations": {}
  },
  {
    "id": 41284,
    "name": "Couvron-et-Aumencourt",
    "state_id": 4968,
    "state_code": "02",
    "country_id": 75,
    "country_code": "FR",
    "latitude": "49.64476000",
    "longitude": "3.51857000",
    "native": null,
    "timezone": "Europe/Paris",
    "translations": {}
  },
  {
    "id": 41342,
    "name": "Crécy-sur-Serre",
    "state_id": 4968,
    "state_code": "02",
    "country_id": 75,
    "country_code": "FR",
    "latitude": "49.69594000",
    "longitude": "3.62453000",
    "native": null,
    "timezone": "Europe/Paris",
    "translations": {}
  },
  {
    "id": 41349,
    "name": "Crépy",
    "state_id": 4968,
    "state_code": "02",
    "country_id": 75,
    "country_code": "FR",
    "latitude": "49.60000000",
    "longitude": "3.51667000",
    "native": null,
    "timezone": "Europe/Paris",
    "translations": {}
  },
  {
    "id": 41352,
    "name": "Crézancy",
    "state_id": 4968,
    "state_code": "02",
    "country_id": 75,
    "country_code": "FR",
    "latitude": "49.04833000",
    "longitude": "3.51047000",
    "native": null,
    "timezone": "Europe/Paris",
    "translations": {}
  },
  {
    "id": 41331,
    "name": "Crouy",
    "state_id": 4968,
    "state_code": "02",
    "country_id": 75,
    "country_code": "FR",
    "latitude": "49.40274000",
    "longitude": "3.35834000",
    "native": null,
    "timezone": "Europe/Paris",
    "translations": {}
  },
  {
    "id": 41360,
    "name": "Cuffies",
    "state_id": 4968,
    "state_code": "02",
    "country_id": 75,
    "country_code": "FR",
    "latitude": "49.40358000",
    "longitude": "3.32119000",
    "native": null,
    "timezone": "Europe/Paris",
    "translations": {}
  },
  {
    "id": 41609,
    "name": "Département de l'Aisne",
    "state_id": 4968,
    "state_code": "02",
    "country_id": 75,
    "country_code": "FR",
    "latitude": "49.50000000",
    "longitude": "3.50000000",
    "native": null,
    "timezone": "Europe/Paris",
    "translations": {}
  },
  {
    "id": 41548,
    "name": "Douchy",
    "state_id": 4968,
    "state_code": "02",
    "country_id": 75,
    "country_code": "FR",
    "latitude": "47.94282000",
    "longitude": "3.05392000",
    "native": null,
    "timezone": "Europe/Paris",
    "translations": {}
  },
  {
    "id": 41723,
    "name": "Esquéhéries",
    "state_id": 4968,
    "state_code": "02",
    "country_id": 75,
    "country_code": "FR",
    "latitude": "49.98391000",
    "longitude": "3.74743000",
    "native": null,
    "timezone": "Europe/Paris",
    "translations": {}
  },
  {
    "id": 41727,
    "name": "Essigny-le-Grand",
    "state_id": 4968,
    "state_code": "02",
    "country_id": 75,
    "country_code": "FR",
    "latitude": "49.77865000",
    "longitude": "3.27774000",
    "native": null,
    "timezone": "Europe/Paris",
    "translations": {}
  },
  {
    "id": 41728,
    "name": "Essômes-sur-Marne",
    "state_id": 4968,
    "state_code": "02",
    "country_id": 75,
    "country_code": "FR",
    "latitude": "49.02881000",
    "longitude": "3.37571000",
    "native": null,
    "timezone": "Europe/Paris",
    "translations": {}
  },
  {
    "id": 48096,
    "name": "Étampes-sur-Marne",
    "state_id": 4968,
    "state_code": "02",
    "country_id": 75,
    "country_code": "FR",
    "latitude": "49.03464000",
    "longitude": "3.41893000",
    "native": null,
    "timezone": "Europe/Paris",
    "translations": {}
  },
  {
    "id": 48107,
    "name": "Étreillers",
    "state_id": 4968,
    "state_code": "02",
    "country_id": 75,
    "country_code": "FR",
    "latitude": "49.83059000",
    "longitude": "3.16029000",
    "native": null,
    "timezone": "Europe/Paris",
    "translations": {}
  },
  {
    "id": 48111,
    "name": "Étreux",
    "state_id": 4968,
    "state_code": "02",
    "country_id": 75,
    "country_code": "FR",
    "latitude": "49.98333000",
    "longitude": "3.65000000",
    "native": null,
    "timezone": "Europe/Paris",
    "translations": {}
  },
  {
    "id": 41998,
    "name": "Fère-en-Tardenois",
    "state_id": 4968,
    "state_code": "02",
    "country_id": 75,
    "country_code": "FR",
    "latitude": "49.20000000",
    "longitude": "3.51667000",
    "native": null,
    "timezone": "Europe/Paris",
    "translations": {}
  },
  {
    "id": 41833,
    "name": "Flavy-le-Martel",
    "state_id": 4968,
    "state_code": "02",
    "country_id": 75,
    "country_code": "FR",
    "latitude": "49.71299000",
    "longitude": "3.19150000",
    "native": null,
    "timezone": "Europe/Paris",
    "translations": {}
  },
  {
    "id": 41868,
    "name": "Folembray",
    "state_id": 4968,
    "state_code": "02",
    "country_id": 75,
    "country_code": "FR",
    "latitude": "49.54334000",
    "longitude": "3.29119000",
    "native": null,
    "timezone": "Europe/Paris",
    "translations": {}
  },
  {
    "id": 41960,
    "name": "Fresnoy-le-Grand",
    "state_id": 4968,
    "state_code": "02",
    "country_id": 75,
    "country_code": "FR",
    "latitude": "49.94757000",
    "longitude": "3.41841000",
    "native": null,
    "timezone": "Europe/Paris",
    "translations": {}
  },
  {
    "id": 42053,
    "name": "Gauchy",
    "state_id": 4968,
    "state_code": "02",
    "country_id": 75,
    "country_code": "FR",
    "latitude": "49.82765000",
    "longitude": "3.27371000",
    "native": null,
    "timezone": "Europe/Paris",
    "translations": {}
  },
  {
    "id": 42257,
    "name": "Guignicourt",
    "state_id": 4968,
    "state_code": "02",
    "country_id": 75,
    "country_code": "FR",
    "latitude": "49.43714000",
    "longitude": "3.96755000",
    "native": null,
    "timezone": "Europe/Paris",
    "translations": {}
  },
  {
    "id": 42270,
    "name": "Guise",
    "state_id": 4968,
    "state_code": "02",
    "country_id": 75,
    "country_code": "FR",
    "latitude": "49.90055000",
    "longitude": "3.62801000",
    "native": null,
    "timezone": "Europe/Paris",
    "translations": {}
  },
  {
    "id": 42330,
    "name": "Harly",
    "state_id": 4968,
    "state_code": "02",
    "country_id": 75,
    "country_code": "FR",
    "latitude": "49.83766000",
    "longitude": "3.31001000",
    "native": null,
    "timezone": "Europe/Paris",
    "translations": {}
  },
  {
    "id": 42402,
    "name": "Hirson",
    "state_id": 4968,
    "state_code": "02",
    "country_id": 75,
    "country_code": "FR",
    "latitude": "49.92262000",
    "longitude": "4.08259000",
    "native": null,
    "timezone": "Europe/Paris",
    "translations": {}
  },
  {
    "id": 42408,
    "name": "Holnon",
    "state_id": 4968,
    "state_code": "02",
    "country_id": 75,
    "country_code": "FR",
    "latitude": "49.86086000",
    "longitude": "3.21509000",
    "native": null,
    "timezone": "Europe/Paris",
    "translations": {}
  },
  {
    "id": 42413,
    "name": "Homblières",
    "state_id": 4968,
    "state_code": "02",
    "country_id": 75,
    "country_code": "FR",
    "latitude": "49.85031000",
    "longitude": "3.36456000",
    "native": null,
    "timezone": "Europe/Paris",
    "translations": {}
  },
  {
    "id": 42511,
    "name": "Itancourt",
    "state_id": 4968,
    "state_code": "02",
    "country_id": 75,
    "country_code": "FR",
    "latitude": "49.80664000",
    "longitude": "3.34427000",
    "native": null,
    "timezone": "Europe/Paris",
    "translations": {}
  },
  {
    "id": 42597,
    "name": "Jussy",
    "state_id": 4968,
    "state_code": "02",
    "country_id": 75,
    "country_code": "FR",
    "latitude": "49.71984000",
    "longitude": "3.23270000",
    "native": null,
    "timezone": "Europe/Paris",
    "translations": {}
  },
  {
    "id": 42667,
    "name": "La Capelle",
    "state_id": 4968,
    "state_code": "02",
    "country_id": 75,
    "country_code": "FR",
    "latitude": "49.96667000",
    "longitude": "3.91667000",
    "native": null,
    "timezone": "Europe/Paris",
    "translations": {}
  },
  {
    "id": 42759,
    "name": "La Fère",
    "state_id": 4968,
    "state_code": "02",
    "country_id": 75,
    "country_code": "FR",
    "latitude": "49.66286000",
    "longitude": "3.36631000",
    "native": null,
    "timezone": "Europe/Paris",
    "translations": {}
  },
  {
    "id": 42741,
    "name": "La Ferté-Milon",
    "state_id": 4968,
    "state_code": "02",
    "country_id": 75,
    "country_code": "FR",
    "latitude": "49.17453000",
    "longitude": "3.12885000",
    "native": null,
    "timezone": "Europe/Paris",
    "translations": {}
  },
  {
    "id": 42745,
    "name": "La Flamengrie",
    "state_id": 4968,
    "state_code": "02",
    "country_id": 75,
    "country_code": "FR",
    "latitude": "50.00175000",
    "longitude": "3.92081000",
    "native": null,
    "timezone": "Europe/Paris",
    "translations": {}
  },
  {
    "id": 43057,
    "name": "Laon",
    "state_id": 4968,
    "state_code": "02",
    "country_id": 75,
    "country_code": "FR",
    "latitude": "49.56310000",
    "longitude": "3.62714000",
    "native": null,
    "timezone": "Europe/Paris",
    "translations": {}
  },
  {
    "id": 43242,
    "name": "Le Nouvion-en-Thiérache",
    "state_id": 4968,
    "state_code": "02",
    "country_id": 75,
    "country_code": "FR",
    "latitude": "50.01625000",
    "longitude": "3.78509000",
    "native": null,
    "timezone": "Europe/Paris",
    "translations": {}
  },
  {
    "id": 43468,
    "name": "Liesse-Notre-Dame",
    "state_id": 4968,
    "state_code": "02",
    "country_id": 75,
    "country_code": "FR",
    "latitude": "49.61667000",
    "longitude": "3.80000000",
    "native": null,
    "timezone": "Europe/Paris",
    "translations": {}
  },
  {
    "id": 43848,
    "name": "Marle",
    "state_id": 4968,
    "state_code": "02",
    "country_id": 75,
    "country_code": "FR",
    "latitude": "49.74006000",
    "longitude": "3.77060000",
    "native": null,
    "timezone": "Europe/Paris",
    "translations": {}
  },
  {
    "id": 44209,
    "name": "Montcornet",
    "state_id": 4968,
    "state_code": "02",
    "country_id": 75,
    "country_code": "FR",
    "latitude": "49.69526000",
    "longitude": "4.01667000",
    "native": null,
    "timezone": "Europe/Paris",
    "translations": {}
  },
  {
    "id": 44225,
    "name": "Montescourt-Lizerolles",
    "state_id": 4968,
    "state_code": "02",
    "country_id": 75,
    "country_code": "FR",
    "latitude": "49.73828000",
    "longitude": "3.25736000",
    "native": null,
    "timezone": "Europe/Paris",
    "translations": {}
  },
  {
    "id": 44310,
    "name": "Montreuil-aux-Lions",
    "state_id": 4968,
    "state_code": "02",
    "country_id": 75,
    "country_code": "FR",
    "latitude": "49.02124000",
    "longitude": "3.19543000",
    "native": null,
    "timezone": "Europe/Paris",
    "translations": {}
  },
  {
    "id": 44534,
    "name": "Nesles-la-Montagne",
    "state_id": 4968,
    "state_code": "02",
    "country_id": 75,
    "country_code": "FR",
    "latitude": "49.01964000",
    "longitude": "3.42607000",
    "native": null,
    "timezone": "Europe/Paris",
    "translations": {}
  },
  {
    "id": 44547,
    "name": "Neuilly-Saint-Front",
    "state_id": 4968,
    "state_code": "02",
    "country_id": 75,
    "country_code": "FR",
    "latitude": "49.17012000",
    "longitude": "3.26393000",
    "native": null,
    "timezone": "Europe/Paris",
    "translations": {}
  },
  {
    "id": 44614,
    "name": "Nogent-l’Artaud",
    "state_id": 4968,
    "state_code": "02",
    "country_id": 75,
    "country_code": "FR",
    "latitude": "48.96560000",
    "longitude": "3.32178000",
    "native": null,
    "timezone": "Europe/Paris",
    "translations": {}
  },
  {
    "id": 44619,
    "name": "Nogentel",
    "state_id": 4968,
    "state_code": "02",
    "country_id": 75,
    "country_code": "FR",
    "latitude": "49.01750000",
    "longitude": "3.40250000",
    "native": null,
    "timezone": "Europe/Paris",
    "translations": {}
  },
  {
    "id": 44722,
    "name": "Ognes",
    "state_id": 4968,
    "state_code": "02",
    "country_id": 75,
    "country_code": "FR",
    "latitude": "49.61244000",
    "longitude": "3.19340000",
    "native": null,
    "timezone": "Europe/Paris",
    "translations": {}
  },
  {
    "id": 44740,
    "name": "Omissy",
    "state_id": 4968,
    "state_code": "02",
    "country_id": 75,
    "country_code": "FR",
    "latitude": "49.87760000",
    "longitude": "3.31235000",
    "native": null,
    "timezone": "Europe/Paris",
    "translations": {}
  },
  {
    "id": 44769,
    "name": "Origny-en-Thiérache",
    "state_id": 4968,
    "state_code": "02",
    "country_id": 75,
    "country_code": "FR",
    "latitude": "49.89327000",
    "longitude": "4.01644000",
    "native": null,
    "timezone": "Europe/Paris",
    "translations": {}
  },
  {
    "id": 44768,
    "name": "Origny-Sainte-Benoite",
    "state_id": 4968,
    "state_code": "02",
    "country_id": 75,
    "country_code": "FR",
    "latitude": "49.83333000",
    "longitude": "3.50000000",
    "native": null,
    "timezone": "Europe/Paris",
    "translations": {}
  },
  {
    "id": 44864,
    "name": "Pasly",
    "state_id": 4968,
    "state_code": "02",
    "country_id": 75,
    "country_code": "FR",
    "latitude": "49.40167000",
    "longitude": "3.29631000",
    "native": null,
    "timezone": "Europe/Paris",
    "translations": {}
  },
  {
    "id": 44972,
    "name": "Pinon",
    "state_id": 4968,
    "state_code": "02",
    "country_id": 75,
    "country_code": "FR",
    "latitude": "49.48916000",
    "longitude": "3.44703000",
    "native": null,
    "timezone": "Europe/Paris",
    "translations": {}
  },
  {
    "id": 45491,
    "name": "Ribemont",
    "state_id": 4968,
    "state_code": "02",
    "country_id": 75,
    "country_code": "FR",
    "latitude": "49.79540000",
    "longitude": "3.45893000",
    "native": null,
    "timezone": "Europe/Paris",
    "translations": {}
  },
  {
    "id": 45654,
    "name": "Rozoy-sur-Serre",
    "state_id": 4968,
    "state_code": "02",
    "country_id": 75,
    "country_code": "FR",
    "latitude": "49.70956000",
    "longitude": "4.12902000",
    "native": null,
    "timezone": "Europe/Paris",
    "translations": {}
  },
  {
    "id": 45922,
    "name": "Saint-Erme-Outre-et-Ramecourt",
    "state_id": 4968,
    "state_code": "02",
    "country_id": 75,
    "country_code": "FR",
    "latitude": "49.51464000",
    "longitude": "3.84060000",
    "native": null,
    "timezone": "Europe/Paris",
    "translations": {}
  },
  {
    "id": 46039,
    "name": "Saint-Gobain",
    "state_id": 4968,
    "state_code": "02",
    "country_id": 75,
    "country_code": "FR",
    "latitude": "49.59572000",
    "longitude": "3.37750000",
    "native": null,
    "timezone": "Europe/Paris",
    "translations": {}
  },
  {
    "id": 46333,
    "name": "Saint-Michel",
    "state_id": 4968,
    "state_code": "02",
    "country_id": 75,
    "country_code": "FR",
    "latitude": "49.91952000",
    "longitude": "4.13278000",
    "native": null,
    "timezone": "Europe/Paris",
    "translations": {}
  },
  {
    "id": 46485,
    "name": "Saint-Quentin",
    "state_id": 4968,
    "state_code": "02",
    "country_id": 75,
    "country_code": "FR",
    "latitude": "49.84889000",
    "longitude": "3.28757000",
    "native": null,
    "timezone": "Europe/Paris",
    "translations": {}
  },
  {
    "id": 46909,
    "name": "Seboncourt",
    "state_id": 4968,
    "state_code": "02",
    "country_id": 75,
    "country_code": "FR",
    "latitude": "49.95273000",
    "longitude": "3.47586000",
    "native": null,
    "timezone": "Europe/Paris",
    "translations": {}
  },
  {
    "id": 47004,
    "name": "Sinceny",
    "state_id": 4968,
    "state_code": "02",
    "country_id": 75,
    "country_code": "FR",
    "latitude": "49.59619000",
    "longitude": "3.24679000",
    "native": null,
    "timezone": "Europe/Paris",
    "translations": {}
  },
  {
    "id": 47008,
    "name": "Sissonne",
    "state_id": 4968,
    "state_code": "02",
    "country_id": 75,
    "country_code": "FR",
    "latitude": "49.57107000",
    "longitude": "3.89369000",
    "native": null,
    "timezone": "Europe/Paris",
    "translations": {}
  },
  {
    "id": 47018,
    "name": "Soissons",
    "state_id": 4968,
    "state_code": "02",
    "country_id": 75,
    "country_code": "FR",
    "latitude": "49.38167000",
    "longitude": "3.32361000",
    "native": null,
    "timezone": "Europe/Paris",
    "translations": {}
  },
  {
    "id": 47207,
    "name": "Tergnier",
    "state_id": 4968,
    "state_code": "02",
    "country_id": 75,
    "country_code": "FR",
    "latitude": "49.65607000",
    "longitude": "3.30107000",
    "native": null,
    "timezone": "Europe/Paris",
    "translations": {}
  },
  {
    "id": 47456,
    "name": "Vailly-sur-Aisne",
    "state_id": 4968,
    "state_code": "02",
    "country_id": 75,
    "country_code": "FR",
    "latitude": "49.40834000",
    "longitude": "3.51631000",
    "native": null,
    "timezone": "Europe/Paris",
    "translations": {}
  },
  {
    "id": 47584,
    "name": "Venizel",
    "state_id": 4968,
    "state_code": "02",
    "country_id": 75,
    "country_code": "FR",
    "latitude": "49.36583000",
    "longitude": "3.39321000",
    "native": null,
    "timezone": "Europe/Paris",
    "translations": {}
  },
  {
    "id": 47603,
    "name": "Vermand",
    "state_id": 4968,
    "state_code": "02",
    "country_id": 75,
    "country_code": "FR",
    "latitude": "49.87550000",
    "longitude": "3.14959000",
    "native": null,
    "timezone": "Europe/Paris",
    "translations": {}
  },
  {
    "id": 47644,
    "name": "Vervins",
    "state_id": 4968,
    "state_code": "02",
    "country_id": 75,
    "country_code": "FR",
    "latitude": "49.83510000",
    "longitude": "3.90925000",
    "native": null,
    "timezone": "Europe/Paris",
    "translations": {}
  },
  {
    "id": 47667,
    "name": "Vic-sur-Aisne",
    "state_id": 4968,
    "state_code": "02",
    "country_id": 75,
    "country_code": "FR",
    "latitude": "49.40609000",
    "longitude": "3.11223000",
    "native": null,
    "timezone": "Europe/Paris",
    "translations": {}
  },
  {
    "id": 47764,
    "name": "Villeneuve-Saint-Germain",
    "state_id": 4968,
    "state_code": "02",
    "country_id": 75,
    "country_code": "FR",
    "latitude": "49.37976000",
    "longitude": "3.35952000",
    "native": null,
    "timezone": "Europe/Paris",
    "translations": {}
  },
  {
    "id": 162096,
    "name": "Villeneuve-sur-Aisne",
    "state_id": 4968,
    "state_code": "02",
    "country_id": 75,
    "country_code": "FR",
    "latitude": "49.44090000",
    "longitude": "3.97440000",
    "native": null,
    "timezone": "Europe/Paris",
    "translations": {}
  },
  {
    "id": 47798,
    "name": "Villers-Cotterêts",
    "state_id": 4968,
    "state_code": "02",
    "country_id": 75,
    "country_code": "FR",
    "latitude": "49.25311000",
    "longitude": "3.09003000",
    "native": null,
    "timezone": "Europe/Paris",
    "translations": {}
  },
  {
    "id": 47868,
    "name": "Viry-Noureuil",
    "state_id": 4968,
    "state_code": "02",
    "country_id": 75,
    "country_code": "FR",
    "latitude": "49.63214000",
    "longitude": "3.24322000",
    "native": null,
    "timezone": "Europe/Paris",
    "translations": {}
  },
  {
    "id": 47953,
    "name": "Wassigny",
    "state_id": 4968,
    "state_code": "02",
    "country_id": 75,
    "country_code": "FR",
    "latitude": "50.01334000",
    "longitude": "3.59988000",
    "native": null,
    "timezone": "Europe/Paris",
    "translations": {}
  }
]