[
  {
    "id": 39360,
    "name": "Ambérieu-en-Bugey",
    "state_id": 4967,
    "state_code": "01",
    "country_id": 75,
    "country_code": "FR",
    "latitude": "45.95932000",
    "longitude": "5.35160000",
    "native": null,
    "timezone": "Europe/Paris",
    "translations": {}
  },
  {
    "id": 39361,
    "name": "Ambérieux-en-Dombes",
    "state_id": 4967,
    "state_code": "01",
    "country_id": 75,
    "country_code": "FR",
    "latitude": "45.99894000",
    "longitude": "4.90126000",
    "native": null,
    "timezone": "Europe/Paris",
    "translations": {}
  },
  {
    "id": 39358,
    "name": "Ambronay",
    "state_id": 4967,
    "state_code": "01",
    "country_id": 75,
    "country_code": "FR",
    "latitude": "46.00467000",
    "longitude": "5.36273000",
    "native": null,
    "timezone": "Europe/Paris",
    "translations": {}
  },
  {
    "id": 39448,
    "name": "Arbent",
    "state_id": 4967,
    "state_code": "01",
    "country_id": 75,
    "country_code": "FR",
    "latitude": "46.29221000",
    "longitude": "5.67890000",
    "native": null,
    "timezone": "Europe/Paris",
    "translations": {}
  },
  {
    "id": 39514,
    "name": "Ars-sur-Formans",
    "state_id": 4967,
    "state_code": "01",
    "country_id": 75,
    "country_code": "FR",
    "latitude": "45.99491000",
    "longitude": "4.81986000",
    "native": null,
    "timezone": "Europe/Paris",
    "translations": {}
  },
  {
    "id": 39520,
    "name": "Artemare",
    "state_id": 4967,
    "state_code": "01",
    "country_id": 75,
    "country_code": "FR",
    "latitude": "45.87441000",
    "longitude": "5.69366000",
    "native": null,
    "timezone": "Europe/Paris",
    "translations": {}
  },
  {
    "id": 39563,
    "name": "Attignat",
    "state_id": 4967,
    "state_code": "01",
    "country_id": 75,
    "country_code": "FR",
    "latitude": "46.28562000",
    "longitude": "5.16164000",
    "native": null,
    "timezone": "Europe/Paris",
    "translations": {}
  },
  {
    "id": 161709,
    "name": "Bâgé-Dommartin",
    "state_id": 4967,
    "state_code": "01",
    "country_id": 75,
    "country_code": "FR",
    "latitude": "46.32770000",
    "longitude": "4.97040000",
    "native": null,
    "timezone": "Europe/Paris",
    "translations": {}
  },
  {
    "id": 40409,
    "name": "Bâgé-la-Ville",
    "state_id": 4967,
    "state_code": "01",
    "country_id": 75,
    "country_code": "FR",
    "latitude": "46.31567000",
    "longitude": "4.94086000",
    "native": null,
    "timezone": "Europe/Paris",
    "translations": {}
  },
  {
    "id": 39743,
    "name": "Balan",
    "state_id": 4967,
    "state_code": "01",
    "country_id": 75,
    "country_code": "FR",
    "latitude": "45.83416000",
    "longitude": "5.09930000",
    "native": null,
    "timezone": "Europe/Paris",
    "translations": {}
  },
  {
    "id": 40421,
    "name": "Béligneux",
    "state_id": 4967,
    "state_code": "01",
    "country_id": 75,
    "country_code": "FR",
    "latitude": "45.86775000",
    "longitude": "5.12747000",
    "native": null,
    "timezone": "Europe/Paris",
    "translations": {}
  },
  {
    "id": 39915,
    "name": "Bellegarde-sur-Valserine",
    "state_id": 4967,
    "state_code": "01",
    "country_id": 75,
    "country_code": "FR",
    "latitude": "46.10787000",
    "longitude": "5.82421000",
    "native": null,
    "timezone": "Europe/Paris",
    "translations": {}
  },
  {
    "id": 39927,
    "name": "Belley",
    "state_id": 4967,
    "state_code": "01",
    "country_id": 75,
    "country_code": "FR",
    "latitude": "45.75917000",
    "longitude": "5.68813000",
    "native": null,
    "timezone": "Europe/Paris",
    "translations": {}
  },
  {
    "id": 39928,
    "name": "Bellignat",
    "state_id": 4967,
    "state_code": "01",
    "country_id": 75,
    "country_code": "FR",
    "latitude": "46.24237000",
    "longitude": "5.62843000",
    "native": null,
    "timezone": "Europe/Paris",
    "translations": {}
  },
  {
    "id": 40000,
    "name": "Beynost",
    "state_id": 4967,
    "state_code": "01",
    "country_id": 75,
    "country_code": "FR",
    "latitude": "45.83569000",
    "longitude": "4.99910000",
    "native": null,
    "timezone": "Europe/Paris",
    "translations": {}
  },
  {
    "id": 40194,
    "name": "Bourg-en-Bresse",
    "state_id": 4967,
    "state_code": "01",
    "country_id": 75,
    "country_code": "FR",
    "latitude": "46.20574000",
    "longitude": "5.22580000",
    "native": null,
    "timezone": "Europe/Paris",
    "translations": {}
  },
  {
    "id": 161704,
    "name": "Bresse Vallons",
    "state_id": 4967,
    "state_code": "01",
    "country_id": 75,
    "country_code": "FR",
    "latitude": "46.32710000",
    "longitude": "5.18220000",
    "native": null,
    "timezone": "Europe/Paris",
    "translations": {}
  },
  {
    "id": 40375,
    "name": "Buellas",
    "state_id": 4967,
    "state_code": "01",
    "country_id": 75,
    "country_code": "FR",
    "latitude": "46.21110000",
    "longitude": "5.13220000",
    "native": null,
    "timezone": "Europe/Paris",
    "translations": {}
  },
  {
    "id": 40655,
    "name": "Certines",
    "state_id": 4967,
    "state_code": "01",
    "country_id": 75,
    "country_code": "FR",
    "latitude": "46.13244000",
    "longitude": "5.26525000",
    "native": null,
    "timezone": "Europe/Paris",
    "translations": {}
  },
  {
    "id": 40662,
    "name": "Cessy",
    "state_id": 4967,
    "state_code": "01",
    "country_id": 75,
    "country_code": "FR",
    "latitude": "46.32032000",
    "longitude": "6.07477000",
    "native": null,
    "timezone": "Europe/Paris",
    "translations": {}
  },
  {
    "id": 40667,
    "name": "Ceyzériat",
    "state_id": 4967,
    "state_code": "01",
    "country_id": 75,
    "country_code": "FR",
    "latitude": "46.18126000",
    "longitude": "5.31977000",
    "native": null,
    "timezone": "Europe/Paris",
    "translations": {}
  },
  {
    "id": 40686,
    "name": "Chalamont",
    "state_id": 4967,
    "state_code": "01",
    "country_id": 75,
    "country_code": "FR",
    "latitude": "45.99734000",
    "longitude": "5.16865000",
    "native": null,
    "timezone": "Europe/Paris",
    "translations": {}
  },
  {
    "id": 40688,
    "name": "Chaleins",
    "state_id": 4967,
    "state_code": "01",
    "country_id": 75,
    "country_code": "FR",
    "latitude": "46.03165000",
    "longitude": "4.80789000",
    "native": null,
    "timezone": "Europe/Paris",
    "translations": {}
  },
  {
    "id": 40695,
    "name": "Challex",
    "state_id": 4967,
    "state_code": "01",
    "country_id": 75,
    "country_code": "FR",
    "latitude": "46.18458000",
    "longitude": "5.97639000",
    "native": null,
    "timezone": "Europe/Paris",
    "translations": {}
  },
  {
    "id": 40938,
    "name": "Château-Gaillard",
    "state_id": 4967,
    "state_code": "01",
    "country_id": 75,
    "country_code": "FR",
    "latitude": "45.97239000",
    "longitude": "5.30436000",
    "native": null,
    "timezone": "Europe/Paris",
    "translations": {}
  },
  {
    "id": 40995,
    "name": "Châtillon-en-Michaille",
    "state_id": 4967,
    "state_code": "01",
    "country_id": 75,
    "country_code": "FR",
    "latitude": "46.14320000",
    "longitude": "5.79950000",
    "native": null,
    "timezone": "Europe/Paris",
    "translations": {}
  },
  {
    "id": 40997,
    "name": "Châtillon-la-Palud",
    "state_id": 4967,
    "state_code": "01",
    "country_id": 75,
    "country_code": "FR",
    "latitude": "45.97171000",
    "longitude": "5.25290000",
    "native": null,
    "timezone": "Europe/Paris",
    "translations": {}
  },
  {
    "id": 40999,
    "name": "Châtillon-sur-Chalaronne",
    "state_id": 4967,
    "state_code": "01",
    "country_id": 75,
    "country_code": "FR",
    "latitude": "46.11834000",
    "longitude": "4.95656000",
    "native": null,
    "timezone": "Europe/Paris",
    "translations": {}
  },
  {
    "id": 40866,
    "name": "Chazey-sur-Ain",
    "state_id": 4967,
    "state_code": "01",
    "country_id": 75,
    "country_code": "FR",
    "latitude": "45.89300000",
    "longitude": "5.25352000",
    "native": null,
    "timezone": "Europe/Paris",
    "translations": {}
  },
  {
    "id": 40903,
    "name": "Chevry",
    "state_id": 4967,
    "state_code": "01",
    "country_id": 75,
    "country_code": "FR",
    "latitude": "46.28136000",
    "longitude": "6.03873000",
    "native": null,
    "timezone": "Europe/Paris",
    "translations": {}
  },
  {
    "id": 41033,
    "name": "Civrieux",
    "state_id": 4967,
    "state_code": "01",
    "country_id": 75,
    "country_code": "FR",
    "latitude": "45.92086000",
    "longitude": "4.88249000",
    "native": null,
    "timezone": "Europe/Paris",
    "translations": {}
  },
  {
    "id": 41088,
    "name": "Coligny",
    "state_id": 4967,
    "state_code": "01",
    "country_id": 75,
    "country_code": "FR",
    "latitude": "46.38252000",
    "longitude": "5.34554000",
    "native": null,
    "timezone": "Europe/Paris",
    "translations": {}
  },
  {
    "id": 41093,
    "name": "Collonges",
    "state_id": 4967,
    "state_code": "01",
    "country_id": 75,
    "country_code": "FR",
    "latitude": "46.13819000",
    "longitude": "5.90506000",
    "native": null,
    "timezone": "Europe/Paris",
    "translations": {}
  },
  {
    "id": 41330,
    "name": "Crottet",
    "state_id": 4967,
    "state_code": "01",
    "country_id": 75,
    "country_code": "FR",
    "latitude": "46.27602000",
    "longitude": "4.89388000",
    "native": null,
    "timezone": "Europe/Paris",
    "translations": {}
  },
  {
    "id": 161742,
    "name": "Crozet",
    "state_id": 4967,
    "state_code": "01",
    "country_id": 75,
    "country_code": "FR",
    "latitude": "46.29060000",
    "longitude": "5.99290000",
    "native": null,
    "timezone": "Europe/Paris",
    "translations": {}
  },
  {
    "id": 41370,
    "name": "Cuisiat",
    "state_id": 4967,
    "state_code": "01",
    "country_id": 75,
    "country_code": "FR",
    "latitude": "46.30021000",
    "longitude": "5.38809000",
    "native": null,
    "timezone": "Europe/Paris",
    "translations": {}
  },
  {
    "id": 41372,
    "name": "Culoz",
    "state_id": 4967,
    "state_code": "01",
    "country_id": 75,
    "country_code": "FR",
    "latitude": "45.84886000",
    "longitude": "5.78537000",
    "native": null,
    "timezone": "Europe/Paris",
    "translations": {}
  },
  {
    "id": 161745,
    "name": "Culoz-Béon",
    "state_id": 4967,
    "state_code": "01",
    "country_id": 75,
    "country_code": "FR",
    "latitude": "45.85530000",
    "longitude": "5.77160000",
    "native": null,
    "timezone": "Europe/Paris",
    "translations": {}
  },
  {
    "id": 41404,
    "name": "Dagneux",
    "state_id": 4967,
    "state_code": "01",
    "country_id": 75,
    "country_code": "FR",
    "latitude": "45.85140000",
    "longitude": "5.07780000",
    "native": null,
    "timezone": "Europe/Paris",
    "translations": {}
  },
  {
    "id": 41608,
    "name": "Département de l'Ain",
    "state_id": 4967,
    "state_code": "01",
    "country_id": 75,
    "country_code": "FR",
    "latitude": "46.16667000",
    "longitude": "5.33333000",
    "native": null,
    "timezone": "Europe/Paris",
    "translations": {}
  },
  {
    "id": 41497,
    "name": "Divonne-les-Bains",
    "state_id": 4967,
    "state_code": "01",
    "country_id": 75,
    "country_code": "FR",
    "latitude": "46.35710000",
    "longitude": "6.13494000",
    "native": null,
    "timezone": "Europe/Paris",
    "translations": {}
  },
  {
    "id": 41524,
    "name": "Dompierre-sur-Veyle",
    "state_id": 4967,
    "state_code": "01",
    "country_id": 75,
    "country_code": "FR",
    "latitude": "46.07108000",
    "longitude": "5.20232000",
    "native": null,
    "timezone": "Europe/Paris",
    "translations": {}
  },
  {
    "id": 41543,
    "name": "Dortan",
    "state_id": 4967,
    "state_code": "01",
    "country_id": 75,
    "country_code": "FR",
    "latitude": "46.31973000",
    "longitude": "5.66028000",
    "native": null,
    "timezone": "Europe/Paris",
    "translations": {}
  },
  {
    "id": 48039,
    "name": "Échenevex",
    "state_id": 4967,
    "state_code": "01",
    "country_id": 75,
    "country_code": "FR",
    "latitude": "46.30923000",
    "longitude": "6.03963000",
    "native": null,
    "timezone": "Europe/Paris",
    "translations": {}
  },
  {
    "id": 41772,
    "name": "Fareins",
    "state_id": 4967,
    "state_code": "01",
    "country_id": 75,
    "country_code": "FR",
    "latitude": "46.01913000",
    "longitude": "4.76136000",
    "native": null,
    "timezone": "Europe/Paris",
    "translations": {}
  },
  {
    "id": 41794,
    "name": "Feillens",
    "state_id": 4967,
    "state_code": "01",
    "country_id": 75,
    "country_code": "FR",
    "latitude": "46.33426000",
    "longitude": "4.89146000",
    "native": null,
    "timezone": "Europe/Paris",
    "translations": {}
  },
  {
    "id": 41801,
    "name": "Ferney-Voltaire",
    "state_id": 4967,
    "state_code": "01",
    "country_id": 75,
    "country_code": "FR",
    "latitude": "46.25858000",
    "longitude": "6.11063000",
    "native": null,
    "timezone": "Europe/Paris",
    "translations": {}
  },
  {
    "id": 41866,
    "name": "Foissiat",
    "state_id": 4967,
    "state_code": "01",
    "country_id": 75,
    "country_code": "FR",
    "latitude": "46.37150000",
    "longitude": "5.17525000",
    "native": null,
    "timezone": "Europe/Paris",
    "translations": {}
  },
  {
    "id": 41946,
    "name": "Francheleins",
    "state_id": 4967,
    "state_code": "01",
    "country_id": 75,
    "country_code": "FR",
    "latitude": "46.07440000",
    "longitude": "4.80920000",
    "native": null,
    "timezone": "Europe/Paris",
    "translations": {}
  },
  {
    "id": 41952,
    "name": "Frans",
    "state_id": 4967,
    "state_code": "01",
    "country_id": 75,
    "country_code": "FR",
    "latitude": "45.99291000",
    "longitude": "4.77820000",
    "native": null,
    "timezone": "Europe/Paris",
    "translations": {}
  },
  {
    "id": 42083,
    "name": "Gex",
    "state_id": 4967,
    "state_code": "01",
    "country_id": 75,
    "country_code": "FR",
    "latitude": "46.33323000",
    "longitude": "6.05766000",
    "native": null,
    "timezone": "Europe/Paris",
    "translations": {}
  },
  {
    "id": 42217,
    "name": "Grièges",
    "state_id": 4967,
    "state_code": "01",
    "country_id": 75,
    "country_code": "FR",
    "latitude": "46.25619000",
    "longitude": "4.84856000",
    "native": null,
    "timezone": "Europe/Paris",
    "translations": {}
  },
  {
    "id": 42219,
    "name": "Groissiat",
    "state_id": 4967,
    "state_code": "01",
    "country_id": 75,
    "country_code": "FR",
    "latitude": "46.22213000",
    "longitude": "5.60775000",
    "native": null,
    "timezone": "Europe/Paris",
    "translations": {}
  },
  {
    "id": 42286,
    "name": "Guéreins",
    "state_id": 4967,
    "state_code": "01",
    "country_id": 75,
    "country_code": "FR",
    "latitude": "46.10346000",
    "longitude": "4.77275000",
    "native": null,
    "timezone": "Europe/Paris",
    "translations": {}
  },
  {
    "id": 42352,
    "name": "Hauteville-Lompnes",
    "state_id": 4967,
    "state_code": "01",
    "country_id": 75,
    "country_code": "FR",
    "latitude": "45.97794000",
    "longitude": "5.60114000",
    "native": null,
    "timezone": "Europe/Paris",
    "translations": {}
  },
  {
    "id": 42520,
    "name": "Izernore",
    "state_id": 4967,
    "state_code": "01",
    "country_id": 75,
    "country_code": "FR",
    "latitude": "46.21352000",
    "longitude": "5.55200000",
    "native": null,
    "timezone": "Europe/Paris",
    "translations": {}
  },
  {
    "id": 42538,
    "name": "Jassans-Riottier",
    "state_id": 4967,
    "state_code": "01",
    "country_id": 75,
    "country_code": "FR",
    "latitude": "45.98134000",
    "longitude": "4.76140000",
    "native": null,
    "timezone": "Europe/Paris",
    "translations": {}
  },
  {
    "id": 42539,
    "name": "Jasseron",
    "state_id": 4967,
    "state_code": "01",
    "country_id": 75,
    "country_code": "FR",
    "latitude": "46.21316000",
    "longitude": "5.32579000",
    "native": null,
    "timezone": "Europe/Paris",
    "translations": {}
  },
  {
    "id": 42588,
    "name": "Jujurieux",
    "state_id": 4967,
    "state_code": "01",
    "country_id": 75,
    "country_code": "FR",
    "latitude": "46.04122000",
    "longitude": "5.40855000",
    "native": null,
    "timezone": "Europe/Paris",
    "translations": {}
  },
  {
    "id": 42645,
    "name": "La Boisse",
    "state_id": 4967,
    "state_code": "01",
    "country_id": 75,
    "country_code": "FR",
    "latitude": "45.84278000",
    "longitude": "5.03639000",
    "native": null,
    "timezone": "Europe/Paris",
    "translations": {}
  },
  {
    "id": 42957,
    "name": "Lagnieu",
    "state_id": 4967,
    "state_code": "01",
    "country_id": 75,
    "country_code": "FR",
    "latitude": "45.90237000",
    "longitude": "5.34399000",
    "native": null,
    "timezone": "Europe/Paris",
    "translations": {}
  },
  {
    "id": 42972,
    "name": "Laiz",
    "state_id": 4967,
    "state_code": "01",
    "country_id": 75,
    "country_code": "FR",
    "latitude": "46.25054000",
    "longitude": "4.88955000",
    "native": null,
    "timezone": "Europe/Paris",
    "translations": {}
  },
  {
    "id": 42998,
    "name": "Lancrans",
    "state_id": 4967,
    "state_code": "01",
    "country_id": 75,
    "country_code": "FR",
    "latitude": "46.12729000",
    "longitude": "5.83277000",
    "native": null,
    "timezone": "Europe/Paris",
    "translations": {}
  },
  {
    "id": 43351,
    "name": "Lent",
    "state_id": 4967,
    "state_code": "01",
    "country_id": 75,
    "country_code": "FR",
    "latitude": "46.12027000",
    "longitude": "5.19352000",
    "native": null,
    "timezone": "Europe/Paris",
    "translations": {}
  },
  {
    "id": 43458,
    "name": "Leyment",
    "state_id": 4967,
    "state_code": "01",
    "country_id": 75,
    "country_code": "FR",
    "latitude": "45.92390000",
    "longitude": "5.29241000",
    "native": null,
    "timezone": "Europe/Paris",
    "translations": {}
  },
  {
    "id": 43624,
    "name": "Loyettes",
    "state_id": 4967,
    "state_code": "01",
    "country_id": 75,
    "country_code": "FR",
    "latitude": "45.77663000",
    "longitude": "5.20687000",
    "native": null,
    "timezone": "Europe/Paris",
    "translations": {}
  },
  {
    "id": 43788,
    "name": "Manziat",
    "state_id": 4967,
    "state_code": "01",
    "country_id": 75,
    "country_code": "FR",
    "latitude": "46.36125000",
    "longitude": "4.90580000",
    "native": null,
    "timezone": "Europe/Paris",
    "translations": {}
  },
  {
    "id": 43795,
    "name": "Marboz",
    "state_id": 4967,
    "state_code": "01",
    "country_id": 75,
    "country_code": "FR",
    "latitude": "46.34290000",
    "longitude": "5.25722000",
    "native": null,
    "timezone": "Europe/Paris",
    "translations": {}
  },
  {
    "id": 43912,
    "name": "Martignat",
    "state_id": 4967,
    "state_code": "01",
    "country_id": 75,
    "country_code": "FR",
    "latitude": "46.20972000",
    "longitude": "5.61049000",
    "native": null,
    "timezone": "Europe/Paris",
    "translations": {}
  },
  {
    "id": 43934,
    "name": "Massieux",
    "state_id": 4967,
    "state_code": "01",
    "country_id": 75,
    "country_code": "FR",
    "latitude": "45.90984000",
    "longitude": "4.83265000",
    "native": null,
    "timezone": "Europe/Paris",
    "translations": {}
  },
  {
    "id": 43989,
    "name": "Meillonnas",
    "state_id": 4967,
    "state_code": "01",
    "country_id": 75,
    "country_code": "FR",
    "latitude": "46.24367000",
    "longitude": "5.35019000",
    "native": null,
    "timezone": "Europe/Paris",
    "translations": {}
  },
  {
    "id": 44053,
    "name": "Meximieux",
    "state_id": 4967,
    "state_code": "01",
    "country_id": 75,
    "country_code": "FR",
    "latitude": "45.90823000",
    "longitude": "5.19920000",
    "native": null,
    "timezone": "Europe/Paris",
    "translations": {}
  },
  {
    "id": 44492,
    "name": "Mézériat",
    "state_id": 4967,
    "state_code": "01",
    "country_id": 75,
    "country_code": "FR",
    "latitude": "46.23701000",
    "longitude": "5.04615000",
    "native": null,
    "timezone": "Europe/Paris",
    "translations": {}
  },
  {
    "id": 44083,
    "name": "Mionnay",
    "state_id": 4967,
    "state_code": "01",
    "country_id": 75,
    "country_code": "FR",
    "latitude": "45.89824000",
    "longitude": "4.92808000",
    "native": null,
    "timezone": "Europe/Paris",
    "translations": {}
  },
  {
    "id": 44100,
    "name": "Miribel",
    "state_id": 4967,
    "state_code": "01",
    "country_id": 75,
    "country_code": "FR",
    "latitude": "45.82580000",
    "longitude": "4.95440000",
    "native": null,
    "timezone": "Europe/Paris",
    "translations": {}
  },
  {
    "id": 44105,
    "name": "Misérieux",
    "state_id": 4967,
    "state_code": "01",
    "country_id": 75,
    "country_code": "FR",
    "latitude": "45.97433000",
    "longitude": "4.81340000",
    "native": null,
    "timezone": "Europe/Paris",
    "translations": {}
  },
  {
    "id": 44166,
    "name": "Montagnat",
    "state_id": 4967,
    "state_code": "01",
    "country_id": 75,
    "country_code": "FR",
    "latitude": "46.16761000",
    "longitude": "5.28791000",
    "native": null,
    "timezone": "Europe/Paris",
    "translations": {}
  },
  {
    "id": 44276,
    "name": "Montluel",
    "state_id": 4967,
    "state_code": "01",
    "country_id": 75,
    "country_code": "FR",
    "latitude": "45.85190000",
    "longitude": "5.05780000",
    "native": null,
    "timezone": "Europe/Paris",
    "translations": {}
  },
  {
    "id": 44283,
    "name": "Montmerle-sur-Saône",
    "state_id": 4967,
    "state_code": "01",
    "country_id": 75,
    "country_code": "FR",
    "latitude": "46.08333000",
    "longitude": "4.76667000",
    "native": null,
    "timezone": "Europe/Paris",
    "translations": {}
  },
  {
    "id": 44325,
    "name": "Montréal-la-Cluse",
    "state_id": 4967,
    "state_code": "01",
    "country_id": 75,
    "country_code": "FR",
    "latitude": "46.18333000",
    "longitude": "5.58333000",
    "native": null,
    "timezone": "Europe/Paris",
    "translations": {}
  },
  {
    "id": 44316,
    "name": "Montrevel-en-Bresse",
    "state_id": 4967,
    "state_code": "01",
    "country_id": 75,
    "country_code": "FR",
    "latitude": "46.33527000",
    "longitude": "5.12269000",
    "native": null,
    "timezone": "Europe/Paris",
    "translations": {}
  },
  {
    "id": 44512,
    "name": "Nantua",
    "state_id": 4967,
    "state_code": "01",
    "country_id": 75,
    "country_code": "FR",
    "latitude": "46.15343000",
    "longitude": "5.60601000",
    "native": null,
    "timezone": "Europe/Paris",
    "translations": {}
  },
  {
    "id": 44568,
    "name": "Neuville-les-Dames",
    "state_id": 4967,
    "state_code": "01",
    "country_id": 75,
    "country_code": "FR",
    "latitude": "46.16230000",
    "longitude": "5.00667000",
    "native": null,
    "timezone": "Europe/Paris",
    "translations": {}
  },
  {
    "id": 44569,
    "name": "Neuville-sur-Ain",
    "state_id": 4967,
    "state_code": "01",
    "country_id": 75,
    "country_code": "FR",
    "latitude": "46.07144000",
    "longitude": "5.37491000",
    "native": null,
    "timezone": "Europe/Paris",
    "translations": {}
  },
  {
    "id": 161916,
    "name": "Neyron",
    "state_id": 4967,
    "state_code": "01",
    "country_id": 75,
    "country_code": "FR",
    "latitude": "45.82040000",
    "longitude": "4.93560000",
    "native": null,
    "timezone": "Europe/Paris",
    "translations": {}
  },
  {
    "id": 44605,
    "name": "Niévroz",
    "state_id": 4967,
    "state_code": "01",
    "country_id": 75,
    "country_code": "FR",
    "latitude": "45.82576000",
    "longitude": "5.06108000",
    "native": null,
    "timezone": "Europe/Paris",
    "translations": {}
  },
  {
    "id": 44781,
    "name": "Ornex",
    "state_id": 4967,
    "state_code": "01",
    "country_id": 75,
    "country_code": "FR",
    "latitude": "46.27270000",
    "longitude": "6.09982000",
    "native": null,
    "timezone": "Europe/Paris",
    "translations": {}
  },
  {
    "id": 44819,
    "name": "Oyonnax",
    "state_id": 4967,
    "state_code": "01",
    "country_id": 75,
    "country_code": "FR",
    "latitude": "46.25917000",
    "longitude": "5.65727000",
    "native": null,
    "timezone": "Europe/Paris",
    "translations": {}
  },
  {
    "id": 45361,
    "name": "Péron",
    "state_id": 4967,
    "state_code": "01",
    "country_id": 75,
    "country_code": "FR",
    "latitude": "46.19053000",
    "longitude": "5.92524000",
    "native": null,
    "timezone": "Europe/Paris",
    "translations": {}
  },
  {
    "id": 45362,
    "name": "Péronnas",
    "state_id": 4967,
    "state_code": "01",
    "country_id": 75,
    "country_code": "FR",
    "latitude": "46.18338000",
    "longitude": "5.21052000",
    "native": null,
    "timezone": "Europe/Paris",
    "translations": {}
  },
  {
    "id": 45364,
    "name": "Pérouges",
    "state_id": 4967,
    "state_code": "01",
    "country_id": 75,
    "country_code": "FR",
    "latitude": "45.90440000",
    "longitude": "5.17695000",
    "native": null,
    "timezone": "Europe/Paris",
    "translations": {}
  },
  {
    "id": 161936,
    "name": "Plateau d'Hauteville",
    "state_id": 4967,
    "state_code": "01",
    "country_id": 75,
    "country_code": "FR",
    "latitude": "45.93050000",
    "longitude": "5.57750000",
    "native": null,
    "timezone": "Europe/Paris",
    "translations": {}
  },
  {
    "id": 45144,
    "name": "Polliat",
    "state_id": 4967,
    "state_code": "01",
    "country_id": 75,
    "country_code": "FR",
    "latitude": "46.24849000",
    "longitude": "5.12658000",
    "native": null,
    "timezone": "Europe/Paris",
    "translations": {}
  },
  {
    "id": 45161,
    "name": "Poncin",
    "state_id": 4967,
    "state_code": "01",
    "country_id": 75,
    "country_code": "FR",
    "latitude": "46.08531000",
    "longitude": "5.41120000",
    "native": null,
    "timezone": "Europe/Paris",
    "translations": {}
  },
  {
    "id": 45187,
    "name": "Pont-d’Ain",
    "state_id": 4967,
    "state_code": "01",
    "country_id": 75,
    "country_code": "FR",
    "latitude": "46.05583000",
    "longitude": "5.33974000",
    "native": null,
    "timezone": "Europe/Paris",
    "translations": {}
  },
  {
    "id": 45183,
    "name": "Pont-de-Vaux",
    "state_id": 4967,
    "state_code": "01",
    "country_id": 75,
    "country_code": "FR",
    "latitude": "46.43326000",
    "longitude": "4.94473000",
    "native": null,
    "timezone": "Europe/Paris",
    "translations": {}
  },
  {
    "id": 45184,
    "name": "Pont-de-Veyle",
    "state_id": 4967,
    "state_code": "01",
    "country_id": 75,
    "country_code": "FR",
    "latitude": "46.26166000",
    "longitude": "4.88612000",
    "native": null,
    "timezone": "Europe/Paris",
    "translations": {}
  },
  {
    "id": 161953,
    "name": "Prévessin-Moëns",
    "state_id": 4967,
    "state_code": "01",
    "country_id": 75,
    "country_code": "FR",
    "latitude": "46.25940000",
    "longitude": "6.07220000",
    "native": null,
    "timezone": "Europe/Paris",
    "translations": {}
  },
  {
    "id": 45285,
    "name": "Priay",
    "state_id": 4967,
    "state_code": "01",
    "country_id": 75,
    "country_code": "FR",
    "latitude": "46.00183000",
    "longitude": "5.28684000",
    "native": null,
    "timezone": "Europe/Paris",
    "translations": {}
  },
  {
    "id": 45462,
    "name": "Replonges",
    "state_id": 4967,
    "state_code": "01",
    "country_id": 75,
    "country_code": "FR",
    "latitude": "46.30098000",
    "longitude": "4.88317000",
    "native": null,
    "timezone": "Europe/Paris",
    "translations": {}
  },
  {
    "id": 45481,
    "name": "Reyrieux",
    "state_id": 4967,
    "state_code": "01",
    "country_id": 75,
    "country_code": "FR",
    "latitude": "45.93577000",
    "longitude": "4.81453000",
    "native": null,
    "timezone": "Europe/Paris",
    "translations": {}
  },
  {
    "id": 45757,
    "name": "Saint-André-de-Corcy",
    "state_id": 4967,
    "state_code": "01",
    "country_id": 75,
    "country_code": "FR",
    "latitude": "45.92590000",
    "longitude": "4.95166000",
    "native": null,
    "timezone": "Europe/Paris",
    "translations": {}
  },
  {
    "id": 45768,
    "name": "Saint-André-sur-Vieux-Jonc",
    "state_id": 4967,
    "state_code": "01",
    "country_id": 75,
    "country_code": "FR",
    "latitude": "46.15855000",
    "longitude": "5.14776000",
    "native": null,
    "timezone": "Europe/Paris",
    "translations": {}
  },
  {
    "id": 45888,
    "name": "Saint-Cyr-sur-Menthon",
    "state_id": 4967,
    "state_code": "01",
    "country_id": 75,
    "country_code": "FR",
    "latitude": "46.27502000",
    "longitude": "4.97246000",
    "native": null,
    "timezone": "Europe/Paris",
    "translations": {}
  },
  {
    "id": 45899,
    "name": "Saint-Denis-en-Bugey",
    "state_id": 4967,
    "state_code": "01",
    "country_id": 75,
    "country_code": "FR",
    "latitude": "45.94963000",
    "longitude": "5.32773000",
    "native": null,
    "timezone": "Europe/Paris",
    "translations": {}
  },
  {
    "id": 45903,
    "name": "Saint-Denis-lès-Bourg",
    "state_id": 4967,
    "state_code": "01",
    "country_id": 75,
    "country_code": "FR",
    "latitude": "46.20217000",
    "longitude": "5.18924000",
    "native": null,
    "timezone": "Europe/Paris",
    "translations": {}
  },
  {
    "id": 45907,
    "name": "Saint-Didier-de-Formans",
    "state_id": 4967,
    "state_code": "01",
    "country_id": 75,
    "country_code": "FR",
    "latitude": "45.95969000",
    "longitude": "4.78406000",
    "native": null,
    "timezone": "Europe/Paris",
    "translations": {}
  },
  {
    "id": 45911,
    "name": "Saint-Didier-sur-Chalaronne",
    "state_id": 4967,
    "state_code": "01",
    "country_id": 75,
    "country_code": "FR",
    "latitude": "46.17714000",
    "longitude": "4.81626000",
    "native": null,
    "timezone": "Europe/Paris",
    "translations": {}
  },
  {
    "id": 46652,
    "name": "Saint-Étienne-du-Bois",
    "state_id": 4967,
    "state_code": "01",
    "country_id": 75,
    "country_code": "FR",
    "latitude": "46.28990000",
    "longitude": "5.29471000",
    "native": null,
    "timezone": "Europe/Paris",
    "translations": {}
  },
  {
    "id": 46658,
    "name": "Saint-Étienne-sur-Chalaronne",
    "state_id": 4967,
    "state_code": "01",
    "country_id": 75,
    "country_code": "FR",
    "latitude": "46.14778000",
    "longitude": "4.87129000",
    "native": null,
    "timezone": "Europe/Paris",
    "translations": {}
  },
  {
    "id": 45960,
    "name": "Saint-Genis-Pouilly",
    "state_id": 4967,
    "state_code": "01",
    "country_id": 75,
    "country_code": "FR",
    "latitude": "46.24356000",
    "longitude": "6.02119000",
    "native": null,
    "timezone": "Europe/Paris",
    "translations": {}
  },
  {
    "id": 46091,
    "name": "Saint-Jean-de-Gonville",
    "state_id": 4967,
    "state_code": "01",
    "country_id": 75,
    "country_code": "FR",
    "latitude": "46.21298000",
    "longitude": "5.95047000",
    "native": null,
    "timezone": "Europe/Paris",
    "translations": {}
  },
  {
    "id": 46099,
    "name": "Saint-Jean-de-Niost",
    "state_id": 4967,
    "state_code": "01",
    "country_id": 75,
    "country_code": "FR",
    "latitude": "45.83333000",
    "longitude": "5.21667000",
    "native": null,
    "timezone": "Europe/Paris",
    "translations": {}
  },
  {
    "id": 46117,
    "name": "Saint-Jean-le-Vieux",
    "state_id": 4967,
    "state_code": "01",
    "country_id": 75,
    "country_code": "FR",
    "latitude": "46.03005000",
    "longitude": "5.38798000",
    "native": null,
    "timezone": "Europe/Paris",
    "translations": {}
  },
  {
    "id": 46121,
    "name": "Saint-Jean-sur-Veyle",
    "state_id": 4967,
    "state_code": "01",
    "country_id": 75,
    "country_code": "FR",
    "latitude": "46.25902000",
    "longitude": "4.91712000",
    "native": null,
    "timezone": "Europe/Paris",
    "translations": {}
  },
  {
    "id": 46189,
    "name": "Saint-Laurent-sur-Saône",
    "state_id": 4967,
    "state_code": "01",
    "country_id": 75,
    "country_code": "FR",
    "latitude": "46.30532000",
    "longitude": "4.84119000",
    "native": null,
    "timezone": "Europe/Paris",
    "translations": {}
  },
  {
    "id": 46287,
    "name": "Saint-Martin-du-Frêne",
    "state_id": 4967,
    "state_code": "01",
    "country_id": 75,
    "country_code": "FR",
    "latitude": "46.13591000",
    "longitude": "5.55049000",
    "native": null,
    "timezone": "Europe/Paris",
    "translations": {}
  },
  {
    "id": 46289,
    "name": "Saint-Martin-du-Mont",
    "state_id": 4967,
    "state_code": "01",
    "country_id": 75,
    "country_code": "FR",
    "latitude": "46.09800000",
    "longitude": "5.31706000",
    "native": null,
    "timezone": "Europe/Paris",
    "translations": {}
  },
  {
    "id": 46313,
    "name": "Saint-Maurice-de-Beynost",
    "state_id": 4967,
    "state_code": "01",
    "country_id": 75,
    "country_code": "FR",
    "latitude": "45.83440000",
    "longitude": "4.97750000",
    "native": null,
    "timezone": "Europe/Paris",
    "translations": {}
  },
  {
    "id": 46314,
    "name": "Saint-Maurice-de-Gourdans",
    "state_id": 4967,
    "state_code": "01",
    "country_id": 75,
    "country_code": "FR",
    "latitude": "45.82248000",
    "longitude": "5.19450000",
    "native": null,
    "timezone": "Europe/Paris",
    "translations": {}
  },
  {
    "id": 46408,
    "name": "Saint-Paul-de-Varax",
    "state_id": 4967,
    "state_code": "01",
    "country_id": 75,
    "country_code": "FR",
    "latitude": "46.09692000",
    "longitude": "5.12959000",
    "native": null,
    "timezone": "Europe/Paris",
    "translations": {}
  },
  {
    "id": 46493,
    "name": "Saint-Rambert-en-Bugey",
    "state_id": 4967,
    "state_code": "01",
    "country_id": 75,
    "country_code": "FR",
    "latitude": "45.94734000",
    "longitude": "5.43630000",
    "native": null,
    "timezone": "Europe/Paris",
    "translations": {}
  },
  {
    "id": 46555,
    "name": "Saint-Sorlin-en-Bugey",
    "state_id": 4967,
    "state_code": "01",
    "country_id": 75,
    "country_code": "FR",
    "latitude": "45.88576000",
    "longitude": "5.36688000",
    "native": null,
    "timezone": "Europe/Paris",
    "translations": {}
  },
  {
    "id": 46585,
    "name": "Saint-Trivier-de-Courtes",
    "state_id": 4967,
    "state_code": "01",
    "country_id": 75,
    "country_code": "FR",
    "latitude": "46.45980000",
    "longitude": "5.07762000",
    "native": null,
    "timezone": "Europe/Paris",
    "translations": {}
  },
  {
    "id": 46586,
    "name": "Saint-Trivier-sur-Moignans",
    "state_id": 4967,
    "state_code": "01",
    "country_id": 75,
    "country_code": "FR",
    "latitude": "46.07233000",
    "longitude": "4.89721000",
    "native": null,
    "timezone": "Europe/Paris",
    "translations": {}
  },
  {
    "id": 46677,
    "name": "Sainte-Euphémie",
    "state_id": 4967,
    "state_code": "01",
    "country_id": 75,
    "country_code": "FR",
    "latitude": "45.97101000",
    "longitude": "4.79853000",
    "native": null,
    "timezone": "Europe/Paris",
    "translations": {}
  },
  {
    "id": 46845,
    "name": "Sault-Brénaz",
    "state_id": 4967,
    "state_code": "01",
    "country_id": 75,
    "country_code": "FR",
    "latitude": "45.86132000",
    "longitude": "5.39954000",
    "native": null,
    "timezone": "Europe/Paris",
    "translations": {}
  },
  {
    "id": 46860,
    "name": "Sauverny",
    "state_id": 4967,
    "state_code": "01",
    "country_id": 75,
    "country_code": "FR",
    "latitude": "46.31514000",
    "longitude": "6.11827000",
    "native": null,
    "timezone": "Europe/Paris",
    "translations": {}
  },
  {
    "id": 47135,
    "name": "Ségny",
    "state_id": 4967,
    "state_code": "01",
    "country_id": 75,
    "country_code": "FR",
    "latitude": "46.29571000",
    "longitude": "6.07257000",
    "native": null,
    "timezone": "Europe/Paris",
    "translations": {}
  },
  {
    "id": 46955,
    "name": "Sergy",
    "state_id": 4967,
    "state_code": "01",
    "country_id": 75,
    "country_code": "FR",
    "latitude": "46.25069000",
    "longitude": "6.00183000",
    "native": null,
    "timezone": "Europe/Paris",
    "translations": {}
  },
  {
    "id": 46970,
    "name": "Serrières-de-Briord",
    "state_id": 4967,
    "state_code": "01",
    "country_id": 75,
    "country_code": "FR",
    "latitude": "45.80706000",
    "longitude": "5.44795000",
    "native": null,
    "timezone": "Europe/Paris",
    "translations": {}
  },
  {
    "id": 46971,
    "name": "Servas",
    "state_id": 4967,
    "state_code": "01",
    "country_id": 75,
    "country_code": "FR",
    "latitude": "46.13317000",
    "longitude": "5.16510000",
    "native": null,
    "timezone": "Europe/Paris",
    "translations": {}
  },
  {
    "id": 47199,
    "name": "Tenay",
    "state_id": 4967,
    "state_code": "01",
    "country_id": 75,
    "country_code": "FR",
    "latitude": "45.91884000",
    "longitude": "5.50797000",
    "native": null,
    "timezone": "Europe/Paris",
    "translations": {}
  },
  {
    "id": 47232,
    "name": "Thil",
    "state_id": 4967,
    "state_code": "01",
    "country_id": 75,
    "country_code": "FR",
    "latitude": "45.81368000",
    "longitude": "5.02323000",
    "native": null,
    "timezone": "Europe/Paris",
    "translations": {}
  },
  {
    "id": 47245,
    "name": "Thoissey",
    "state_id": 4967,
    "state_code": "01",
    "country_id": 75,
    "country_code": "FR",
    "latitude": "46.17222000",
    "longitude": "4.80251000",
    "native": null,
    "timezone": "Europe/Paris",
    "translations": {}
  },
  {
    "id": 47306,
    "name": "Tossiat",
    "state_id": 4967,
    "state_code": "01",
    "country_id": 75,
    "country_code": "FR",
    "latitude": "46.13965000",
    "longitude": "5.31158000",
    "native": null,
    "timezone": "Europe/Paris",
    "translations": {}
  },
  {
    "id": 47346,
    "name": "Tramoyes",
    "state_id": 4967,
    "state_code": "01",
    "country_id": 75,
    "country_code": "FR",
    "latitude": "45.87599000",
    "longitude": "4.96502000",
    "native": null,
    "timezone": "Europe/Paris",
    "translations": {}
  },
  {
    "id": 47353,
    "name": "Treffort-Cuisiat",
    "state_id": 4967,
    "state_code": "01",
    "country_id": 75,
    "country_code": "FR",
    "latitude": "46.26667000",
    "longitude": "5.36667000",
    "native": null,
    "timezone": "Europe/Paris",
    "translations": {}
  },
  {
    "id": 47408,
    "name": "Trévoux",
    "state_id": 4967,
    "state_code": "01",
    "country_id": 75,
    "country_code": "FR",
    "latitude": "45.94281000",
    "longitude": "4.77143000",
    "native": null,
    "timezone": "Europe/Paris",
    "translations": {}
  },
  {
    "id": 162072,
    "name": "Val-Revermont",
    "state_id": 4967,
    "state_code": "01",
    "country_id": 75,
    "country_code": "FR",
    "latitude": "46.28160000",
    "longitude": "5.35370000",
    "native": null,
    "timezone": "Europe/Paris",
    "translations": {}
  },
  {
    "id": 162083,
    "name": "Valserhône",
    "state_id": 4967,
    "state_code": "01",
    "country_id": 75,
    "country_code": "FR",
    "latitude": "46.12340000",
    "longitude": "5.79440000",
    "native": null,
    "timezone": "Europe/Paris",
    "translations": {}
  },
  {
    "id": 47545,
    "name": "Vaux-en-Bugey",
    "state_id": 4967,
    "state_code": "01",
    "country_id": 75,
    "country_code": "FR",
    "latitude": "45.92671000",
    "longitude": "5.35141000",
    "native": null,
    "timezone": "Europe/Paris",
    "translations": {}
  },
  {
    "id": 47714,
    "name": "Villars-les-Dombes",
    "state_id": 4967,
    "state_code": "01",
    "country_id": 75,
    "country_code": "FR",
    "latitude": "46.00208000",
    "longitude": "5.03248000",
    "native": null,
    "timezone": "Europe/Paris",
    "translations": {}
  },
  {
    "id": 47724,
    "name": "Villebois",
    "state_id": 4967,
    "state_code": "01",
    "country_id": 75,
    "country_code": "FR",
    "latitude": "45.84822000",
    "longitude": "5.43310000",
    "native": null,
    "timezone": "Europe/Paris",
    "translations": {}
  },
  {
    "id": 47794,
    "name": "Villereversure",
    "state_id": 4967,
    "state_code": "01",
    "country_id": 75,
    "country_code": "FR",
    "latitude": "46.18521000",
    "longitude": "5.38262000",
    "native": null,
    "timezone": "Europe/Paris",
    "translations": {}
  },
  {
    "id": 162098,
    "name": "Villieu-Loyes-Mollon",
    "state_id": 4967,
    "state_code": "01",
    "country_id": 75,
    "country_code": "FR",
    "latitude": "45.92900000",
    "longitude": "5.22650000",
    "native": null,
    "timezone": "Europe/Paris",
    "translations": {}
  },
  {
    "id": 47861,
    "name": "Viriat",
    "state_id": 4967,
    "state_code": "01",
    "country_id": 75,
    "country_code": "FR",
    "latitude": "46.25484000",
    "longitude": "5.21567000",
    "native": null,
    "timezone": "Europe/Paris",
    "translations": {}
  },
  {
    "id": 47863,
    "name": "Virieu-le-Grand",
    "state_id": 4967,
    "state_code": "01",
    "country_id": 75,
    "country_code": "FR",
    "latitude": "45.84766000",
    "longitude": "5.65146000",
    "native": null,
    "timezone": "Europe/Paris",
    "translations": {}
  },
  {
    "id": 47901,
    "name": "Vonnas",
    "state_id": 4967,
    "state_code": "01",
    "country_id": 75,
    "country_code": "FR",
    "latitude": "46.21727000",
    "longitude": "4.99246000",
    "native": null,
    "timezone": "Europe/Paris",
    "translations": {}
  }
]