[
  {
    "id": 39301,
    "name": "Alba-la-Romaine",
    "state_id": 4973,
    "state_code": "07",
    "country_id": 75,
    "country_code": "FR",
    "latitude": "44.55537000",
    "longitude": "4.59846000",
    "native": null,
    "timezone": "Europe/Paris",
    "translations": {}
  },
  {
    "id": 39315,
    "name": "Alissas",
    "state_id": 4973,
    "state_code": "07",
    "country_id": 75,
    "country_code": "FR",
    "latitude": "44.71253000",
    "longitude": "4.62936000",
    "native": null,
    "timezone": "Europe/Paris",
    "translations": {}
  },
  {
    "id": 39376,
    "name": "Andance",
    "state_id": 4973,
    "state_code": "07",
    "country_id": 75,
    "country_code": "FR",
    "latitude": "45.24059000",
    "longitude": "4.79916000",
    "native": null,
    "timezone": "Europe/Paris",
    "translations": {}
  },
  {
    "id": 39423,
    "name": "Annonay",
    "state_id": 4973,
    "state_code": "07",
    "country_id": 75,
    "country_code": "FR",
    "latitude": "45.23992000",
    "longitude": "4.67070000",
    "native": null,
    "timezone": "Europe/Paris",
    "translations": {}
  },
  {
    "id": 39569,
    "name": "Aubenas",
    "state_id": 4973,
    "state_code": "07",
    "country_id": 75,
    "country_code": "FR",
    "latitude": "44.61975000",
    "longitude": "4.39033000",
    "native": null,
    "timezone": "Europe/Paris",
    "translations": {}
  },
  {
    "id": 39840,
    "name": "Beauchastel",
    "state_id": 4973,
    "state_code": "07",
    "country_id": 75,
    "country_code": "FR",
    "latitude": "44.82587000",
    "longitude": "4.80305000",
    "native": null,
    "timezone": "Europe/Paris",
    "translations": {}
  },
  {
    "id": 40168,
    "name": "Boulieu-lès-Annonay",
    "state_id": 4973,
    "state_code": "07",
    "country_id": 75,
    "country_code": "FR",
    "latitude": "45.27065000",
    "longitude": "4.66645000",
    "native": null,
    "timezone": "Europe/Paris",
    "translations": {}
  },
  {
    "id": 40189,
    "name": "Bourg-Saint-Andéol",
    "state_id": 4973,
    "state_code": "07",
    "country_id": 75,
    "country_code": "FR",
    "latitude": "44.37338000",
    "longitude": "4.64413000",
    "native": null,
    "timezone": "Europe/Paris",
    "translations": {}
  },
  {
    "id": 40808,
    "name": "Charmes-sur-Rhône",
    "state_id": 4973,
    "state_code": "07",
    "country_id": 75,
    "country_code": "FR",
    "latitude": "44.86367000",
    "longitude": "4.83533000",
    "native": null,
    "timezone": "Europe/Paris",
    "translations": {}
  },
  {
    "id": 40925,
    "name": "Chomérac",
    "state_id": 4973,
    "state_code": "07",
    "country_id": 75,
    "country_code": "FR",
    "latitude": "44.70752000",
    "longitude": "4.66164000",
    "native": null,
    "timezone": "Europe/Paris",
    "translations": {}
  },
  {
    "id": 41186,
    "name": "Cornas",
    "state_id": 4973,
    "state_code": "07",
    "country_id": 75,
    "country_code": "FR",
    "latitude": "44.96382000",
    "longitude": "4.84839000",
    "native": null,
    "timezone": "Europe/Paris",
    "translations": {}
  },
  {
    "id": 41285,
    "name": "Coux",
    "state_id": 4973,
    "state_code": "07",
    "country_id": 75,
    "country_code": "FR",
    "latitude": "44.73484000",
    "longitude": "4.62057000",
    "native": null,
    "timezone": "Europe/Paris",
    "translations": {}
  },
  {
    "id": 41335,
    "name": "Cruas",
    "state_id": 4973,
    "state_code": "07",
    "country_id": 75,
    "country_code": "FR",
    "latitude": "44.65706000",
    "longitude": "4.76293000",
    "native": null,
    "timezone": "Europe/Paris",
    "translations": {}
  },
  {
    "id": 41442,
    "name": "Davézieux",
    "state_id": 4973,
    "state_code": "07",
    "country_id": 75,
    "country_code": "FR",
    "latitude": "45.25520000",
    "longitude": "4.70744000",
    "native": null,
    "timezone": "Europe/Paris",
    "translations": {}
  },
  {
    "id": 41611,
    "name": "Département de l'Ardèche",
    "state_id": 4973,
    "state_code": "07",
    "country_id": 75,
    "country_code": "FR",
    "latitude": "44.66667000",
    "longitude": "4.33333000",
    "native": null,
    "timezone": "Europe/Paris",
    "translations": {}
  },
  {
    "id": 41648,
    "name": "Désaignes",
    "state_id": 4973,
    "state_code": "07",
    "country_id": 75,
    "country_code": "FR",
    "latitude": "44.99466000",
    "longitude": "4.51695000",
    "native": null,
    "timezone": "Europe/Paris",
    "translations": {}
  },
  {
    "id": 42002,
    "name": "Félines",
    "state_id": 4973,
    "state_code": "07",
    "country_id": 75,
    "country_code": "FR",
    "latitude": "45.31668000",
    "longitude": "4.72836000",
    "native": null,
    "timezone": "Europe/Paris",
    "translations": {}
  },
  {
    "id": 41830,
    "name": "Flaviac",
    "state_id": 4973,
    "state_code": "07",
    "country_id": 75,
    "country_code": "FR",
    "latitude": "44.74777000",
    "longitude": "4.67434000",
    "native": null,
    "timezone": "Europe/Paris",
    "translations": {}
  },
  {
    "id": 42259,
    "name": "Guilherand-Granges",
    "state_id": 4973,
    "state_code": "07",
    "country_id": 75,
    "country_code": "FR",
    "latitude": "44.93278000",
    "longitude": "4.87372000",
    "native": null,
    "timezone": "Europe/Paris",
    "translations": {}
  },
  {
    "id": 42540,
    "name": "Jaujac",
    "state_id": 4973,
    "state_code": "07",
    "country_id": 75,
    "country_code": "FR",
    "latitude": "44.63695000",
    "longitude": "4.25638000",
    "native": null,
    "timezone": "Europe/Paris",
    "translations": {}
  },
  {
    "id": 42580,
    "name": "Joyeuse",
    "state_id": 4973,
    "state_code": "07",
    "country_id": 75,
    "country_code": "FR",
    "latitude": "44.47951000",
    "longitude": "4.23778000",
    "native": null,
    "timezone": "Europe/Paris",
    "translations": {}
  },
  {
    "id": 42918,
    "name": "La Voulte-sur-Rhône",
    "state_id": 4973,
    "state_code": "07",
    "country_id": 75,
    "country_code": "FR",
    "latitude": "44.79958000",
    "longitude": "4.77925000",
    "native": null,
    "timezone": "Europe/Paris",
    "translations": {}
  },
  {
    "id": 42940,
    "name": "Labégude",
    "state_id": 4973,
    "state_code": "07",
    "country_id": 75,
    "country_code": "FR",
    "latitude": "44.64496000",
    "longitude": "4.36939000",
    "native": null,
    "timezone": "Europe/Paris",
    "translations": {}
  },
  {
    "id": 42933,
    "name": "Lablachère",
    "state_id": 4973,
    "state_code": "07",
    "country_id": 75,
    "country_code": "FR",
    "latitude": "44.46355000",
    "longitude": "4.21439000",
    "native": null,
    "timezone": "Europe/Paris",
    "translations": {}
  },
  {
    "id": 42946,
    "name": "Lachapelle-sous-Aubenas",
    "state_id": 4973,
    "state_code": "07",
    "country_id": 75,
    "country_code": "FR",
    "latitude": "44.56421000",
    "longitude": "4.36393000",
    "native": null,
    "timezone": "Europe/Paris",
    "translations": {}
  },
  {
    "id": 42974,
    "name": "Lalevade-d’Ardèche",
    "state_id": 4973,
    "state_code": "07",
    "country_id": 75,
    "country_code": "FR",
    "latitude": "44.64780000",
    "longitude": "4.32303000",
    "native": null,
    "timezone": "Europe/Paris",
    "translations": {}
  },
  {
    "id": 42984,
    "name": "Lamastre",
    "state_id": 4973,
    "state_code": "07",
    "country_id": 75,
    "country_code": "FR",
    "latitude": "44.98672000",
    "longitude": "4.57975000",
    "native": null,
    "timezone": "Europe/Paris",
    "translations": {}
  },
  {
    "id": 43071,
    "name": "Largentière",
    "state_id": 4973,
    "state_code": "07",
    "country_id": 75,
    "country_code": "FR",
    "latitude": "44.54272000",
    "longitude": "4.29342000",
    "native": null,
    "timezone": "Europe/Paris",
    "translations": {}
  },
  {
    "id": 43117,
    "name": "Lavilledieu",
    "state_id": 4973,
    "state_code": "07",
    "country_id": 75,
    "country_code": "FR",
    "latitude": "44.57545000",
    "longitude": "4.45314000",
    "native": null,
    "timezone": "Europe/Paris",
    "translations": {}
  },
  {
    "id": 43166,
    "name": "Le Cheylard",
    "state_id": 4973,
    "state_code": "07",
    "country_id": 75,
    "country_code": "FR",
    "latitude": "44.90623000",
    "longitude": "4.42406000",
    "native": null,
    "timezone": "Europe/Paris",
    "translations": {}
  },
  {
    "id": 43282,
    "name": "Le Pouzin",
    "state_id": 4973,
    "state_code": "07",
    "country_id": 75,
    "country_code": "FR",
    "latitude": "44.75173000",
    "longitude": "4.74798000",
    "native": null,
    "timezone": "Europe/Paris",
    "translations": {}
  },
  {
    "id": 43307,
    "name": "Le Teil",
    "state_id": 4973,
    "state_code": "07",
    "country_id": 75,
    "country_code": "FR",
    "latitude": "44.54531000",
    "longitude": "4.68223000",
    "native": null,
    "timezone": "Europe/Paris",
    "translations": {}
  },
  {
    "id": 43433,
    "name": "Les Vans",
    "state_id": 4973,
    "state_code": "07",
    "country_id": 75,
    "country_code": "FR",
    "latitude": "44.40522000",
    "longitude": "4.13198000",
    "native": null,
    "timezone": "Europe/Paris",
    "translations": {}
  },
  {
    "id": 43960,
    "name": "Mauves",
    "state_id": 4973,
    "state_code": "07",
    "country_id": 75,
    "country_code": "FR",
    "latitude": "45.03833000",
    "longitude": "4.82934000",
    "native": null,
    "timezone": "Europe/Paris",
    "translations": {}
  },
  {
    "id": 44063,
    "name": "Meysse",
    "state_id": 4973,
    "state_code": "07",
    "country_id": 75,
    "country_code": "FR",
    "latitude": "44.61028000",
    "longitude": "4.72306000",
    "native": null,
    "timezone": "Europe/Paris",
    "translations": {}
  },
  {
    "id": 44878,
    "name": "Peaugres",
    "state_id": 4973,
    "state_code": "07",
    "country_id": 75,
    "country_code": "FR",
    "latitude": "45.28651000",
    "longitude": "4.72845000",
    "native": null,
    "timezone": "Europe/Paris",
    "translations": {}
  },
  {
    "id": 45291,
    "name": "Privas",
    "state_id": 4973,
    "state_code": "07",
    "country_id": 75,
    "country_code": "FR",
    "latitude": "44.73500000",
    "longitude": "4.59918000",
    "native": null,
    "timezone": "Europe/Paris",
    "translations": {}
  },
  {
    "id": 45400,
    "name": "Quintenas",
    "state_id": 4973,
    "state_code": "07",
    "country_id": 75,
    "country_code": "FR",
    "latitude": "45.18892000",
    "longitude": "4.68743000",
    "native": null,
    "timezone": "Europe/Paris",
    "translations": {}
  },
  {
    "id": 45548,
    "name": "Rochemaure",
    "state_id": 4973,
    "state_code": "07",
    "country_id": 75,
    "country_code": "FR",
    "latitude": "44.58747000",
    "longitude": "4.70391000",
    "native": null,
    "timezone": "Europe/Paris",
    "translations": {}
  },
  {
    "id": 45563,
    "name": "Roiffieux",
    "state_id": 4973,
    "state_code": "07",
    "country_id": 75,
    "country_code": "FR",
    "latitude": "45.22655000",
    "longitude": "4.65441000",
    "native": null,
    "timezone": "Europe/Paris",
    "translations": {}
  },
  {
    "id": 45676,
    "name": "Ruoms",
    "state_id": 4973,
    "state_code": "07",
    "country_id": 75,
    "country_code": "FR",
    "latitude": "44.45294000",
    "longitude": "4.34202000",
    "native": null,
    "timezone": "Europe/Paris",
    "translations": {}
  },
  {
    "id": 45731,
    "name": "Saint-Agrève",
    "state_id": 4973,
    "state_code": "07",
    "country_id": 75,
    "country_code": "FR",
    "latitude": "45.01003000",
    "longitude": "4.39612000",
    "native": null,
    "timezone": "Europe/Paris",
    "translations": {}
  },
  {
    "id": 45882,
    "name": "Saint-Cyr",
    "state_id": 4973,
    "state_code": "07",
    "country_id": 75,
    "country_code": "FR",
    "latitude": "45.25183000",
    "longitude": "4.73045000",
    "native": null,
    "timezone": "Europe/Paris",
    "translations": {}
  },
  {
    "id": 46646,
    "name": "Saint-Étienne-de-Fontbellon",
    "state_id": 4973,
    "state_code": "07",
    "country_id": 75,
    "country_code": "FR",
    "latitude": "44.60077000",
    "longitude": "4.38635000",
    "native": null,
    "timezone": "Europe/Paris",
    "translations": {}
  },
  {
    "id": 45945,
    "name": "Saint-Félicien",
    "state_id": 4973,
    "state_code": "07",
    "country_id": 75,
    "country_code": "FR",
    "latitude": "45.08600000",
    "longitude": "4.62738000",
    "native": null,
    "timezone": "Europe/Paris",
    "translations": {}
  },
  {
    "id": 45985,
    "name": "Saint-Georges-les-Bains",
    "state_id": 4973,
    "state_code": "07",
    "country_id": 75,
    "country_code": "FR",
    "latitude": "44.86100000",
    "longitude": "4.80924000",
    "native": null,
    "timezone": "Europe/Paris",
    "translations": {}
  },
  {
    "id": 46098,
    "name": "Saint-Jean-de-Muzols",
    "state_id": 4973,
    "state_code": "07",
    "country_id": 75,
    "country_code": "FR",
    "latitude": "45.08179000",
    "longitude": "4.81396000",
    "native": null,
    "timezone": "Europe/Paris",
    "translations": {}
  },
  {
    "id": 46145,
    "name": "Saint-Julien-en-Saint-Alban",
    "state_id": 4973,
    "state_code": "07",
    "country_id": 75,
    "country_code": "FR",
    "latitude": "44.75417000",
    "longitude": "4.69678000",
    "native": null,
    "timezone": "Europe/Paris",
    "translations": {}
  },
  {
    "id": 46159,
    "name": "Saint-Just-d'Ardèche",
    "state_id": 4973,
    "state_code": "07",
    "country_id": 75,
    "country_code": "FR",
    "latitude": "44.30000000",
    "longitude": "4.61667000",
    "native": null,
    "timezone": "Europe/Paris",
    "translations": {}
  },
  {
    "id": 46183,
    "name": "Saint-Laurent-du-Pape",
    "state_id": 4973,
    "state_code": "07",
    "country_id": 75,
    "country_code": "FR",
    "latitude": "44.82328000",
    "longitude": "4.76679000",
    "native": null,
    "timezone": "Europe/Paris",
    "translations": {}
  },
  {
    "id": 46245,
    "name": "Saint-Marcel-d'Ardèche",
    "state_id": 4973,
    "state_code": "07",
    "country_id": 75,
    "country_code": "FR",
    "latitude": "44.32726000",
    "longitude": "4.61769000",
    "native": null,
    "timezone": "Europe/Paris",
    "translations": {}
  },
  {
    "id": 46246,
    "name": "Saint-Marcel-lès-Annonay",
    "state_id": 4973,
    "state_code": "07",
    "country_id": 75,
    "country_code": "FR",
    "latitude": "45.28613000",
    "longitude": "4.62616000",
    "native": null,
    "timezone": "Europe/Paris",
    "translations": {}
  },
  {
    "id": 46279,
    "name": "Saint-Martin-de-Valamas",
    "state_id": 4973,
    "state_code": "07",
    "country_id": 75,
    "country_code": "FR",
    "latitude": "44.93718000",
    "longitude": "4.36865000",
    "native": null,
    "timezone": "Europe/Paris",
    "translations": {}
  },
  {
    "id": 46482,
    "name": "Saint-Péray",
    "state_id": 4973,
    "state_code": "07",
    "country_id": 75,
    "country_code": "FR",
    "latitude": "44.94866000",
    "longitude": "4.84510000",
    "native": null,
    "timezone": "Europe/Paris",
    "translations": {}
  },
  {
    "id": 46534,
    "name": "Saint-Sauveur-de-Montagut",
    "state_id": 4973,
    "state_code": "07",
    "country_id": 75,
    "country_code": "FR",
    "latitude": "44.82142000",
    "longitude": "4.57993000",
    "native": null,
    "timezone": "Europe/Paris",
    "translations": {}
  },
  {
    "id": 46548,
    "name": "Saint-Sernin",
    "state_id": 4973,
    "state_code": "07",
    "country_id": 75,
    "country_code": "FR",
    "latitude": "44.57147000",
    "longitude": "4.39186000",
    "native": null,
    "timezone": "Europe/Paris",
    "translations": {}
  },
  {
    "id": 46810,
    "name": "Sarras",
    "state_id": 4973,
    "state_code": "07",
    "country_id": 75,
    "country_code": "FR",
    "latitude": "45.18679000",
    "longitude": "4.80004000",
    "native": null,
    "timezone": "Europe/Paris",
    "translations": {}
  },
  {
    "id": 46829,
    "name": "Satillieu",
    "state_id": 4973,
    "state_code": "07",
    "country_id": 75,
    "country_code": "FR",
    "latitude": "45.15041000",
    "longitude": "4.61410000",
    "native": null,
    "timezone": "Europe/Paris",
    "translations": {}
  },
  {
    "id": 46969,
    "name": "Serrières",
    "state_id": 4973,
    "state_code": "07",
    "country_id": 75,
    "country_code": "FR",
    "latitude": "45.31799000",
    "longitude": "4.76327000",
    "native": null,
    "timezone": "Europe/Paris",
    "translations": {}
  },
  {
    "id": 47091,
    "name": "Soyons",
    "state_id": 4973,
    "state_code": "07",
    "country_id": 75,
    "country_code": "FR",
    "latitude": "44.88914000",
    "longitude": "4.85026000",
    "native": null,
    "timezone": "Europe/Paris",
    "translations": {}
  },
  {
    "id": 47258,
    "name": "Thueyts",
    "state_id": 4973,
    "state_code": "07",
    "country_id": 75,
    "country_code": "FR",
    "latitude": "44.67628000",
    "longitude": "4.22146000",
    "native": null,
    "timezone": "Europe/Paris",
    "translations": {}
  },
  {
    "id": 47310,
    "name": "Toulaud",
    "state_id": 4973,
    "state_code": "07",
    "country_id": 75,
    "country_code": "FR",
    "latitude": "44.89773000",
    "longitude": "4.81639000",
    "native": null,
    "timezone": "Europe/Paris",
    "translations": {}
  },
  {
    "id": 47328,
    "name": "Tournon-sur-Rhône",
    "state_id": 4973,
    "state_code": "07",
    "country_id": 75,
    "country_code": "FR",
    "latitude": "45.06667000",
    "longitude": "4.83333000",
    "native": null,
    "timezone": "Europe/Paris",
    "translations": {}
  },
  {
    "id": 162052,
    "name": "Ucel",
    "state_id": 4973,
    "state_code": "07",
    "country_id": 75,
    "country_code": "FR",
    "latitude": "44.64120000",
    "longitude": "4.38670000",
    "native": null,
    "timezone": "Europe/Paris",
    "translations": {}
  },
  {
    "id": 47493,
    "name": "Vallon-Pont-d’Arc",
    "state_id": 4973,
    "state_code": "07",
    "country_id": 75,
    "country_code": "FR",
    "latitude": "44.40685000",
    "longitude": "4.39374000",
    "native": null,
    "timezone": "Europe/Paris",
    "translations": {}
  },
  {
    "id": 47501,
    "name": "Vals-les-Bains",
    "state_id": 4973,
    "state_code": "07",
    "country_id": 75,
    "country_code": "FR",
    "latitude": "44.66561000",
    "longitude": "4.36615000",
    "native": null,
    "timezone": "Europe/Paris",
    "translations": {}
  },
  {
    "id": 47620,
    "name": "Vernosc-lès-Annonay",
    "state_id": 4973,
    "state_code": "07",
    "country_id": 75,
    "country_code": "FR",
    "latitude": "45.21596000",
    "longitude": "4.71310000",
    "native": null,
    "timezone": "Europe/Paris",
    "translations": {}
  },
  {
    "id": 47625,
    "name": "Vernoux-en-Vivarais",
    "state_id": 4973,
    "state_code": "07",
    "country_id": 75,
    "country_code": "FR",
    "latitude": "44.89577000",
    "longitude": "4.64524000",
    "native": null,
    "timezone": "Europe/Paris",
    "translations": {}
  },
  {
    "id": 47649,
    "name": "Vesseaux",
    "state_id": 4973,
    "state_code": "07",
    "country_id": 75,
    "country_code": "FR",
    "latitude": "44.65152000",
    "longitude": "4.44025000",
    "native": null,
    "timezone": "Europe/Paris",
    "translations": {}
  },
  {
    "id": 47654,
    "name": "Veyras",
    "state_id": 4973,
    "state_code": "07",
    "country_id": 75,
    "country_code": "FR",
    "latitude": "44.73518000",
    "longitude": "4.56254000",
    "native": null,
    "timezone": "Europe/Paris",
    "translations": {}
  },
  {
    "id": 47767,
    "name": "Villeneuve-de-Berg",
    "state_id": 4973,
    "state_code": "07",
    "country_id": 75,
    "country_code": "FR",
    "latitude": "44.55699000",
    "longitude": "4.50215000",
    "native": null,
    "timezone": "Europe/Paris",
    "translations": {}
  },
  {
    "id": 47822,
    "name": "Villevocance",
    "state_id": 4973,
    "state_code": "07",
    "country_id": 75,
    "country_code": "FR",
    "latitude": "45.22481000",
    "longitude": "4.58827000",
    "native": null,
    "timezone": "Europe/Paris",
    "translations": {}
  },
  {
    "id": 47882,
    "name": "Viviers",
    "state_id": 4973,
    "state_code": "07",
    "country_id": 75,
    "country_code": "FR",
    "latitude": "44.48280000",
    "longitude": "4.68895000",
    "native": null,
    "timezone": "Europe/Paris",
    "translations": {}
  }
]