[
  {
    "id": 39584,
    "name": "Aubin",
    "state_id": 4978,
    "state_code": "12",
    "country_id": 75,
    "country_code": "FR",
    "latitude": "44.52809000",
    "longitude": "2.24439000",
    "native": null,
    "timezone": "Europe/Paris",
    "translations": {}
  },
  {
    "id": 39768,
    "name": "Baraqueville",
    "state_id": 4978,
    "state_code": "12",
    "country_id": 75,
    "country_code": "FR",
    "latitude": "44.27655000",
    "longitude": "2.43184000",
    "native": null,
    "timezone": "Europe/Paris",
    "translations": {}
  },
  {
    "id": 39933,
    "name": "Belmont-sur-Rance",
    "state_id": 4978,
    "state_code": "12",
    "country_id": 75,
    "country_code": "FR",
    "latitude": "43.81981000",
    "longitude": "2.75524000",
    "native": null,
    "timezone": "Europe/Paris",
    "translations": {}
  },
  {
    "id": 40243,
    "name": "Bozouls",
    "state_id": 4978,
    "state_code": "12",
    "country_id": 75,
    "country_code": "FR",
    "latitude": "44.47050000",
    "longitude": "2.72432000",
    "native": null,
    "timezone": "Europe/Paris",
    "translations": {}
  },
  {
    "id": 40483,
    "name": "Camarès",
    "state_id": 4978,
    "state_code": "12",
    "country_id": 75,
    "country_code": "FR",
    "latitude": "43.82208000",
    "longitude": "2.88005000",
    "native": null,
    "timezone": "Europe/Paris",
    "translations": {}
  },
  {
    "id": 40526,
    "name": "Capdenac-Gare",
    "state_id": 4978,
    "state_code": "12",
    "country_id": 75,
    "country_code": "FR",
    "latitude": "44.57567000",
    "longitude": "2.08079000",
    "native": null,
    "timezone": "Europe/Paris",
    "translations": {}
  },
  {
    "id": 40568,
    "name": "Cassagnes-Bégonhès",
    "state_id": 4978,
    "state_code": "12",
    "country_id": 75,
    "country_code": "FR",
    "latitude": "44.16893000",
    "longitude": "2.53084000",
    "native": null,
    "timezone": "Europe/Paris",
    "translations": {}
  },
  {
    "id": 41105,
    "name": "Colombiès",
    "state_id": 4978,
    "state_code": "12",
    "country_id": 75,
    "country_code": "FR",
    "latitude": "44.34414000",
    "longitude": "2.33772000",
    "native": null,
    "timezone": "Europe/Paris",
    "translations": {}
  },
  {
    "id": 41296,
    "name": "Cransac",
    "state_id": 4978,
    "state_code": "12",
    "country_id": 75,
    "country_code": "FR",
    "latitude": "44.52411000",
    "longitude": "2.28370000",
    "native": null,
    "timezone": "Europe/Paris",
    "translations": {}
  },
  {
    "id": 41304,
    "name": "Creissels",
    "state_id": 4978,
    "state_code": "12",
    "country_id": 75,
    "country_code": "FR",
    "latitude": "44.08588000",
    "longitude": "3.06071000",
    "native": null,
    "timezone": "Europe/Paris",
    "translations": {}
  },
  {
    "id": 41445,
    "name": "Decazeville",
    "state_id": 4978,
    "state_code": "12",
    "country_id": 75,
    "country_code": "FR",
    "latitude": "44.56045000",
    "longitude": "2.25091000",
    "native": null,
    "timezone": "Europe/Paris",
    "translations": {}
  },
  {
    "id": 41615,
    "name": "Département de l'Aveyron",
    "state_id": 4978,
    "state_code": "12",
    "country_id": 75,
    "country_code": "FR",
    "latitude": "44.25000000",
    "longitude": "2.50000000",
    "native": null,
    "timezone": "Europe/Paris",
    "translations": {}
  },
  {
    "id": 41578,
    "name": "Druelle",
    "state_id": 4978,
    "state_code": "12",
    "country_id": 75,
    "country_code": "FR",
    "latitude": "44.36006000",
    "longitude": "2.50505000",
    "native": null,
    "timezone": "Europe/Paris",
    "translations": {}
  },
  {
    "id": 161752,
    "name": "Druelle Balsac",
    "state_id": 4978,
    "state_code": "12",
    "country_id": 75,
    "country_code": "FR",
    "latitude": "44.37820000",
    "longitude": "2.47210000",
    "native": null,
    "timezone": "Europe/Paris",
    "translations": {}
  },
  {
    "id": 41681,
    "name": "Entraygues-sur-Truyère",
    "state_id": 4978,
    "state_code": "12",
    "country_id": 75,
    "country_code": "FR",
    "latitude": "44.64606000",
    "longitude": "2.56745000",
    "native": null,
    "timezone": "Europe/Paris",
    "translations": {}
  },
  {
    "id": 41716,
    "name": "Espalion",
    "state_id": 4978,
    "state_code": "12",
    "country_id": 75,
    "country_code": "FR",
    "latitude": "44.52237000",
    "longitude": "2.76265000",
    "native": null,
    "timezone": "Europe/Paris",
    "translations": {}
  },
  {
    "id": 41823,
    "name": "Firmi",
    "state_id": 4978,
    "state_code": "12",
    "country_id": 75,
    "country_code": "FR",
    "latitude": "44.54106000",
    "longitude": "2.30764000",
    "native": null,
    "timezone": "Europe/Paris",
    "translations": {}
  },
  {
    "id": 41832,
    "name": "Flavin",
    "state_id": 4978,
    "state_code": "12",
    "country_id": 75,
    "country_code": "FR",
    "latitude": "44.28890000",
    "longitude": "2.60513000",
    "native": null,
    "timezone": "Europe/Paris",
    "translations": {}
  },
  {
    "id": 42669,
    "name": "La Cavalerie",
    "state_id": 4978,
    "state_code": "12",
    "country_id": 75,
    "country_code": "FR",
    "latitude": "44.00961000",
    "longitude": "3.15840000",
    "native": null,
    "timezone": "Europe/Paris",
    "translations": {}
  },
  {
    "id": 42753,
    "name": "La Fouillade",
    "state_id": 4978,
    "state_code": "12",
    "country_id": 75,
    "country_code": "FR",
    "latitude": "44.23072000",
    "longitude": "2.03989000",
    "native": null,
    "timezone": "Europe/Paris",
    "translations": {}
  },
  {
    "id": 42794,
    "name": "La Loubière",
    "state_id": 4978,
    "state_code": "12",
    "country_id": 75,
    "country_code": "FR",
    "latitude": "44.37143000",
    "longitude": "2.66825000",
    "native": null,
    "timezone": "Europe/Paris",
    "translations": {}
  },
  {
    "id": 42871,
    "name": "La Salvetat-Peyralès",
    "state_id": 4978,
    "state_code": "12",
    "country_id": 75,
    "country_code": "FR",
    "latitude": "44.21940000",
    "longitude": "2.20297000",
    "native": null,
    "timezone": "Europe/Paris",
    "translations": {}
  },
  {
    "id": 42965,
    "name": "Laguiole",
    "state_id": 4978,
    "state_code": "12",
    "country_id": 75,
    "country_code": "FR",
    "latitude": "44.68465000",
    "longitude": "2.84666000",
    "native": null,
    "timezone": "Europe/Paris",
    "translations": {}
  },
  {
    "id": 42971,
    "name": "Laissac",
    "state_id": 4978,
    "state_code": "12",
    "country_id": 75,
    "country_code": "FR",
    "latitude": "44.38085000",
    "longitude": "2.82154000",
    "native": null,
    "timezone": "Europe/Paris",
    "translations": {}
  },
  {
    "id": 161829,
    "name": "Laissac-Sévérac l'Église",
    "state_id": 4978,
    "state_code": "12",
    "country_id": 75,
    "country_code": "FR",
    "latitude": "44.36920000",
    "longitude": "2.83520000",
    "native": null,
    "timezone": "Europe/Paris",
    "translations": {}
  },
  {
    "id": 43236,
    "name": "Le Monastère",
    "state_id": 4978,
    "state_code": "12",
    "country_id": 75,
    "country_code": "FR",
    "latitude": "44.34165000",
    "longitude": "2.57956000",
    "native": null,
    "timezone": "Europe/Paris",
    "translations": {}
  },
  {
    "id": 43518,
    "name": "Livinhac-le-Haut",
    "state_id": 4978,
    "state_code": "12",
    "country_id": 75,
    "country_code": "FR",
    "latitude": "44.59212000",
    "longitude": "2.23117000",
    "native": null,
    "timezone": "Europe/Paris",
    "translations": {}
  },
  {
    "id": 43629,
    "name": "Luc-la-Primaube",
    "state_id": 4978,
    "state_code": "12",
    "country_id": 75,
    "country_code": "FR",
    "latitude": "44.31439000",
    "longitude": "2.53552000",
    "native": null,
    "timezone": "Europe/Paris",
    "translations": {}
  },
  {
    "id": 43804,
    "name": "Marcillac-Vallon",
    "state_id": 4978,
    "state_code": "12",
    "country_id": 75,
    "country_code": "FR",
    "latitude": "44.47464000",
    "longitude": "2.46454000",
    "native": null,
    "timezone": "Europe/Paris",
    "translations": {}
  },
  {
    "id": 44074,
    "name": "Millau",
    "state_id": 4978,
    "state_code": "12",
    "country_id": 75,
    "country_code": "FR",
    "latitude": "44.09774000",
    "longitude": "3.07777000",
    "native": null,
    "timezone": "Europe/Paris",
    "translations": {}
  },
  {
    "id": 44191,
    "name": "Montbazens",
    "state_id": 4978,
    "state_code": "12",
    "country_id": 75,
    "country_code": "FR",
    "latitude": "44.47807000",
    "longitude": "2.22980000",
    "native": null,
    "timezone": "Europe/Paris",
    "translations": {}
  },
  {
    "id": 44400,
    "name": "Mouret",
    "state_id": 4978,
    "state_code": "12",
    "country_id": 75,
    "country_code": "FR",
    "latitude": "43.36126000",
    "longitude": "5.43006000",
    "native": null,
    "timezone": "Europe/Paris",
    "translations": {}
  },
  {
    "id": 44424,
    "name": "Moyrazès",
    "state_id": 4978,
    "state_code": "12",
    "country_id": 75,
    "country_code": "FR",
    "latitude": "44.34204000",
    "longitude": "2.43933000",
    "native": null,
    "timezone": "Europe/Paris",
    "translations": {}
  },
  {
    "id": 44518,
    "name": "Naucelle",
    "state_id": 4978,
    "state_code": "12",
    "country_id": 75,
    "country_code": "FR",
    "latitude": "44.19810000",
    "longitude": "2.34310000",
    "native": null,
    "timezone": "Europe/Paris",
    "translations": {}
  },
  {
    "id": 44731,
    "name": "Olemps",
    "state_id": 4978,
    "state_code": "12",
    "country_id": 75,
    "country_code": "FR",
    "latitude": "44.34638000",
    "longitude": "2.55140000",
    "native": null,
    "timezone": "Europe/Paris",
    "translations": {}
  },
  {
    "id": 161924,
    "name": "Onet-le-Château",
    "state_id": 4978,
    "state_code": "12",
    "country_id": 75,
    "country_code": "FR",
    "latitude": "44.38240000",
    "longitude": "2.56140000",
    "native": null,
    "timezone": "Europe/Paris",
    "translations": {}
  },
  {
    "id": 45182,
    "name": "Pont-de-Salars",
    "state_id": 4978,
    "state_code": "12",
    "country_id": 75,
    "country_code": "FR",
    "latitude": "44.28080000",
    "longitude": "2.72783000",
    "native": null,
    "timezone": "Europe/Paris",
    "translations": {}
  },
  {
    "id": 45695,
    "name": "Réquista",
    "state_id": 4978,
    "state_code": "12",
    "country_id": 75,
    "country_code": "FR",
    "latitude": "44.03325000",
    "longitude": "2.53554000",
    "native": null,
    "timezone": "Europe/Paris",
    "translations": {}
  },
  {
    "id": 45503,
    "name": "Rieupeyroux",
    "state_id": 4978,
    "state_code": "12",
    "country_id": 75,
    "country_code": "FR",
    "latitude": "44.30799000",
    "longitude": "2.23819000",
    "native": null,
    "timezone": "Europe/Paris",
    "translations": {}
  },
  {
    "id": 45510,
    "name": "Rignac",
    "state_id": 4978,
    "state_code": "12",
    "country_id": 75,
    "country_code": "FR",
    "latitude": "44.40853000",
    "longitude": "2.29001000",
    "native": null,
    "timezone": "Europe/Paris",
    "translations": {}
  },
  {
    "id": 45554,
    "name": "Rodez",
    "state_id": 4978,
    "state_code": "12",
    "country_id": 75,
    "country_code": "FR",
    "latitude": "44.35258000",
    "longitude": "2.57338000",
    "native": null,
    "timezone": "Europe/Paris",
    "translations": {}
  },
  {
    "id": 161971,
    "name": "Saint Geniez d'Olt et d'Aubrac",
    "state_id": 4978,
    "state_code": "12",
    "country_id": 75,
    "country_code": "FR",
    "latitude": "44.51120000",
    "longitude": "3.00770000",
    "native": null,
    "timezone": "Europe/Paris",
    "translations": {}
  },
  {
    "id": 45727,
    "name": "Saint-Affrique",
    "state_id": 4978,
    "state_code": "12",
    "country_id": 75,
    "country_code": "FR",
    "latitude": "43.95575000",
    "longitude": "2.88915000",
    "native": null,
    "timezone": "Europe/Paris",
    "translations": {}
  },
  {
    "id": 45856,
    "name": "Saint-Christophe-Vallon",
    "state_id": 4978,
    "state_code": "12",
    "country_id": 75,
    "country_code": "FR",
    "latitude": "44.47072000",
    "longitude": "2.41184000",
    "native": null,
    "timezone": "Europe/Paris",
    "translations": {}
  },
  {
    "id": 45958,
    "name": "Saint-Geniez-d’Olt",
    "state_id": 4978,
    "state_code": "12",
    "country_id": 75,
    "country_code": "FR",
    "latitude": "44.46561000",
    "longitude": "2.97261000",
    "native": null,
    "timezone": "Europe/Paris",
    "translations": {}
  },
  {
    "id": 45975,
    "name": "Saint-Georges-de-Luzençon",
    "state_id": 4978,
    "state_code": "12",
    "country_id": 75,
    "country_code": "FR",
    "latitude": "44.06471000",
    "longitude": "2.98597000",
    "native": null,
    "timezone": "Europe/Paris",
    "translations": {}
  },
  {
    "id": 46694,
    "name": "Sainte-Geneviève-sur-Argence",
    "state_id": 4978,
    "state_code": "12",
    "country_id": 75,
    "country_code": "FR",
    "latitude": "44.80222000",
    "longitude": "2.75954000",
    "native": null,
    "timezone": "Europe/Paris",
    "translations": {}
  },
  {
    "id": 46762,
    "name": "Salles-Curan",
    "state_id": 4978,
    "state_code": "12",
    "country_id": 75,
    "country_code": "FR",
    "latitude": "44.18220000",
    "longitude": "2.78821000",
    "native": null,
    "timezone": "Europe/Paris",
    "translations": {}
  },
  {
    "id": 46763,
    "name": "Salles-la-Source",
    "state_id": 4978,
    "state_code": "12",
    "country_id": 75,
    "country_code": "FR",
    "latitude": "44.43505000",
    "longitude": "2.51283000",
    "native": null,
    "timezone": "Europe/Paris",
    "translations": {}
  },
  {
    "id": 47132,
    "name": "Sébazac-Concourès",
    "state_id": 4978,
    "state_code": "12",
    "country_id": 75,
    "country_code": "FR",
    "latitude": "44.40484000",
    "longitude": "2.60324000",
    "native": null,
    "timezone": "Europe/Paris",
    "translations": {}
  },
  {
    "id": 162033,
    "name": "Sévérac d'Aveyron",
    "state_id": 4978,
    "state_code": "12",
    "country_id": 75,
    "country_code": "FR",
    "latitude": "44.31380000",
    "longitude": "3.02940000",
    "native": null,
    "timezone": "Europe/Paris",
    "translations": {}
  },
  {
    "id": 47150,
    "name": "Sévérac-le-Château",
    "state_id": 4978,
    "state_code": "12",
    "country_id": 75,
    "country_code": "FR",
    "latitude": "44.32429000",
    "longitude": "3.05929000",
    "native": null,
    "timezone": "Europe/Paris",
    "translations": {}
  },
  {
    "id": 47466,
    "name": "Valady",
    "state_id": 4978,
    "state_code": "12",
    "country_id": 75,
    "country_code": "FR",
    "latitude": "44.45633000",
    "longitude": "2.42746000",
    "native": null,
    "timezone": "Europe/Paris",
    "translations": {}
  },
  {
    "id": 47737,
    "name": "Villefranche-de-Rouergue",
    "state_id": 4978,
    "state_code": "12",
    "country_id": 75,
    "country_code": "FR",
    "latitude": "44.35166000",
    "longitude": "2.03702000",
    "native": null,
    "timezone": "Europe/Paris",
    "translations": {}
  },
  {
    "id": 47759,
    "name": "Villeneuve",
    "state_id": 4978,
    "state_code": "12",
    "country_id": 75,
    "country_code": "FR",
    "latitude": "44.43333000",
    "longitude": "2.03333000",
    "native": null,
    "timezone": "Europe/Paris",
    "translations": {}
  },
  {
    "id": 47885,
    "name": "Viviez",
    "state_id": 4978,
    "state_code": "12",
    "country_id": 75,
    "country_code": "FR",
    "latitude": "44.55678000",
    "longitude": "2.21649000",
    "native": null,
    "timezone": "Europe/Paris",
    "translations": {}
  }
]