[
  {
    "id": 39254,
    "name": "Acigné",
    "state_id": 5003,
    "state_code": "35",
    "country_id": 75,
    "country_code": "FR",
    "latitude": "48.13333000",
    "longitude": "-1.53704000",
    "native": null,
    "timezone": "Europe/Paris",
    "translations": {}
  },
  {
    "id": 39345,
    "name": "Amanlis",
    "state_id": 5003,
    "state_code": "35",
    "country_id": 75,
    "country_code": "FR",
    "latitude": "48.00752000",
    "longitude": "-1.47677000",
    "native": null,
    "timezone": "Europe/Paris",
    "translations": {}
  },
  {
    "id": 39436,
    "name": "Antrain",
    "state_id": 5003,
    "state_code": "35",
    "country_id": 75,
    "country_code": "FR",
    "latitude": "48.46031000",
    "longitude": "-1.48354000",
    "native": null,
    "timezone": "Europe/Paris",
    "translations": {}
  },
  {
    "id": 39485,
    "name": "Argentré-du-Plessis",
    "state_id": 5003,
    "state_code": "35",
    "country_id": 75,
    "country_code": "FR",
    "latitude": "48.05697000",
    "longitude": "-1.14601000",
    "native": null,
    "timezone": "Europe/Paris",
    "translations": {}
  },
  {
    "id": 39716,
    "name": "Baguer-Morvan",
    "state_id": 5003,
    "state_code": "35",
    "country_id": 75,
    "country_code": "FR",
    "latitude": "48.52531000",
    "longitude": "-1.77332000",
    "native": null,
    "timezone": "Europe/Paris",
    "translations": {}
  },
  {
    "id": 39717,
    "name": "Baguer-Pican",
    "state_id": 5003,
    "state_code": "35",
    "country_id": 75,
    "country_code": "FR",
    "latitude": "48.55253000",
    "longitude": "-1.69837000",
    "native": null,
    "timezone": "Europe/Paris",
    "translations": {}
  },
  {
    "id": 39732,
    "name": "Bain-de-Bretagne",
    "state_id": 5003,
    "state_code": "35",
    "country_id": 75,
    "country_code": "FR",
    "latitude": "47.84418000",
    "longitude": "-1.68486000",
    "native": null,
    "timezone": "Europe/Paris",
    "translations": {}
  },
  {
    "id": 39736,
    "name": "Bains-sur-Oust",
    "state_id": 5003,
    "state_code": "35",
    "country_id": 75,
    "country_code": "FR",
    "latitude": "47.70362000",
    "longitude": "-2.07047000",
    "native": null,
    "timezone": "Europe/Paris",
    "translations": {}
  },
  {
    "id": 39747,
    "name": "Balazé",
    "state_id": 5003,
    "state_code": "35",
    "country_id": 75,
    "country_code": "FR",
    "latitude": "48.16797000",
    "longitude": "-1.19157000",
    "native": null,
    "timezone": "Europe/Paris",
    "translations": {}
  },
  {
    "id": 39813,
    "name": "Baulon",
    "state_id": 5003,
    "state_code": "35",
    "country_id": 75,
    "country_code": "FR",
    "latitude": "47.98590000",
    "longitude": "-1.93114000",
    "native": null,
    "timezone": "Europe/Paris",
    "translations": {}
  },
  {
    "id": 39834,
    "name": "Bazouges-la-Pérouse",
    "state_id": 5003,
    "state_code": "35",
    "country_id": 75,
    "country_code": "FR",
    "latitude": "48.42606000",
    "longitude": "-1.57431000",
    "native": null,
    "timezone": "Europe/Paris",
    "translations": {}
  },
  {
    "id": 39844,
    "name": "Beaucé",
    "state_id": 5003,
    "state_code": "35",
    "country_id": 75,
    "country_code": "FR",
    "latitude": "48.33890000",
    "longitude": "-1.15804000",
    "native": null,
    "timezone": "Europe/Paris",
    "translations": {}
  },
  {
    "id": 40415,
    "name": "Bédée",
    "state_id": 5003,
    "state_code": "35",
    "country_id": 75,
    "country_code": "FR",
    "latitude": "48.17953000",
    "longitude": "-1.94477000",
    "native": null,
    "timezone": "Europe/Paris",
    "translations": {}
  },
  {
    "id": 39987,
    "name": "Betton",
    "state_id": 5003,
    "state_code": "35",
    "country_id": 75,
    "country_code": "FR",
    "latitude": "48.18048000",
    "longitude": "-1.63829000",
    "native": null,
    "timezone": "Europe/Paris",
    "translations": {}
  },
  {
    "id": 40092,
    "name": "Boisgervilly",
    "state_id": 5003,
    "state_code": "35",
    "country_id": 75,
    "country_code": "FR",
    "latitude": "48.16692000",
    "longitude": "-2.06426000",
    "native": null,
    "timezone": "Europe/Paris",
    "translations": {}
  },
  {
    "id": 40120,
    "name": "Bonnemain",
    "state_id": 5003,
    "state_code": "35",
    "country_id": 75,
    "country_code": "FR",
    "latitude": "48.46652000",
    "longitude": "-1.76774000",
    "native": null,
    "timezone": "Europe/Paris",
    "translations": {}
  },
  {
    "id": 40193,
    "name": "Bourg-des-Comptes",
    "state_id": 5003,
    "state_code": "35",
    "country_id": 75,
    "country_code": "FR",
    "latitude": "47.92934000",
    "longitude": "-1.74534000",
    "native": null,
    "timezone": "Europe/Paris",
    "translations": {}
  },
  {
    "id": 40198,
    "name": "Bourgbarré",
    "state_id": 5003,
    "state_code": "35",
    "country_id": 75,
    "country_code": "FR",
    "latitude": "47.99515000",
    "longitude": "-1.61419000",
    "native": null,
    "timezone": "Europe/Paris",
    "translations": {}
  },
  {
    "id": 40354,
    "name": "Bréal-sous-Montfort",
    "state_id": 5003,
    "state_code": "35",
    "country_id": 75,
    "country_code": "FR",
    "latitude": "48.04876000",
    "longitude": "-1.86438000",
    "native": null,
    "timezone": "Europe/Paris",
    "translations": {}
  },
  {
    "id": 40357,
    "name": "Brécé",
    "state_id": 5003,
    "state_code": "35",
    "country_id": 75,
    "country_code": "FR",
    "latitude": "48.10839000",
    "longitude": "-1.48086000",
    "native": null,
    "timezone": "Europe/Paris",
    "translations": {}
  },
  {
    "id": 40280,
    "name": "Breteil",
    "state_id": 5003,
    "state_code": "35",
    "country_id": 75,
    "country_code": "FR",
    "latitude": "48.14534000",
    "longitude": "-1.89886000",
    "native": null,
    "timezone": "Europe/Paris",
    "translations": {}
  },
  {
    "id": 40352,
    "name": "Bruz",
    "state_id": 5003,
    "state_code": "35",
    "country_id": 75,
    "country_code": "FR",
    "latitude": "48.02420000",
    "longitude": "-1.74591000",
    "native": null,
    "timezone": "Europe/Paris",
    "translations": {}
  },
  {
    "id": 40504,
    "name": "Cancale",
    "state_id": 5003,
    "state_code": "35",
    "country_id": 75,
    "country_code": "FR",
    "latitude": "48.67601000",
    "longitude": "-1.85231000",
    "native": null,
    "timezone": "Europe/Paris",
    "translations": {}
  },
  {
    "id": 40661,
    "name": "Cesson-Sévigné",
    "state_id": 5003,
    "state_code": "35",
    "country_id": 75,
    "country_code": "FR",
    "latitude": "48.12120000",
    "longitude": "-1.60300000",
    "native": null,
    "timezone": "Europe/Paris",
    "translations": {}
  },
  {
    "id": 40770,
    "name": "Chanteloup",
    "state_id": 5003,
    "state_code": "35",
    "country_id": 75,
    "country_code": "FR",
    "latitude": "47.96574000",
    "longitude": "-1.61517000",
    "native": null,
    "timezone": "Europe/Paris",
    "translations": {}
  },
  {
    "id": 40774,
    "name": "Chantepie",
    "state_id": 5003,
    "state_code": "35",
    "country_id": 75,
    "country_code": "FR",
    "latitude": "48.08885000",
    "longitude": "-1.61524000",
    "native": null,
    "timezone": "Europe/Paris",
    "translations": {}
  },
  {
    "id": 40820,
    "name": "Chartres-de-Bretagne",
    "state_id": 5003,
    "state_code": "35",
    "country_id": 75,
    "country_code": "FR",
    "latitude": "48.03924000",
    "longitude": "-1.70533000",
    "native": null,
    "timezone": "Europe/Paris",
    "translations": {}
  },
  {
    "id": 40823,
    "name": "Chasné-sur-Illet",
    "state_id": 5003,
    "state_code": "35",
    "country_id": 75,
    "country_code": "FR",
    "latitude": "48.24247000",
    "longitude": "-1.56138000",
    "native": null,
    "timezone": "Europe/Paris",
    "translations": {}
  },
  {
    "id": 40951,
    "name": "Châteaubourg",
    "state_id": 5003,
    "state_code": "35",
    "country_id": 75,
    "country_code": "FR",
    "latitude": "48.11119000",
    "longitude": "-1.40019000",
    "native": null,
    "timezone": "Europe/Paris",
    "translations": {}
  },
  {
    "id": 40956,
    "name": "Châteaugiron",
    "state_id": 5003,
    "state_code": "35",
    "country_id": 75,
    "country_code": "FR",
    "latitude": "48.04629000",
    "longitude": "-1.50438000",
    "native": null,
    "timezone": "Europe/Paris",
    "translations": {}
  },
  {
    "id": 40966,
    "name": "Châteauneuf-d’Ille-et-Vilaine",
    "state_id": 5003,
    "state_code": "35",
    "country_id": 75,
    "country_code": "FR",
    "latitude": "48.56083000",
    "longitude": "-1.92838000",
    "native": null,
    "timezone": "Europe/Paris",
    "translations": {}
  },
  {
    "id": 40996,
    "name": "Châtillon-en-Vendelais",
    "state_id": 5003,
    "state_code": "35",
    "country_id": 75,
    "country_code": "FR",
    "latitude": "48.22409000",
    "longitude": "-1.17695000",
    "native": null,
    "timezone": "Europe/Paris",
    "translations": {}
  },
  {
    "id": 41004,
    "name": "Châtillon-sur-Seiche",
    "state_id": 5003,
    "state_code": "35",
    "country_id": 75,
    "country_code": "FR",
    "latitude": "48.03448000",
    "longitude": "-1.67114000",
    "native": null,
    "timezone": "Europe/Paris",
    "translations": {}
  },
  {
    "id": 40855,
    "name": "Chavagne",
    "state_id": 5003,
    "state_code": "35",
    "country_id": 75,
    "country_code": "FR",
    "latitude": "48.05438000",
    "longitude": "-1.78571000",
    "native": null,
    "timezone": "Europe/Paris",
    "translations": {}
  },
  {
    "id": 40884,
    "name": "Cherrueix",
    "state_id": 5003,
    "state_code": "35",
    "country_id": 75,
    "country_code": "FR",
    "latitude": "48.60629000",
    "longitude": "-1.70405000",
    "native": null,
    "timezone": "Europe/Paris",
    "translations": {}
  },
  {
    "id": 40891,
    "name": "Chevaigné",
    "state_id": 5003,
    "state_code": "35",
    "country_id": 75,
    "country_code": "FR",
    "latitude": "48.21153000",
    "longitude": "-1.62933000",
    "native": null,
    "timezone": "Europe/Paris",
    "translations": {}
  },
  {
    "id": 41024,
    "name": "Cintré",
    "state_id": 5003,
    "state_code": "35",
    "country_id": 75,
    "country_code": "FR",
    "latitude": "48.10504000",
    "longitude": "-1.87162000",
    "native": null,
    "timezone": "Europe/Paris",
    "translations": {}
  },
  {
    "id": 41291,
    "name": "Coësmes",
    "state_id": 5003,
    "state_code": "35",
    "country_id": 75,
    "country_code": "FR",
    "latitude": "47.88325000",
    "longitude": "-1.44074000",
    "native": null,
    "timezone": "Europe/Paris",
    "translations": {}
  },
  {
    "id": 41110,
    "name": "Combourg",
    "state_id": 5003,
    "state_code": "35",
    "country_id": 75,
    "country_code": "FR",
    "latitude": "48.41267000",
    "longitude": "-1.74424000",
    "native": null,
    "timezone": "Europe/Paris",
    "translations": {}
  },
  {
    "id": 41200,
    "name": "Corps-Nuds",
    "state_id": 5003,
    "state_code": "35",
    "country_id": 75,
    "country_code": "FR",
    "latitude": "47.97915000",
    "longitude": "-1.58409000",
    "native": null,
    "timezone": "Europe/Paris",
    "translations": {}
  },
  {
    "id": 41314,
    "name": "Crevin",
    "state_id": 5003,
    "state_code": "35",
    "country_id": 75,
    "country_code": "FR",
    "latitude": "47.93333000",
    "longitude": "-1.66667000",
    "native": null,
    "timezone": "Europe/Paris",
    "translations": {}
  },
  {
    "id": 41604,
    "name": "Département d'Ille-et-Vilaine",
    "state_id": 5003,
    "state_code": "35",
    "country_id": 75,
    "country_code": "FR",
    "latitude": "48.16667000",
    "longitude": "-1.50000000",
    "native": null,
    "timezone": "Europe/Paris",
    "translations": {}
  },
  {
    "id": 41483,
    "name": "Dinard",
    "state_id": 5003,
    "state_code": "35",
    "country_id": 75,
    "country_code": "FR",
    "latitude": "48.63143000",
    "longitude": "-2.06144000",
    "native": null,
    "timezone": "Europe/Paris",
    "translations": {}
  },
  {
    "id": 41486,
    "name": "Dingé",
    "state_id": 5003,
    "state_code": "35",
    "country_id": 75,
    "country_code": "FR",
    "latitude": "48.35702000",
    "longitude": "-1.71489000",
    "native": null,
    "timezone": "Europe/Paris",
    "translations": {}
  },
  {
    "id": 41503,
    "name": "Dol-de-Bretagne",
    "state_id": 5003,
    "state_code": "35",
    "country_id": 75,
    "country_code": "FR",
    "latitude": "48.54765000",
    "longitude": "-1.75018000",
    "native": null,
    "timezone": "Europe/Paris",
    "translations": {}
  },
  {
    "id": 41509,
    "name": "Domagné",
    "state_id": 5003,
    "state_code": "35",
    "country_id": 75,
    "country_code": "FR",
    "latitude": "48.07081000",
    "longitude": "-1.39291000",
    "native": null,
    "timezone": "Europe/Paris",
    "translations": {}
  },
  {
    "id": 41510,
    "name": "Domalain",
    "state_id": 5003,
    "state_code": "35",
    "country_id": 75,
    "country_code": "FR",
    "latitude": "47.99617000",
    "longitude": "-1.24250000",
    "native": null,
    "timezone": "Europe/Paris",
    "translations": {}
  },
  {
    "id": 161749,
    "name": "Domloup",
    "state_id": 5003,
    "state_code": "35",
    "country_id": 75,
    "country_code": "FR",
    "latitude": "48.06860000",
    "longitude": "-1.54370000",
    "native": null,
    "timezone": "Europe/Paris",
    "translations": {}
  },
  {
    "id": 41687,
    "name": "Epiniac",
    "state_id": 5003,
    "state_code": "35",
    "country_id": 75,
    "country_code": "FR",
    "latitude": "48.50000000",
    "longitude": "-1.70000000",
    "native": null,
    "timezone": "Europe/Paris",
    "translations": {}
  },
  {
    "id": 41690,
    "name": "Erbrée",
    "state_id": 5003,
    "state_code": "35",
    "country_id": 75,
    "country_code": "FR",
    "latitude": "48.09745000",
    "longitude": "-1.12479000",
    "native": null,
    "timezone": "Europe/Paris",
    "translations": {}
  },
  {
    "id": 41692,
    "name": "Ercé-en-Lamée",
    "state_id": 5003,
    "state_code": "35",
    "country_id": 75,
    "country_code": "FR",
    "latitude": "47.83048000",
    "longitude": "-1.55867000",
    "native": null,
    "timezone": "Europe/Paris",
    "translations": {}
  },
  {
    "id": 41693,
    "name": "Ercé-près-Liffré",
    "state_id": 5003,
    "state_code": "35",
    "country_id": 75,
    "country_code": "FR",
    "latitude": "48.25454000",
    "longitude": "-1.51560000",
    "native": null,
    "timezone": "Europe/Paris",
    "translations": {}
  },
  {
    "id": 48108,
    "name": "Étrelles",
    "state_id": 5003,
    "state_code": "35",
    "country_id": 75,
    "country_code": "FR",
    "latitude": "48.06031000",
    "longitude": "-1.19402000",
    "native": null,
    "timezone": "Europe/Paris",
    "translations": {}
  },
  {
    "id": 41927,
    "name": "Fougères",
    "state_id": 5003,
    "state_code": "35",
    "country_id": 75,
    "country_code": "FR",
    "latitude": "48.35185000",
    "longitude": "-1.19989000",
    "native": null,
    "timezone": "Europe/Paris",
    "translations": {}
  },
  {
    "id": 41928,
    "name": "Fouillard",
    "state_id": 5003,
    "state_code": "35",
    "country_id": 75,
    "country_code": "FR",
    "latitude": "48.15820000",
    "longitude": "-1.57915000",
    "native": null,
    "timezone": "Europe/Paris",
    "translations": {}
  },
  {
    "id": 42057,
    "name": "Gaël",
    "state_id": 5003,
    "state_code": "35",
    "country_id": 75,
    "country_code": "FR",
    "latitude": "48.13209000",
    "longitude": "-2.22267000",
    "native": null,
    "timezone": "Europe/Paris",
    "translations": {}
  },
  {
    "id": 42301,
    "name": "Gévezé",
    "state_id": 5003,
    "state_code": "35",
    "country_id": 75,
    "country_code": "FR",
    "latitude": "48.21933000",
    "longitude": "-1.78952000",
    "native": null,
    "timezone": "Europe/Paris",
    "translations": {}
  },
  {
    "id": 42141,
    "name": "Gosné",
    "state_id": 5003,
    "state_code": "35",
    "country_id": 75,
    "country_code": "FR",
    "latitude": "48.24674000",
    "longitude": "-1.46558000",
    "native": null,
    "timezone": "Europe/Paris",
    "translations": {}
  },
  {
    "id": 42162,
    "name": "Goven",
    "state_id": 5003,
    "state_code": "35",
    "country_id": 75,
    "country_code": "FR",
    "latitude": "48.00638000",
    "longitude": "-1.84629000",
    "native": null,
    "timezone": "Europe/Paris",
    "translations": {}
  },
  {
    "id": 42174,
    "name": "Grand-Fougeray",
    "state_id": 5003,
    "state_code": "35",
    "country_id": 75,
    "country_code": "FR",
    "latitude": "47.72390000",
    "longitude": "-1.73210000",
    "native": null,
    "timezone": "Europe/Paris",
    "translations": {}
  },
  {
    "id": 42252,
    "name": "Guichen",
    "state_id": 5003,
    "state_code": "35",
    "country_id": 75,
    "country_code": "FR",
    "latitude": "47.96762000",
    "longitude": "-1.79534000",
    "native": null,
    "timezone": "Europe/Paris",
    "translations": {}
  },
  {
    "id": 42255,
    "name": "Guignen",
    "state_id": 5003,
    "state_code": "35",
    "country_id": 75,
    "country_code": "FR",
    "latitude": "47.92009000",
    "longitude": "-1.86161000",
    "native": null,
    "timezone": "Europe/Paris",
    "translations": {}
  },
  {
    "id": 42266,
    "name": "Guipel",
    "state_id": 5003,
    "state_code": "35",
    "country_id": 75,
    "country_code": "FR",
    "latitude": "48.29937000",
    "longitude": "-1.71866000",
    "native": null,
    "timezone": "Europe/Paris",
    "translations": {}
  },
  {
    "id": 42267,
    "name": "Guipry",
    "state_id": 5003,
    "state_code": "35",
    "country_id": 75,
    "country_code": "FR",
    "latitude": "47.82637000",
    "longitude": "-1.84218000",
    "native": null,
    "timezone": "Europe/Paris",
    "translations": {}
  },
  {
    "id": 161781,
    "name": "Guipry-Messac",
    "state_id": 5003,
    "state_code": "35",
    "country_id": 75,
    "country_code": "FR",
    "latitude": "47.82570000",
    "longitude": "-1.83180000",
    "native": null,
    "timezone": "Europe/Paris",
    "translations": {}
  },
  {
    "id": 42449,
    "name": "Hédé-Bazouges",
    "state_id": 5003,
    "state_code": "35",
    "country_id": 75,
    "country_code": "FR",
    "latitude": "48.30000000",
    "longitude": "-1.80000000",
    "native": null,
    "timezone": "Europe/Paris",
    "translations": {}
  },
  {
    "id": 42400,
    "name": "Hirel",
    "state_id": 5003,
    "state_code": "35",
    "country_id": 75,
    "country_code": "FR",
    "latitude": "48.60502000",
    "longitude": "-1.80224000",
    "native": null,
    "timezone": "Europe/Paris",
    "translations": {}
  },
  {
    "id": 42471,
    "name": "Iffendic",
    "state_id": 5003,
    "state_code": "35",
    "country_id": 75,
    "country_code": "FR",
    "latitude": "48.12981000",
    "longitude": "-2.03486000",
    "native": null,
    "timezone": "Europe/Paris",
    "translations": {}
  },
  {
    "id": 42495,
    "name": "Irodouër",
    "state_id": 5003,
    "state_code": "35",
    "country_id": 75,
    "country_code": "FR",
    "latitude": "48.24932000",
    "longitude": "-1.94959000",
    "native": null,
    "timezone": "Europe/Paris",
    "translations": {}
  },
  {
    "id": 42529,
    "name": "Janzé",
    "state_id": 5003,
    "state_code": "35",
    "country_id": 75,
    "country_code": "FR",
    "latitude": "47.95915000",
    "longitude": "-1.49829000",
    "native": null,
    "timezone": "Europe/Paris",
    "translations": {}
  },
  {
    "id": 42544,
    "name": "Javené",
    "state_id": 5003,
    "state_code": "35",
    "country_id": 75,
    "country_code": "FR",
    "latitude": "48.31933000",
    "longitude": "-1.21630000",
    "native": null,
    "timezone": "Europe/Paris",
    "translations": {}
  },
  {
    "id": 161800,
    "name": "L'Hermitage",
    "state_id": 5003,
    "state_code": "35",
    "country_id": 75,
    "country_code": "FR",
    "latitude": "48.12260000",
    "longitude": "-1.81530000",
    "native": null,
    "timezone": "Europe/Paris",
    "translations": {}
  },
  {
    "id": 42652,
    "name": "La Bouëxière",
    "state_id": 5003,
    "state_code": "35",
    "country_id": 75,
    "country_code": "FR",
    "latitude": "48.18333000",
    "longitude": "-1.43333000",
    "native": null,
    "timezone": "Europe/Paris",
    "translations": {}
  },
  {
    "id": 42651,
    "name": "La Boussac",
    "state_id": 5003,
    "state_code": "35",
    "country_id": 75,
    "country_code": "FR",
    "latitude": "48.51260000",
    "longitude": "-1.66088000",
    "native": null,
    "timezone": "Europe/Paris",
    "translations": {}
  },
  {
    "id": 42693,
    "name": "La Chapelle-des-Fougeretz",
    "state_id": 5003,
    "state_code": "35",
    "country_id": 75,
    "country_code": "FR",
    "latitude": "48.17705000",
    "longitude": "-1.73143000",
    "native": null,
    "timezone": "Europe/Paris",
    "translations": {}
  },
  {
    "id": 161813,
    "name": "La Chapelle-Fleurigné",
    "state_id": 5003,
    "state_code": "35",
    "country_id": 75,
    "country_code": "FR",
    "latitude": "48.34590000",
    "longitude": "-1.09680000",
    "native": null,
    "timezone": "Europe/Paris",
    "translations": {}
  },
  {
    "id": 42681,
    "name": "La Chapelle-Janson",
    "state_id": 5003,
    "state_code": "35",
    "country_id": 75,
    "country_code": "FR",
    "latitude": "48.34775000",
    "longitude": "-1.10209000",
    "native": null,
    "timezone": "Europe/Paris",
    "translations": {}
  },
  {
    "id": 42690,
    "name": "La Chapelle-Thouarault",
    "state_id": 5003,
    "state_code": "35",
    "country_id": 75,
    "country_code": "FR",
    "latitude": "48.12486000",
    "longitude": "-1.86619000",
    "native": null,
    "timezone": "Europe/Paris",
    "translations": {}
  },
  {
    "id": 42731,
    "name": "La Dominelais",
    "state_id": 5003,
    "state_code": "35",
    "country_id": 75,
    "country_code": "FR",
    "latitude": "47.76229000",
    "longitude": "-1.68819000",
    "native": null,
    "timezone": "Europe/Paris",
    "translations": {}
  },
  {
    "id": 42757,
    "name": "La Fresnais",
    "state_id": 5003,
    "state_code": "35",
    "country_id": 75,
    "country_code": "FR",
    "latitude": "48.59478000",
    "longitude": "-1.84186000",
    "native": null,
    "timezone": "Europe/Paris",
    "translations": {}
  },
  {
    "id": 42770,
    "name": "La Gouesnière",
    "state_id": 5003,
    "state_code": "35",
    "country_id": 75,
    "country_code": "FR",
    "latitude": "48.60467000",
    "longitude": "-1.89400000",
    "native": null,
    "timezone": "Europe/Paris",
    "translations": {}
  },
  {
    "id": 42775,
    "name": "La Guerche-de-Bretagne",
    "state_id": 5003,
    "state_code": "35",
    "country_id": 75,
    "country_code": "FR",
    "latitude": "47.94112000",
    "longitude": "-1.22869000",
    "native": null,
    "timezone": "Europe/Paris",
    "translations": {}
  },
  {
    "id": 42823,
    "name": "La Mézière",
    "state_id": 5003,
    "state_code": "35",
    "country_id": 75,
    "country_code": "FR",
    "latitude": "48.21829000",
    "longitude": "-1.75514000",
    "native": null,
    "timezone": "Europe/Paris",
    "translations": {}
  },
  {
    "id": 42846,
    "name": "La Richardais",
    "state_id": 5003,
    "state_code": "35",
    "country_id": 75,
    "country_code": "FR",
    "latitude": "48.60641000",
    "longitude": "-2.03639000",
    "native": null,
    "timezone": "Europe/Paris",
    "translations": {}
  },
  {
    "id": 42970,
    "name": "Laillé",
    "state_id": 5003,
    "state_code": "35",
    "country_id": 75,
    "country_code": "FR",
    "latitude": "47.97848000",
    "longitude": "-1.71676000",
    "native": null,
    "timezone": "Europe/Paris",
    "translations": {}
  },
  {
    "id": 43015,
    "name": "Landéan",
    "state_id": 5003,
    "state_code": "35",
    "country_id": 75,
    "country_code": "FR",
    "latitude": "48.41253000",
    "longitude": "-1.15245000",
    "native": null,
    "timezone": "Europe/Paris",
    "translations": {}
  },
  {
    "id": 43088,
    "name": "Lassy",
    "state_id": 5003,
    "state_code": "35",
    "country_id": 75,
    "country_code": "FR",
    "latitude": "47.97829000",
    "longitude": "-1.87190000",
    "native": null,
    "timezone": "Europe/Paris",
    "translations": {}
  },
  {
    "id": 43233,
    "name": "Le Minihic-sur-Rance",
    "state_id": 5003,
    "state_code": "35",
    "country_id": 75,
    "country_code": "FR",
    "latitude": "48.57835000",
    "longitude": "-2.00876000",
    "native": null,
    "timezone": "Europe/Paris",
    "translations": {}
  },
  {
    "id": 43253,
    "name": "Le Pertre",
    "state_id": 5003,
    "state_code": "35",
    "country_id": 75,
    "country_code": "FR",
    "latitude": "48.03373000",
    "longitude": "-1.03735000",
    "native": null,
    "timezone": "Europe/Paris",
    "translations": {}
  },
  {
    "id": 43295,
    "name": "Le Rheu",
    "state_id": 5003,
    "state_code": "35",
    "country_id": 75,
    "country_code": "FR",
    "latitude": "48.10228000",
    "longitude": "-1.79733000",
    "native": null,
    "timezone": "Europe/Paris",
    "translations": {}
  },
  {
    "id": 43311,
    "name": "Le Theil-de-Bretagne",
    "state_id": 5003,
    "state_code": "35",
    "country_id": 75,
    "country_code": "FR",
    "latitude": "47.91950000",
    "longitude": "-1.42975000",
    "native": null,
    "timezone": "Europe/Paris",
    "translations": {}
  },
  {
    "id": 43336,
    "name": "Le Vivier-sur-Mer",
    "state_id": 5003,
    "state_code": "35",
    "country_id": 75,
    "country_code": "FR",
    "latitude": "48.60169000",
    "longitude": "-1.77303000",
    "native": null,
    "timezone": "Europe/Paris",
    "translations": {}
  },
  {
    "id": 43682,
    "name": "Lécousse",
    "state_id": 5003,
    "state_code": "35",
    "country_id": 75,
    "country_code": "FR",
    "latitude": "48.36458000",
    "longitude": "-1.21289000",
    "native": null,
    "timezone": "Europe/Paris",
    "translations": {}
  },
  {
    "id": 161859,
    "name": "Les Portes du Coglais",
    "state_id": 5003,
    "state_code": "35",
    "country_id": 75,
    "country_code": "FR",
    "latitude": "48.45230000",
    "longitude": "-1.34030000",
    "native": null,
    "timezone": "Europe/Paris",
    "translations": {}
  },
  {
    "id": 43474,
    "name": "Liffré",
    "state_id": 5003,
    "state_code": "35",
    "country_id": 75,
    "country_code": "FR",
    "latitude": "48.21324000",
    "longitude": "-1.50838000",
    "native": null,
    "timezone": "Europe/Paris",
    "translations": {}
  },
  {
    "id": 43522,
    "name": "Livré-sur-Changeon",
    "state_id": 5003,
    "state_code": "35",
    "country_id": 75,
    "country_code": "FR",
    "latitude": "48.21937000",
    "longitude": "-1.34438000",
    "native": null,
    "timezone": "Europe/Paris",
    "translations": {}
  },
  {
    "id": 43616,
    "name": "Louvigné-de-Bais",
    "state_id": 5003,
    "state_code": "35",
    "country_id": 75,
    "country_code": "FR",
    "latitude": "48.04898000",
    "longitude": "-1.33091000",
    "native": null,
    "timezone": "Europe/Paris",
    "translations": {}
  },
  {
    "id": 43617,
    "name": "Louvigné-du-Désert",
    "state_id": 5003,
    "state_code": "35",
    "country_id": 75,
    "country_code": "FR",
    "latitude": "48.48047000",
    "longitude": "-1.12537000",
    "native": null,
    "timezone": "Europe/Paris",
    "translations": {}
  },
  {
    "id": 43645,
    "name": "Luitré",
    "state_id": 5003,
    "state_code": "35",
    "country_id": 75,
    "country_code": "FR",
    "latitude": "48.28247000",
    "longitude": "-1.11866000",
    "native": null,
    "timezone": "Europe/Paris",
    "translations": {}
  },
  {
    "id": 161876,
    "name": "Maen Roch",
    "state_id": 5003,
    "state_code": "35",
    "country_id": 75,
    "country_code": "FR",
    "latitude": "48.39750000",
    "longitude": "-1.34840000",
    "native": null,
    "timezone": "Europe/Paris",
    "translations": {}
  },
  {
    "id": 43914,
    "name": "Martigné-Ferchaud",
    "state_id": 5003,
    "state_code": "35",
    "country_id": 75,
    "country_code": "FR",
    "latitude": "47.82934000",
    "longitude": "-1.31911000",
    "native": null,
    "timezone": "Europe/Paris",
    "translations": {}
  },
  {
    "id": 43951,
    "name": "Maure-de-Bretagne",
    "state_id": 5003,
    "state_code": "35",
    "country_id": 75,
    "country_code": "FR",
    "latitude": "47.89239000",
    "longitude": "-1.99104000",
    "native": null,
    "timezone": "Europe/Paris",
    "translations": {}
  },
  {
    "id": 43965,
    "name": "Maxent",
    "state_id": 5003,
    "state_code": "35",
    "country_id": 75,
    "country_code": "FR",
    "latitude": "47.98333000",
    "longitude": "-2.03333000",
    "native": null,
    "timezone": "Europe/Paris",
    "translations": {}
  },
  {
    "id": 44459,
    "name": "Médréac",
    "state_id": 5003,
    "state_code": "35",
    "country_id": 75,
    "country_code": "FR",
    "latitude": "48.26703000",
    "longitude": "-2.06618000",
    "native": null,
    "timezone": "Europe/Paris",
    "translations": {}
  },
  {
    "id": 43988,
    "name": "Meillac",
    "state_id": 5003,
    "state_code": "35",
    "country_id": 75,
    "country_code": "FR",
    "latitude": "48.41174000",
    "longitude": "-1.81378000",
    "native": null,
    "timezone": "Europe/Paris",
    "translations": {}
  },
  {
    "id": 43992,
    "name": "Melesse",
    "state_id": 5003,
    "state_code": "35",
    "country_id": 75,
    "country_code": "FR",
    "latitude": "48.21771000",
    "longitude": "-1.69496000",
    "native": null,
    "timezone": "Europe/Paris",
    "translations": {}
  },
  {
    "id": 161891,
    "name": "Mesnil-Roc'h",
    "state_id": 5003,
    "state_code": "35",
    "country_id": 75,
    "country_code": "FR",
    "latitude": "48.46390000",
    "longitude": "-1.87600000",
    "native": null,
    "timezone": "Europe/Paris",
    "translations": {}
  },
  {
    "id": 44081,
    "name": "Miniac-Morvan",
    "state_id": 5003,
    "state_code": "35",
    "country_id": 75,
    "country_code": "FR",
    "latitude": "48.51477000",
    "longitude": "-1.89955000",
    "native": null,
    "timezone": "Europe/Paris",
    "translations": {}
  },
  {
    "id": 44184,
    "name": "Montauban-de-Bretagne",
    "state_id": 5003,
    "state_code": "35",
    "country_id": 75,
    "country_code": "FR",
    "latitude": "48.19933000",
    "longitude": "-2.04476000",
    "native": null,
    "timezone": "Europe/Paris",
    "translations": {}
  },
  {
    "id": 44223,
    "name": "Monterfil",
    "state_id": 5003,
    "state_code": "35",
    "country_id": 75,
    "country_code": "FR",
    "latitude": "48.06733000",
    "longitude": "-1.97905000",
    "native": null,
    "timezone": "Europe/Paris",
    "translations": {}
  },
  {
    "id": 44242,
    "name": "Montfort-sur-Meu",
    "state_id": 5003,
    "state_code": "35",
    "country_id": 75,
    "country_code": "FR",
    "latitude": "48.13542000",
    "longitude": "-1.95201000",
    "native": null,
    "timezone": "Europe/Paris",
    "translations": {}
  },
  {
    "id": 44245,
    "name": "Montgermont",
    "state_id": 5003,
    "state_code": "35",
    "country_id": 75,
    "country_code": "FR",
    "latitude": "48.15592000",
    "longitude": "-1.71464000",
    "native": null,
    "timezone": "Europe/Paris",
    "translations": {}
  },
  {
    "id": 44311,
    "name": "Montreuil-le-Gast",
    "state_id": 5003,
    "state_code": "35",
    "country_id": 75,
    "country_code": "FR",
    "latitude": "48.24647000",
    "longitude": "-1.72498000",
    "native": null,
    "timezone": "Europe/Paris",
    "translations": {}
  },
  {
    "id": 44312,
    "name": "Montreuil-sous-Pérouse",
    "state_id": 5003,
    "state_code": "35",
    "country_id": 75,
    "country_code": "FR",
    "latitude": "48.15176000",
    "longitude": "-1.23946000",
    "native": null,
    "timezone": "Europe/Paris",
    "translations": {}
  },
  {
    "id": 44313,
    "name": "Montreuil-sur-Ille",
    "state_id": 5003,
    "state_code": "35",
    "country_id": 75,
    "country_code": "FR",
    "latitude": "48.30788000",
    "longitude": "-1.66880000",
    "native": null,
    "timezone": "Europe/Paris",
    "translations": {}
  },
  {
    "id": 44347,
    "name": "Mordelles",
    "state_id": 5003,
    "state_code": "35",
    "country_id": 75,
    "country_code": "FR",
    "latitude": "48.07571000",
    "longitude": "-1.84286000",
    "native": null,
    "timezone": "Europe/Paris",
    "translations": {}
  },
  {
    "id": 44662,
    "name": "Nouvoitou",
    "state_id": 5003,
    "state_code": "35",
    "country_id": 75,
    "country_code": "FR",
    "latitude": "48.04105000",
    "longitude": "-1.54714000",
    "native": null,
    "timezone": "Europe/Paris",
    "translations": {}
  },
  {
    "id": 161920,
    "name": "Noyal-Châtillon-sur-Seiche",
    "state_id": 5003,
    "state_code": "35",
    "country_id": 75,
    "country_code": "FR",
    "latitude": "48.05300000",
    "longitude": "-1.66100000",
    "native": null,
    "timezone": "Europe/Paris",
    "translations": {}
  },
  {
    "id": 44671,
    "name": "Noyal-sur-Vilaine",
    "state_id": 5003,
    "state_code": "35",
    "country_id": 75,
    "country_code": "FR",
    "latitude": "48.11219000",
    "longitude": "-1.52333000",
    "native": null,
    "timezone": "Europe/Paris",
    "translations": {}
  },
  {
    "id": 44766,
    "name": "Orgères",
    "state_id": 5003,
    "state_code": "35",
    "country_id": 75,
    "country_code": "FR",
    "latitude": "47.99886000",
    "longitude": "-1.66781000",
    "native": null,
    "timezone": "Europe/Paris",
    "translations": {}
  },
  {
    "id": 44825,
    "name": "Pacé",
    "state_id": 5003,
    "state_code": "35",
    "country_id": 75,
    "country_code": "FR",
    "latitude": "48.14848000",
    "longitude": "-1.77327000",
    "native": null,
    "timezone": "Europe/Paris",
    "translations": {}
  },
  {
    "id": 44830,
    "name": "Paimpont",
    "state_id": 5003,
    "state_code": "35",
    "country_id": 75,
    "country_code": "FR",
    "latitude": "48.01809000",
    "longitude": "-2.17105000",
    "native": null,
    "timezone": "Europe/Paris",
    "translations": {}
  },
  {
    "id": 44841,
    "name": "Pancé",
    "state_id": 5003,
    "state_code": "35",
    "country_id": 75,
    "country_code": "FR",
    "latitude": "47.88181000",
    "longitude": "-1.65953000",
    "native": null,
    "timezone": "Europe/Paris",
    "translations": {}
  },
  {
    "id": 44854,
    "name": "Parigné",
    "state_id": 5003,
    "state_code": "35",
    "country_id": 75,
    "country_code": "FR",
    "latitude": "48.42727000",
    "longitude": "-1.19210000",
    "native": null,
    "timezone": "Europe/Paris",
    "translations": {}
  },
  {
    "id": 44976,
    "name": "Pipriac",
    "state_id": 5003,
    "state_code": "35",
    "country_id": 75,
    "country_code": "FR",
    "latitude": "47.80953000",
    "longitude": "-1.94638000",
    "native": null,
    "timezone": "Europe/Paris",
    "translations": {}
  },
  {
    "id": 161933,
    "name": "Piré-Chancé",
    "state_id": 5003,
    "state_code": "35",
    "country_id": 75,
    "country_code": "FR",
    "latitude": "48.01460000",
    "longitude": "-1.40600000",
    "native": null,
    "timezone": "Europe/Paris",
    "translations": {}
  },
  {
    "id": 44980,
    "name": "Piré-sur-Seiche",
    "state_id": 5003,
    "state_code": "35",
    "country_id": 75,
    "country_code": "FR",
    "latitude": "48.00958000",
    "longitude": "-1.42909000",
    "native": null,
    "timezone": "Europe/Paris",
    "translations": {}
  },
  {
    "id": 45116,
    "name": "Pléchâtel",
    "state_id": 5003,
    "state_code": "35",
    "country_id": 75,
    "country_code": "FR",
    "latitude": "47.89496000",
    "longitude": "-1.74876000",
    "native": null,
    "timezone": "Europe/Paris",
    "translations": {}
  },
  {
    "id": 45006,
    "name": "Pleine-Fougères",
    "state_id": 5003,
    "state_code": "35",
    "country_id": 75,
    "country_code": "FR",
    "latitude": "48.53308000",
    "longitude": "-1.56534000",
    "native": null,
    "timezone": "Europe/Paris",
    "translations": {}
  },
  {
    "id": 45121,
    "name": "Plélan-le-Grand",
    "state_id": 5003,
    "state_code": "35",
    "country_id": 75,
    "country_code": "FR",
    "latitude": "48.00124000",
    "longitude": "-2.09914000",
    "native": null,
    "timezone": "Europe/Paris",
    "translations": {}
  },
  {
    "id": 45007,
    "name": "Plerguer",
    "state_id": 5003,
    "state_code": "35",
    "country_id": 75,
    "country_code": "FR",
    "latitude": "48.52676000",
    "longitude": "-1.84769000",
    "native": null,
    "timezone": "Europe/Paris",
    "translations": {}
  },
  {
    "id": 45019,
    "name": "Pleugueneuc",
    "state_id": 5003,
    "state_code": "35",
    "country_id": 75,
    "country_code": "FR",
    "latitude": "48.39735000",
    "longitude": "-1.90301000",
    "native": null,
    "timezone": "Europe/Paris",
    "translations": {}
  },
  {
    "id": 45021,
    "name": "Pleumeleuc",
    "state_id": 5003,
    "state_code": "35",
    "country_id": 75,
    "country_code": "FR",
    "latitude": "48.18438000",
    "longitude": "-1.91962000",
    "native": null,
    "timezone": "Europe/Paris",
    "translations": {}
  },
  {
    "id": 45024,
    "name": "Pleurtuit",
    "state_id": 5003,
    "state_code": "35",
    "country_id": 75,
    "country_code": "FR",
    "latitude": "48.57858000",
    "longitude": "-2.05805000",
    "native": null,
    "timezone": "Europe/Paris",
    "translations": {}
  },
  {
    "id": 45130,
    "name": "Pocé-les-Bois",
    "state_id": 5003,
    "state_code": "35",
    "country_id": 75,
    "country_code": "FR",
    "latitude": "48.11626000",
    "longitude": "-1.25168000",
    "native": null,
    "timezone": "Europe/Paris",
    "translations": {}
  },
  {
    "id": 161946,
    "name": "Pont-Péan",
    "state_id": 5003,
    "state_code": "35",
    "country_id": 75,
    "country_code": "FR",
    "latitude": "48.01140000",
    "longitude": "-1.69750000",
    "native": null,
    "timezone": "Europe/Paris",
    "translations": {}
  },
  {
    "id": 45406,
    "name": "Québriac",
    "state_id": 5003,
    "state_code": "35",
    "country_id": 75,
    "country_code": "FR",
    "latitude": "48.34444000",
    "longitude": "-1.82723000",
    "native": null,
    "timezone": "Europe/Paris",
    "translations": {}
  },
  {
    "id": 45407,
    "name": "Quédillac",
    "state_id": 5003,
    "state_code": "35",
    "country_id": 75,
    "country_code": "FR",
    "latitude": "48.24904000",
    "longitude": "-2.14241000",
    "native": null,
    "timezone": "Europe/Paris",
    "translations": {}
  },
  {
    "id": 45429,
    "name": "Rannée",
    "state_id": 5003,
    "state_code": "35",
    "country_id": 75,
    "country_code": "FR",
    "latitude": "47.92383000",
    "longitude": "-1.24124000",
    "native": null,
    "timezone": "Europe/Paris",
    "translations": {}
  },
  {
    "id": 45443,
    "name": "Redon",
    "state_id": 5003,
    "state_code": "35",
    "country_id": 75,
    "country_code": "FR",
    "latitude": "47.65141000",
    "longitude": "-2.08481000",
    "native": null,
    "timezone": "Europe/Paris",
    "translations": {}
  },
  {
    "id": 45460,
    "name": "Rennes",
    "state_id": 5003,
    "state_code": "35",
    "country_id": 75,
    "country_code": "FR",
    "latitude": "48.11198000",
    "longitude": "-1.67429000",
    "native": null,
    "timezone": "Europe/Paris",
    "translations": {}
  },
  {
    "id": 45468,
    "name": "Retiers",
    "state_id": 5003,
    "state_code": "35",
    "country_id": 75,
    "country_code": "FR",
    "latitude": "47.91392000",
    "longitude": "-1.37967000",
    "native": null,
    "timezone": "Europe/Paris",
    "translations": {}
  },
  {
    "id": 161963,
    "name": "Rives-du-Couesnon",
    "state_id": 5003,
    "state_code": "35",
    "country_id": 75,
    "country_code": "FR",
    "latitude": "48.28780000",
    "longitude": "-1.34210000",
    "native": null,
    "timezone": "Europe/Paris",
    "translations": {}
  },
  {
    "id": 45572,
    "name": "Romagné",
    "state_id": 5003,
    "state_code": "35",
    "country_id": 75,
    "country_code": "FR",
    "latitude": "48.34019000",
    "longitude": "-1.27751000",
    "native": null,
    "timezone": "Europe/Paris",
    "translations": {}
  },
  {
    "id": 45581,
    "name": "Romillé",
    "state_id": 5003,
    "state_code": "35",
    "country_id": 75,
    "country_code": "FR",
    "latitude": "48.21619000",
    "longitude": "-1.89229000",
    "native": null,
    "timezone": "Europe/Paris",
    "translations": {}
  },
  {
    "id": 45650,
    "name": "Roz-Landrieux",
    "state_id": 5003,
    "state_code": "35",
    "country_id": 75,
    "country_code": "FR",
    "latitude": "48.54337000",
    "longitude": "-1.81586000",
    "native": null,
    "timezone": "Europe/Paris",
    "translations": {}
  },
  {
    "id": 45651,
    "name": "Roz-sur-Couesnon",
    "state_id": 5003,
    "state_code": "35",
    "country_id": 75,
    "country_code": "FR",
    "latitude": "48.58867000",
    "longitude": "-1.59213000",
    "native": null,
    "timezone": "Europe/Paris",
    "translations": {}
  },
  {
    "id": 45775,
    "name": "Saint-Armel",
    "state_id": 5003,
    "state_code": "35",
    "country_id": 75,
    "country_code": "FR",
    "latitude": "48.01305000",
    "longitude": "-1.59152000",
    "native": null,
    "timezone": "Europe/Paris",
    "translations": {}
  },
  {
    "id": 161976,
    "name": "Saint-Aubin-d'Aubigné",
    "state_id": 5003,
    "state_code": "35",
    "country_id": 75,
    "country_code": "FR",
    "latitude": "48.26180000",
    "longitude": "-1.60020000",
    "native": null,
    "timezone": "Europe/Paris",
    "translations": {}
  },
  {
    "id": 45786,
    "name": "Saint-Aubin-du-Cormier",
    "state_id": 5003,
    "state_code": "35",
    "country_id": 75,
    "country_code": "FR",
    "latitude": "48.25843000",
    "longitude": "-1.40252000",
    "native": null,
    "timezone": "Europe/Paris",
    "translations": {}
  },
  {
    "id": 45824,
    "name": "Saint-Briac-sur-Mer",
    "state_id": 5003,
    "state_code": "35",
    "country_id": 75,
    "country_code": "FR",
    "latitude": "48.62189000",
    "longitude": "-2.13435000",
    "native": null,
    "timezone": "Europe/Paris",
    "translations": {}
  },
  {
    "id": 45827,
    "name": "Saint-Brice-en-Coglès",
    "state_id": 5003,
    "state_code": "35",
    "country_id": 75,
    "country_code": "FR",
    "latitude": "48.41157000",
    "longitude": "-1.37019000",
    "native": null,
    "timezone": "Europe/Paris",
    "translations": {}
  },
  {
    "id": 45833,
    "name": "Saint-Broladre",
    "state_id": 5003,
    "state_code": "35",
    "country_id": 75,
    "country_code": "FR",
    "latitude": "48.58677000",
    "longitude": "-1.65769000",
    "native": null,
    "timezone": "Europe/Paris",
    "translations": {}
  },
  {
    "id": 45876,
    "name": "Saint-Coulomb",
    "state_id": 5003,
    "state_code": "35",
    "country_id": 75,
    "country_code": "FR",
    "latitude": "48.67465000",
    "longitude": "-1.91092000",
    "native": null,
    "timezone": "Europe/Paris",
    "translations": {}
  },
  {
    "id": 45905,
    "name": "Saint-Didier",
    "state_id": 5003,
    "state_code": "35",
    "country_id": 75,
    "country_code": "FR",
    "latitude": "48.09506000",
    "longitude": "-1.37276000",
    "native": null,
    "timezone": "Europe/Paris",
    "translations": {}
  },
  {
    "id": 45915,
    "name": "Saint-Domineuc",
    "state_id": 5003,
    "state_code": "35",
    "country_id": 75,
    "country_code": "FR",
    "latitude": "48.37191000",
    "longitude": "-1.87544000",
    "native": null,
    "timezone": "Europe/Paris",
    "translations": {}
  },
  {
    "id": 45921,
    "name": "Saint-Erblon",
    "state_id": 5003,
    "state_code": "35",
    "country_id": 75,
    "country_code": "FR",
    "latitude": "48.01895000",
    "longitude": "-1.65162000",
    "native": null,
    "timezone": "Europe/Paris",
    "translations": {}
  },
  {
    "id": 46656,
    "name": "Saint-Étienne-en-Coglès",
    "state_id": 5003,
    "state_code": "35",
    "country_id": 75,
    "country_code": "FR",
    "latitude": "48.40172000",
    "longitude": "-1.32812000",
    "native": null,
    "timezone": "Europe/Paris",
    "translations": {}
  },
  {
    "id": 45979,
    "name": "Saint-Georges-de-Reintembault",
    "state_id": 5003,
    "state_code": "35",
    "country_id": 75,
    "country_code": "FR",
    "latitude": "48.50744000",
    "longitude": "-1.24328000",
    "native": null,
    "timezone": "Europe/Paris",
    "translations": {}
  },
  {
    "id": 46014,
    "name": "Saint-Germain-en-Coglès",
    "state_id": 5003,
    "state_code": "35",
    "country_id": 75,
    "country_code": "FR",
    "latitude": "48.40531000",
    "longitude": "-1.26369000",
    "native": null,
    "timezone": "Europe/Paris",
    "translations": {}
  },
  {
    "id": 46034,
    "name": "Saint-Gilles",
    "state_id": 5003,
    "state_code": "35",
    "country_id": 75,
    "country_code": "FR",
    "latitude": "48.15381000",
    "longitude": "-1.82477000",
    "native": null,
    "timezone": "Europe/Paris",
    "translations": {}
  },
  {
    "id": 46042,
    "name": "Saint-Grégoire",
    "state_id": 5003,
    "state_code": "35",
    "country_id": 75,
    "country_code": "FR",
    "latitude": "48.15085000",
    "longitude": "-1.68706000",
    "native": null,
    "timezone": "Europe/Paris",
    "translations": {}
  },
  {
    "id": 46075,
    "name": "Saint-Jacques-de-la-Lande",
    "state_id": 5003,
    "state_code": "35",
    "country_id": 75,
    "country_code": "FR",
    "latitude": "48.06514000",
    "longitude": "-1.72086000",
    "native": null,
    "timezone": "Europe/Paris",
    "translations": {}
  },
  {
    "id": 46119,
    "name": "Saint-Jean-sur-Couesnon",
    "state_id": 5003,
    "state_code": "35",
    "country_id": 75,
    "country_code": "FR",
    "latitude": "48.29013000",
    "longitude": "-1.36835000",
    "native": null,
    "timezone": "Europe/Paris",
    "translations": {}
  },
  {
    "id": 46131,
    "name": "Saint-Jouan-des-Guérets",
    "state_id": 5003,
    "state_code": "35",
    "country_id": 75,
    "country_code": "FR",
    "latitude": "48.59932000",
    "longitude": "-1.97372000",
    "native": null,
    "timezone": "Europe/Paris",
    "translations": {}
  },
  {
    "id": 46205,
    "name": "Saint-Lunaire",
    "state_id": 5003,
    "state_code": "35",
    "country_id": 75,
    "country_code": "FR",
    "latitude": "48.63811000",
    "longitude": "-2.11392000",
    "native": null,
    "timezone": "Europe/Paris",
    "translations": {}
  },
  {
    "id": 46229,
    "name": "Saint-Malo",
    "state_id": 5003,
    "state_code": "35",
    "country_id": 75,
    "country_code": "FR",
    "latitude": "48.64720000",
    "longitude": "-2.00883000",
    "native": null,
    "timezone": "Europe/Paris",
    "translations": {}
  },
  {
    "id": 46240,
    "name": "Saint-Marc-le-Blanc",
    "state_id": 5003,
    "state_code": "35",
    "country_id": 75,
    "country_code": "FR",
    "latitude": "48.36498000",
    "longitude": "-1.40938000",
    "native": null,
    "timezone": "Europe/Paris",
    "translations": {}
  },
  {
    "id": 46351,
    "name": "Saint-Médard-sur-Ille",
    "state_id": 5003,
    "state_code": "35",
    "country_id": 75,
    "country_code": "FR",
    "latitude": "48.27202000",
    "longitude": "-1.65968000",
    "native": null,
    "timezone": "Europe/Paris",
    "translations": {}
  },
  {
    "id": 46352,
    "name": "Saint-Méen-le-Grand",
    "state_id": 5003,
    "state_code": "35",
    "country_id": 75,
    "country_code": "FR",
    "latitude": "48.18971000",
    "longitude": "-2.19486000",
    "native": null,
    "timezone": "Europe/Paris",
    "translations": {}
  },
  {
    "id": 46353,
    "name": "Saint-Méloir-des-Ondes",
    "state_id": 5003,
    "state_code": "35",
    "country_id": 75,
    "country_code": "FR",
    "latitude": "48.63790000",
    "longitude": "-1.90448000",
    "native": null,
    "timezone": "Europe/Paris",
    "translations": {}
  },
  {
    "id": 46380,
    "name": "Saint-Ouen-des-Alleux",
    "state_id": 5003,
    "state_code": "35",
    "country_id": 75,
    "country_code": "FR",
    "latitude": "48.32805000",
    "longitude": "-1.42590000",
    "native": null,
    "timezone": "Europe/Paris",
    "translations": {}
  },
  {
    "id": 46477,
    "name": "Saint-Père",
    "state_id": 5003,
    "state_code": "35",
    "country_id": 75,
    "country_code": "FR",
    "latitude": "48.58727000",
    "longitude": "-1.92413000",
    "native": null,
    "timezone": "Europe/Paris",
    "translations": {}
  },
  {
    "id": 162015,
    "name": "Saint-Père-Marc-en-Poulet",
    "state_id": 5003,
    "state_code": "35",
    "country_id": 75,
    "country_code": "FR",
    "latitude": "48.58520000",
    "longitude": "-1.92810000",
    "native": null,
    "timezone": "Europe/Paris",
    "translations": {}
  },
  {
    "id": 46433,
    "name": "Saint-Pierre-de-Plesguen",
    "state_id": 5003,
    "state_code": "35",
    "country_id": 75,
    "country_code": "FR",
    "latitude": "48.44638000",
    "longitude": "-1.91278000",
    "native": null,
    "timezone": "Europe/Paris",
    "translations": {}
  },
  {
    "id": 46535,
    "name": "Saint-Sauveur-des-Landes",
    "state_id": 5003,
    "state_code": "35",
    "country_id": 75,
    "country_code": "FR",
    "latitude": "48.34278000",
    "longitude": "-1.31248000",
    "native": null,
    "timezone": "Europe/Paris",
    "translations": {}
  },
  {
    "id": 46547,
    "name": "Saint-Senoux",
    "state_id": 5003,
    "state_code": "35",
    "country_id": 75,
    "country_code": "FR",
    "latitude": "47.90552000",
    "longitude": "-1.78819000",
    "native": null,
    "timezone": "Europe/Paris",
    "translations": {}
  },
  {
    "id": 46565,
    "name": "Saint-Sulpice-la-Forêt",
    "state_id": 5003,
    "state_code": "35",
    "country_id": 75,
    "country_code": "FR",
    "latitude": "48.21667000",
    "longitude": "-1.57972000",
    "native": null,
    "timezone": "Europe/Paris",
    "translations": {}
  },
  {
    "id": 46582,
    "name": "Saint-Thurial",
    "state_id": 5003,
    "state_code": "35",
    "country_id": 75,
    "country_code": "FR",
    "latitude": "48.02924000",
    "longitude": "-1.93181000",
    "native": null,
    "timezone": "Europe/Paris",
    "translations": {}
  },
  {
    "id": 46707,
    "name": "Sainte-Marie",
    "state_id": 5003,
    "state_code": "35",
    "country_id": 75,
    "country_code": "FR",
    "latitude": "47.69429000",
    "longitude": "-2.00190000",
    "native": null,
    "timezone": "Europe/Paris",
    "translations": {}
  },
  {
    "id": 46946,
    "name": "Sens-de-Bretagne",
    "state_id": 5003,
    "state_code": "35",
    "country_id": 75,
    "country_code": "FR",
    "latitude": "48.33245000",
    "longitude": "-1.53535000",
    "native": null,
    "timezone": "Europe/Paris",
    "translations": {}
  },
  {
    "id": 46974,
    "name": "Servon-sur-Vilaine",
    "state_id": 5003,
    "state_code": "35",
    "country_id": 75,
    "country_code": "FR",
    "latitude": "48.12114000",
    "longitude": "-1.45971000",
    "native": null,
    "timezone": "Europe/Paris",
    "translations": {}
  },
  {
    "id": 47011,
    "name": "Sixt-sur-Aff",
    "state_id": 5003,
    "state_code": "35",
    "country_id": 75,
    "country_code": "FR",
    "latitude": "47.77648000",
    "longitude": "-2.07867000",
    "native": null,
    "timezone": "Europe/Paris",
    "translations": {}
  },
  {
    "id": 47163,
    "name": "Talensac",
    "state_id": 5003,
    "state_code": "35",
    "country_id": 75,
    "country_code": "FR",
    "latitude": "48.10847000",
    "longitude": "-1.92829000",
    "native": null,
    "timezone": "Europe/Paris",
    "translations": {}
  },
  {
    "id": 162041,
    "name": "Thorigné-Fouillard",
    "state_id": 5003,
    "state_code": "35",
    "country_id": 75,
    "country_code": "FR",
    "latitude": "48.15240000",
    "longitude": "-1.58660000",
    "native": null,
    "timezone": "Europe/Paris",
    "translations": {}
  },
  {
    "id": 47290,
    "name": "Tinténiac",
    "state_id": 5003,
    "state_code": "35",
    "country_id": 75,
    "country_code": "FR",
    "latitude": "48.32860000",
    "longitude": "-1.83630000",
    "native": null,
    "timezone": "Europe/Paris",
    "translations": {}
  },
  {
    "id": 47301,
    "name": "Torcé",
    "state_id": 5003,
    "state_code": "35",
    "country_id": 75,
    "country_code": "FR",
    "latitude": "48.06120000",
    "longitude": "-1.26708000",
    "native": null,
    "timezone": "Europe/Paris",
    "translations": {}
  },
  {
    "id": 47357,
    "name": "Tremblay",
    "state_id": 5003,
    "state_code": "35",
    "country_id": 75,
    "country_code": "FR",
    "latitude": "48.42216000",
    "longitude": "-1.47555000",
    "native": null,
    "timezone": "Europe/Paris",
    "translations": {}
  },
  {
    "id": 47360,
    "name": "Tresbœuf",
    "state_id": 5003,
    "state_code": "35",
    "country_id": 75,
    "country_code": "FR",
    "latitude": "47.88333000",
    "longitude": "-1.55000000",
    "native": null,
    "timezone": "Europe/Paris",
    "translations": {}
  },
  {
    "id": 162054,
    "name": "Val d'Anast",
    "state_id": 5003,
    "state_code": "35",
    "country_id": 75,
    "country_code": "FR",
    "latitude": "47.89810000",
    "longitude": "-1.99310000",
    "native": null,
    "timezone": "Europe/Paris",
    "translations": {}
  },
  {
    "id": 162064,
    "name": "Val-Couesnon",
    "state_id": 5003,
    "state_code": "35",
    "country_id": 75,
    "country_code": "FR",
    "latitude": "48.44100000",
    "longitude": "-1.46500000",
    "native": null,
    "timezone": "Europe/Paris",
    "translations": {}
  },
  {
    "id": 162066,
    "name": "Val-d'Izé",
    "state_id": 5003,
    "state_code": "35",
    "country_id": 75,
    "country_code": "FR",
    "latitude": "48.18610000",
    "longitude": "-1.29870000",
    "native": null,
    "timezone": "Europe/Paris",
    "translations": {}
  },
  {
    "id": 47607,
    "name": "Vern-sur-Seiche",
    "state_id": 5003,
    "state_code": "35",
    "country_id": 75,
    "country_code": "FR",
    "latitude": "48.04514000",
    "longitude": "-1.60057000",
    "native": null,
    "timezone": "Europe/Paris",
    "translations": {}
  },
  {
    "id": 47657,
    "name": "Vezin-le-Coquet",
    "state_id": 5003,
    "state_code": "35",
    "country_id": 75,
    "country_code": "FR",
    "latitude": "48.11857000",
    "longitude": "-1.75466000",
    "native": null,
    "timezone": "Europe/Paris",
    "translations": {}
  },
  {
    "id": 47698,
    "name": "Vignoc",
    "state_id": 5003,
    "state_code": "35",
    "country_id": 75,
    "country_code": "FR",
    "latitude": "48.24842000",
    "longitude": "-1.78169000",
    "native": null,
    "timezone": "Europe/Paris",
    "translations": {}
  },
  {
    "id": 47876,
    "name": "Vitré",
    "state_id": 5003,
    "state_code": "35",
    "country_id": 75,
    "country_code": "FR",
    "latitude": "48.11776000",
    "longitude": "-1.20577000",
    "native": null,
    "timezone": "Europe/Paris",
    "translations": {}
  }
]