[
  {
    "id": 39234,
    "name": "Abbaretz",
    "state_id": 5012,
    "state_code": "44",
    "country_id": 75,
    "country_code": "FR",
    "latitude": "47.55314000",
    "longitude": "-1.53200000",
    "native": null,
    "timezone": "Europe/Paris",
    "translations": {}
  },
  {
    "id": 39272,
    "name": "Aigrefeuille-sur-Maine",
    "state_id": 5012,
    "state_code": "44",
    "country_id": 75,
    "country_code": "FR",
    "latitude": "47.07888000",
    "longitude": "-1.40254000",
    "native": null,
    "timezone": "Europe/Paris",
    "translations": {}
  },
  {
    "id": 39371,
    "name": "Ancenis",
    "state_id": 5012,
    "state_code": "44",
    "country_id": 75,
    "country_code": "FR",
    "latitude": "47.36667000",
    "longitude": "-1.16667000",
    "native": null,
    "timezone": "Europe/Paris",
    "translations": {}
  },
  {
    "id": 161661,
    "name": "Ancenis-Saint-Géréon",
    "state_id": 5012,
    "state_code": "44",
    "country_id": 75,
    "country_code": "FR",
    "latitude": "47.38200000",
    "longitude": "-1.16810000",
    "native": null,
    "timezone": "Europe/Paris",
    "translations": {}
  },
  {
    "id": 39395,
    "name": "Anetz",
    "state_id": 5012,
    "state_code": "44",
    "country_id": 75,
    "country_code": "FR",
    "latitude": "47.38059000",
    "longitude": "-1.10583000",
    "native": null,
    "timezone": "Europe/Paris",
    "translations": {}
  },
  {
    "id": 39525,
    "name": "Arthon-en-Retz",
    "state_id": 5012,
    "state_code": "44",
    "country_id": 75,
    "country_code": "FR",
    "latitude": "47.11586000",
    "longitude": "-1.94260000",
    "native": null,
    "timezone": "Europe/Paris",
    "translations": {}
  },
  {
    "id": 39554,
    "name": "Assérac",
    "state_id": 5012,
    "state_code": "44",
    "country_id": 75,
    "country_code": "FR",
    "latitude": "47.42881000",
    "longitude": "-2.38916000",
    "native": null,
    "timezone": "Europe/Paris",
    "translations": {}
  },
  {
    "id": 39668,
    "name": "Avessac",
    "state_id": 5012,
    "state_code": "44",
    "country_id": 75,
    "country_code": "FR",
    "latitude": "47.65324000",
    "longitude": "-1.98961000",
    "native": null,
    "timezone": "Europe/Paris",
    "translations": {}
  },
  {
    "id": 39771,
    "name": "Barbechat",
    "state_id": 5012,
    "state_code": "44",
    "country_id": 75,
    "country_code": "FR",
    "latitude": "47.27750000",
    "longitude": "-1.28524000",
    "native": null,
    "timezone": "Europe/Paris",
    "translations": {}
  },
  {
    "id": 39798,
    "name": "Basse-Goulaine",
    "state_id": 5012,
    "state_code": "44",
    "country_id": 75,
    "country_code": "FR",
    "latitude": "47.21167000",
    "longitude": "-1.46748000",
    "native": null,
    "timezone": "Europe/Paris",
    "translations": {}
  },
  {
    "id": 39807,
    "name": "Batz-sur-Mer",
    "state_id": 5012,
    "state_code": "44",
    "country_id": 75,
    "country_code": "FR",
    "latitude": "47.27750000",
    "longitude": "-2.48027000",
    "native": null,
    "timezone": "Europe/Paris",
    "translations": {}
  },
  {
    "id": 39929,
    "name": "Belligné",
    "state_id": 5012,
    "state_code": "44",
    "country_id": 75,
    "country_code": "FR",
    "latitude": "47.46774000",
    "longitude": "-1.02780000",
    "native": null,
    "timezone": "Europe/Paris",
    "translations": {}
  },
  {
    "id": 39972,
    "name": "Besné",
    "state_id": 5012,
    "state_code": "44",
    "country_id": 75,
    "country_code": "FR",
    "latitude": "47.40000000",
    "longitude": "-2.08976000",
    "native": null,
    "timezone": "Europe/Paris",
    "translations": {}
  },
  {
    "id": 40046,
    "name": "Blain",
    "state_id": 5012,
    "state_code": "44",
    "country_id": 75,
    "country_code": "FR",
    "latitude": "47.47655000",
    "longitude": "-1.76285000",
    "native": null,
    "timezone": "Europe/Paris",
    "translations": {}
  },
  {
    "id": 40148,
    "name": "Bouaye",
    "state_id": 5012,
    "state_code": "44",
    "country_id": 75,
    "country_code": "FR",
    "latitude": "47.14263000",
    "longitude": "-1.69306000",
    "native": null,
    "timezone": "Europe/Paris",
    "translations": {}
  },
  {
    "id": 40156,
    "name": "Bouguenais",
    "state_id": 5012,
    "state_code": "44",
    "country_id": 75,
    "country_code": "FR",
    "latitude": "47.17762000",
    "longitude": "-1.62143000",
    "native": null,
    "timezone": "Europe/Paris",
    "translations": {}
  },
  {
    "id": 40185,
    "name": "Bourg de Joué-sur-Erdre",
    "state_id": 5012,
    "state_code": "44",
    "country_id": 75,
    "country_code": "FR",
    "latitude": "47.49596000",
    "longitude": "-1.42047000",
    "native": null,
    "timezone": "Europe/Paris",
    "translations": {}
  },
  {
    "id": 40202,
    "name": "Bourgneuf-en-Retz",
    "state_id": 5012,
    "state_code": "44",
    "country_id": 75,
    "country_code": "FR",
    "latitude": "47.04122000",
    "longitude": "-1.95019000",
    "native": null,
    "timezone": "Europe/Paris",
    "translations": {}
  },
  {
    "id": 40217,
    "name": "Boussay",
    "state_id": 5012,
    "state_code": "44",
    "country_id": 75,
    "country_code": "FR",
    "latitude": "47.04476000",
    "longitude": "-1.18476000",
    "native": null,
    "timezone": "Europe/Paris",
    "translations": {}
  },
  {
    "id": 40230,
    "name": "Bouvron",
    "state_id": 5012,
    "state_code": "44",
    "country_id": 75,
    "country_code": "FR",
    "latitude": "47.41726000",
    "longitude": "-1.84679000",
    "native": null,
    "timezone": "Europe/Paris",
    "translations": {}
  },
  {
    "id": 40235,
    "name": "Bouzillé",
    "state_id": 5012,
    "state_code": "44",
    "country_id": 75,
    "country_code": "FR",
    "latitude": "47.33750000",
    "longitude": "-1.11143000",
    "native": null,
    "timezone": "Europe/Paris",
    "translations": {}
  },
  {
    "id": 40250,
    "name": "Brains",
    "state_id": 5012,
    "state_code": "44",
    "country_id": 75,
    "country_code": "FR",
    "latitude": "47.16850000",
    "longitude": "-1.72290000",
    "native": null,
    "timezone": "Europe/Paris",
    "translations": {}
  },
  {
    "id": 40498,
    "name": "Campbon",
    "state_id": 5012,
    "state_code": "44",
    "country_id": 75,
    "country_code": "FR",
    "latitude": "47.41310000",
    "longitude": "-1.96857000",
    "native": null,
    "timezone": "Europe/Paris",
    "translations": {}
  },
  {
    "id": 40557,
    "name": "Carquefou",
    "state_id": 5012,
    "state_code": "44",
    "country_id": 75,
    "country_code": "FR",
    "latitude": "47.29821000",
    "longitude": "-1.49024000",
    "native": null,
    "timezone": "Europe/Paris",
    "translations": {}
  },
  {
    "id": 40572,
    "name": "Casson",
    "state_id": 5012,
    "state_code": "44",
    "country_id": 75,
    "country_code": "FR",
    "latitude": "47.38761000",
    "longitude": "-1.55654000",
    "native": null,
    "timezone": "Europe/Paris",
    "translations": {}
  },
  {
    "id": 40752,
    "name": "Champtoceaux",
    "state_id": 5012,
    "state_code": "44",
    "country_id": 75,
    "country_code": "FR",
    "latitude": "47.33476000",
    "longitude": "-1.26131000",
    "native": null,
    "timezone": "Europe/Paris",
    "translations": {}
  },
  {
    "id": 161726,
    "name": "Château-Thébaud",
    "state_id": 5012,
    "state_code": "44",
    "country_id": 75,
    "country_code": "FR",
    "latitude": "47.11690000",
    "longitude": "-1.44670000",
    "native": null,
    "timezone": "Europe/Paris",
    "translations": {}
  },
  {
    "id": 40952,
    "name": "Châteaubriant",
    "state_id": 5012,
    "state_code": "44",
    "country_id": 75,
    "country_code": "FR",
    "latitude": "47.71712000",
    "longitude": "-1.37624000",
    "native": null,
    "timezone": "Europe/Paris",
    "translations": {}
  },
  {
    "id": 161717,
    "name": "Chaumes-en-Retz",
    "state_id": 5012,
    "state_code": "44",
    "country_id": 75,
    "country_code": "FR",
    "latitude": "47.15610000",
    "longitude": "-1.91530000",
    "native": null,
    "timezone": "Europe/Paris",
    "translations": {}
  },
  {
    "id": 40854,
    "name": "Chauvé",
    "state_id": 5012,
    "state_code": "44",
    "country_id": 75,
    "country_code": "FR",
    "latitude": "47.15174000",
    "longitude": "-1.98489000",
    "native": null,
    "timezone": "Europe/Paris",
    "translations": {}
  },
  {
    "id": 41011,
    "name": "Chéméré",
    "state_id": 5012,
    "state_code": "44",
    "country_id": 75,
    "country_code": "FR",
    "latitude": "47.11667000",
    "longitude": "-1.91667000",
    "native": null,
    "timezone": "Europe/Paris",
    "translations": {}
  },
  {
    "id": 41056,
    "name": "Clisson",
    "state_id": 5012,
    "state_code": "44",
    "country_id": 75,
    "country_code": "FR",
    "latitude": "47.08714000",
    "longitude": "-1.28286000",
    "native": null,
    "timezone": "Europe/Paris",
    "translations": {}
  },
  {
    "id": 41152,
    "name": "Conquereuil",
    "state_id": 5012,
    "state_code": "44",
    "country_id": 75,
    "country_code": "FR",
    "latitude": "47.62524000",
    "longitude": "-1.75105000",
    "native": null,
    "timezone": "Europe/Paris",
    "translations": {}
  },
  {
    "id": 41172,
    "name": "Corcoué-sur-Logne",
    "state_id": 5012,
    "state_code": "44",
    "country_id": 75,
    "country_code": "FR",
    "latitude": "46.96667000",
    "longitude": "-1.58333000",
    "native": null,
    "timezone": "Europe/Paris",
    "translations": {}
  },
  {
    "id": 41173,
    "name": "Cordemais",
    "state_id": 5012,
    "state_code": "44",
    "country_id": 75,
    "country_code": "FR",
    "latitude": "47.29107000",
    "longitude": "-1.87869000",
    "native": null,
    "timezone": "Europe/Paris",
    "translations": {}
  },
  {
    "id": 41203,
    "name": "Corsept",
    "state_id": 5012,
    "state_code": "44",
    "country_id": 75,
    "country_code": "FR",
    "latitude": "47.27703000",
    "longitude": "-2.05904000",
    "native": null,
    "timezone": "Europe/Paris",
    "translations": {}
  },
  {
    "id": 41288,
    "name": "Couëron",
    "state_id": 5012,
    "state_code": "44",
    "country_id": 75,
    "country_code": "FR",
    "latitude": "47.21508000",
    "longitude": "-1.72171000",
    "native": null,
    "timezone": "Europe/Paris",
    "translations": {}
  },
  {
    "id": 41223,
    "name": "Couffé",
    "state_id": 5012,
    "state_code": "44",
    "country_id": 75,
    "country_code": "FR",
    "latitude": "47.39120000",
    "longitude": "-1.29321000",
    "native": null,
    "timezone": "Europe/Paris",
    "translations": {}
  },
  {
    "id": 41328,
    "name": "Crossac",
    "state_id": 5012,
    "state_code": "44",
    "country_id": 75,
    "country_code": "FR",
    "latitude": "47.41119000",
    "longitude": "-2.16952000",
    "native": null,
    "timezone": "Europe/Paris",
    "translations": {}
  },
  {
    "id": 41362,
    "name": "Cugand",
    "state_id": 5012,
    "state_code": "44",
    "country_id": 75,
    "country_code": "FR",
    "latitude": "47.06318000",
    "longitude": "-1.25270000",
    "native": null,
    "timezone": "Europe/Paris",
    "translations": {}
  },
  {
    "id": 41454,
    "name": "Derval",
    "state_id": 5012,
    "state_code": "44",
    "country_id": 75,
    "country_code": "FR",
    "latitude": "47.66724000",
    "longitude": "-1.66990000",
    "native": null,
    "timezone": "Europe/Paris",
    "translations": {}
  },
  {
    "id": 161747,
    "name": "Divatte-sur-Loire",
    "state_id": 5012,
    "state_code": "44",
    "country_id": 75,
    "country_code": "FR",
    "latitude": "47.27890000",
    "longitude": "-1.33860000",
    "native": null,
    "timezone": "Europe/Paris",
    "translations": {}
  },
  {
    "id": 41531,
    "name": "Donges",
    "state_id": 5012,
    "state_code": "44",
    "country_id": 75,
    "country_code": "FR",
    "latitude": "47.31824000",
    "longitude": "-2.07538000",
    "native": null,
    "timezone": "Europe/Paris",
    "translations": {}
  },
  {
    "id": 41567,
    "name": "Drain",
    "state_id": 5012,
    "state_code": "44",
    "country_id": 75,
    "country_code": "FR",
    "latitude": "47.33655000",
    "longitude": "-1.20773000",
    "native": null,
    "timezone": "Europe/Paris",
    "translations": {}
  },
  {
    "id": 41571,
    "name": "Drefféac",
    "state_id": 5012,
    "state_code": "44",
    "country_id": 75,
    "country_code": "FR",
    "latitude": "47.47464000",
    "longitude": "-2.05774000",
    "native": null,
    "timezone": "Europe/Paris",
    "translations": {}
  },
  {
    "id": 41689,
    "name": "Erbray",
    "state_id": 5012,
    "state_code": "44",
    "country_id": 75,
    "country_code": "FR",
    "latitude": "47.65492000",
    "longitude": "-1.31783000",
    "native": null,
    "timezone": "Europe/Paris",
    "translations": {}
  },
  {
    "id": 41788,
    "name": "Fay-de-Bretagne",
    "state_id": 5012,
    "state_code": "44",
    "country_id": 75,
    "country_code": "FR",
    "latitude": "47.41453000",
    "longitude": "-1.79155000",
    "native": null,
    "timezone": "Europe/Paris",
    "translations": {}
  },
  {
    "id": 42001,
    "name": "Fégréac",
    "state_id": 5012,
    "state_code": "44",
    "country_id": 75,
    "country_code": "FR",
    "latitude": "47.58476000",
    "longitude": "-2.04410000",
    "native": null,
    "timezone": "Europe/Paris",
    "translations": {}
  },
  {
    "id": 41954,
    "name": "Freigné",
    "state_id": 5012,
    "state_code": "44",
    "country_id": 75,
    "country_code": "FR",
    "latitude": "47.54858000",
    "longitude": "-1.12274000",
    "native": null,
    "timezone": "Europe/Paris",
    "translations": {}
  },
  {
    "id": 41978,
    "name": "Frossay",
    "state_id": 5012,
    "state_code": "44",
    "country_id": 75,
    "country_code": "FR",
    "latitude": "47.24451000",
    "longitude": "-1.93557000",
    "native": null,
    "timezone": "Europe/Paris",
    "translations": {}
  },
  {
    "id": 42064,
    "name": "Geneston",
    "state_id": 5012,
    "state_code": "44",
    "country_id": 75,
    "country_code": "FR",
    "latitude": "47.05639000",
    "longitude": "-1.51139000",
    "native": null,
    "timezone": "Europe/Paris",
    "translations": {}
  },
  {
    "id": 42080,
    "name": "Gesté",
    "state_id": 5012,
    "state_code": "44",
    "country_id": 75,
    "country_code": "FR",
    "latitude": "47.18179000",
    "longitude": "-1.10917000",
    "native": null,
    "timezone": "Europe/Paris",
    "translations": {}
  },
  {
    "id": 42300,
    "name": "Gétigné",
    "state_id": 5012,
    "state_code": "44",
    "country_id": 75,
    "country_code": "FR",
    "latitude": "47.07650000",
    "longitude": "-1.24810000",
    "native": null,
    "timezone": "Europe/Paris",
    "translations": {}
  },
  {
    "id": 42137,
    "name": "Gorges",
    "state_id": 5012,
    "state_code": "44",
    "country_id": 75,
    "country_code": "FR",
    "latitude": "47.09917000",
    "longitude": "-1.30024000",
    "native": null,
    "timezone": "Europe/Paris",
    "translations": {}
  },
  {
    "id": 161776,
    "name": "Grandchamp-des-Fontaines",
    "state_id": 5012,
    "state_code": "44",
    "country_id": 75,
    "country_code": "FR",
    "latitude": "47.36290000",
    "longitude": "-1.62340000",
    "native": null,
    "timezone": "Europe/Paris",
    "translations": {}
  },
  {
    "id": 42280,
    "name": "Guémené-Penfao",
    "state_id": 5012,
    "state_code": "44",
    "country_id": 75,
    "country_code": "FR",
    "latitude": "47.63333000",
    "longitude": "-1.83333000",
    "native": null,
    "timezone": "Europe/Paris",
    "translations": {}
  },
  {
    "id": 42241,
    "name": "Guenrouet",
    "state_id": 5012,
    "state_code": "44",
    "country_id": 75,
    "country_code": "FR",
    "latitude": "47.51881000",
    "longitude": "-1.95381000",
    "native": null,
    "timezone": "Europe/Paris",
    "translations": {}
  },
  {
    "id": 42284,
    "name": "Guérande",
    "state_id": 5012,
    "state_code": "44",
    "country_id": 75,
    "country_code": "FR",
    "latitude": "47.32911000",
    "longitude": "-2.42829000",
    "native": null,
    "timezone": "Europe/Paris",
    "translations": {}
  },
  {
    "id": 42342,
    "name": "Haute-Goulaine",
    "state_id": 5012,
    "state_code": "44",
    "country_id": 75,
    "country_code": "FR",
    "latitude": "47.19905000",
    "longitude": "-1.42941000",
    "native": null,
    "timezone": "Europe/Paris",
    "translations": {}
  },
  {
    "id": 42373,
    "name": "Herbignac",
    "state_id": 5012,
    "state_code": "44",
    "country_id": 75,
    "country_code": "FR",
    "latitude": "47.44822000",
    "longitude": "-2.31810000",
    "native": null,
    "timezone": "Europe/Paris",
    "translations": {}
  },
  {
    "id": 42456,
    "name": "Héric",
    "state_id": 5012,
    "state_code": "44",
    "country_id": 75,
    "country_code": "FR",
    "latitude": "47.41417000",
    "longitude": "-1.65309000",
    "native": null,
    "timezone": "Europe/Paris",
    "translations": {}
  },
  {
    "id": 42486,
    "name": "Indre",
    "state_id": 5012,
    "state_code": "44",
    "country_id": 75,
    "country_code": "FR",
    "latitude": "47.20000000",
    "longitude": "-1.66667000",
    "native": null,
    "timezone": "Europe/Paris",
    "translations": {}
  },
  {
    "id": 42509,
    "name": "Issé",
    "state_id": 5012,
    "state_code": "44",
    "country_id": 75,
    "country_code": "FR",
    "latitude": "47.62419000",
    "longitude": "-1.45152000",
    "native": null,
    "timezone": "Europe/Paris",
    "translations": {}
  },
  {
    "id": 42526,
    "name": "Jans",
    "state_id": 5012,
    "state_code": "44",
    "country_id": 75,
    "country_code": "FR",
    "latitude": "47.62029000",
    "longitude": "-1.61438000",
    "native": null,
    "timezone": "Europe/Paris",
    "translations": {}
  },
  {
    "id": 161791,
    "name": "Joué-sur-Erdre",
    "state_id": 5012,
    "state_code": "44",
    "country_id": 75,
    "country_code": "FR",
    "latitude": "47.50840000",
    "longitude": "-1.43120000",
    "native": null,
    "timezone": "Europe/Paris",
    "translations": {}
  },
  {
    "id": 42637,
    "name": "La Baule-Escoublac",
    "state_id": 5012,
    "state_code": "44",
    "country_id": 75,
    "country_code": "FR",
    "latitude": "47.29221000",
    "longitude": "-2.36395000",
    "native": null,
    "timezone": "Europe/Paris",
    "translations": {}
  },
  {
    "id": 42641,
    "name": "La Bernerie-en-Retz",
    "state_id": 5012,
    "state_code": "44",
    "country_id": 75,
    "country_code": "FR",
    "latitude": "47.08040000",
    "longitude": "-2.03642000",
    "native": null,
    "timezone": "Europe/Paris",
    "translations": {}
  },
  {
    "id": 42678,
    "name": "La Chapelle-Basse-Mer",
    "state_id": 5012,
    "state_code": "44",
    "country_id": 75,
    "country_code": "FR",
    "latitude": "47.27086000",
    "longitude": "-1.33913000",
    "native": null,
    "timezone": "Europe/Paris",
    "translations": {}
  },
  {
    "id": 42694,
    "name": "La Chapelle-des-Marais",
    "state_id": 5012,
    "state_code": "44",
    "country_id": 75,
    "country_code": "FR",
    "latitude": "47.44845000",
    "longitude": "-2.23834000",
    "native": null,
    "timezone": "Europe/Paris",
    "translations": {}
  },
  {
    "id": 42680,
    "name": "La Chapelle-Heulin",
    "state_id": 5012,
    "state_code": "44",
    "country_id": 75,
    "country_code": "FR",
    "latitude": "47.17667000",
    "longitude": "-1.34000000",
    "native": null,
    "timezone": "Europe/Paris",
    "translations": {}
  },
  {
    "id": 42682,
    "name": "La Chapelle-Launay",
    "state_id": 5012,
    "state_code": "44",
    "country_id": 75,
    "country_code": "FR",
    "latitude": "47.37226000",
    "longitude": "-1.97071000",
    "native": null,
    "timezone": "Europe/Paris",
    "translations": {}
  },
  {
    "id": 42685,
    "name": "La Chapelle-Saint-Florent",
    "state_id": 5012,
    "state_code": "44",
    "country_id": 75,
    "country_code": "FR",
    "latitude": "47.33393000",
    "longitude": "-1.05631000",
    "native": null,
    "timezone": "Europe/Paris",
    "translations": {}
  },
  {
    "id": 42700,
    "name": "La Chapelle-sur-Erdre",
    "state_id": 5012,
    "state_code": "44",
    "country_id": 75,
    "country_code": "FR",
    "latitude": "47.29583000",
    "longitude": "-1.55309000",
    "native": null,
    "timezone": "Europe/Paris",
    "translations": {}
  },
  {
    "id": 42705,
    "name": "La Chevrolière",
    "state_id": 5012,
    "state_code": "44",
    "country_id": 75,
    "country_code": "FR",
    "latitude": "47.09124000",
    "longitude": "-1.60973000",
    "native": null,
    "timezone": "Europe/Paris",
    "translations": {}
  },
  {
    "id": 42774,
    "name": "La Grigonnais",
    "state_id": 5012,
    "state_code": "44",
    "country_id": 75,
    "country_code": "FR",
    "latitude": "47.52724000",
    "longitude": "-1.66781000",
    "native": null,
    "timezone": "Europe/Paris",
    "translations": {}
  },
  {
    "id": 42779,
    "name": "La Haie-Fouassière",
    "state_id": 5012,
    "state_code": "44",
    "country_id": 75,
    "country_code": "FR",
    "latitude": "47.15492000",
    "longitude": "-1.39794000",
    "native": null,
    "timezone": "Europe/Paris",
    "translations": {}
  },
  {
    "id": 42791,
    "name": "La Limouzinière",
    "state_id": 5012,
    "state_code": "44",
    "country_id": 75,
    "country_code": "FR",
    "latitude": "46.99274000",
    "longitude": "-1.59722000",
    "native": null,
    "timezone": "Europe/Paris",
    "translations": {}
  },
  {
    "id": 42803,
    "name": "La Meilleraye-de-Bretagne",
    "state_id": 5012,
    "state_code": "44",
    "country_id": 75,
    "country_code": "FR",
    "latitude": "47.55941000",
    "longitude": "-1.40200000",
    "native": null,
    "timezone": "Europe/Paris",
    "translations": {}
  },
  {
    "id": 42809,
    "name": "La Montagne",
    "state_id": 5012,
    "state_code": "44",
    "country_id": 75,
    "country_code": "FR",
    "latitude": "47.18651000",
    "longitude": "-1.68272000",
    "native": null,
    "timezone": "Europe/Paris",
    "translations": {}
  },
  {
    "id": 42831,
    "name": "La Plaine-sur-Mer",
    "state_id": 5012,
    "state_code": "44",
    "country_id": 75,
    "country_code": "FR",
    "latitude": "47.13619000",
    "longitude": "-2.19182000",
    "native": null,
    "timezone": "Europe/Paris",
    "translations": {}
  },
  {
    "id": 42832,
    "name": "La Planche",
    "state_id": 5012,
    "state_code": "44",
    "country_id": 75,
    "country_code": "FR",
    "latitude": "47.01619000",
    "longitude": "-1.43159000",
    "native": null,
    "timezone": "Europe/Paris",
    "translations": {}
  },
  {
    "id": 42842,
    "name": "La Regrippière",
    "state_id": 5012,
    "state_code": "44",
    "country_id": 75,
    "country_code": "FR",
    "latitude": "47.18167000",
    "longitude": "-1.17620000",
    "native": null,
    "timezone": "Europe/Paris",
    "translations": {}
  },
  {
    "id": 42843,
    "name": "La Remaudière",
    "state_id": 5012,
    "state_code": "44",
    "country_id": 75,
    "country_code": "FR",
    "latitude": "47.23762000",
    "longitude": "-1.24358000",
    "native": null,
    "timezone": "Europe/Paris",
    "translations": {}
  },
  {
    "id": 42901,
    "name": "La Turballe",
    "state_id": 5012,
    "state_code": "44",
    "country_id": 75,
    "country_code": "FR",
    "latitude": "47.34686000",
    "longitude": "-2.50734000",
    "native": null,
    "timezone": "Europe/Paris",
    "translations": {}
  },
  {
    "id": 42906,
    "name": "La Varenne",
    "state_id": 5012,
    "state_code": "44",
    "country_id": 75,
    "country_code": "FR",
    "latitude": "47.31107000",
    "longitude": "-1.31976000",
    "native": null,
    "timezone": "Europe/Paris",
    "translations": {}
  },
  {
    "id": 43002,
    "name": "Landemont",
    "state_id": 5012,
    "state_code": "44",
    "country_id": 75,
    "country_code": "FR",
    "latitude": "47.26536000",
    "longitude": "-1.23989000",
    "native": null,
    "timezone": "Europe/Paris",
    "translations": {}
  },
  {
    "id": 43129,
    "name": "Le Bignon",
    "state_id": 5012,
    "state_code": "44",
    "country_id": 75,
    "country_code": "FR",
    "latitude": "47.09722000",
    "longitude": "-1.49167000",
    "native": null,
    "timezone": "Europe/Paris",
    "translations": {}
  },
  {
    "id": 43158,
    "name": "Le Cellier",
    "state_id": 5012,
    "state_code": "44",
    "country_id": 75,
    "country_code": "FR",
    "latitude": "47.31988000",
    "longitude": "-1.34584000",
    "native": null,
    "timezone": "Europe/Paris",
    "translations": {}
  },
  {
    "id": 43176,
    "name": "Le Croisic",
    "state_id": 5012,
    "state_code": "44",
    "country_id": 75,
    "country_code": "FR",
    "latitude": "47.29189000",
    "longitude": "-2.51380000",
    "native": null,
    "timezone": "Europe/Paris",
    "translations": {}
  },
  {
    "id": 43191,
    "name": "Le Fuilet",
    "state_id": 5012,
    "state_code": "44",
    "country_id": 75,
    "country_code": "FR",
    "latitude": "47.28345000",
    "longitude": "-1.11310000",
    "native": null,
    "timezone": "Europe/Paris",
    "translations": {}
  },
  {
    "id": 43203,
    "name": "Le Gâvre",
    "state_id": 5012,
    "state_code": "44",
    "country_id": 75,
    "country_code": "FR",
    "latitude": "47.52131000",
    "longitude": "-1.74905000",
    "native": null,
    "timezone": "Europe/Paris",
    "translations": {}
  },
  {
    "id": 43209,
    "name": "Le Landreau",
    "state_id": 5012,
    "state_code": "44",
    "country_id": 75,
    "country_code": "FR",
    "latitude": "47.20512000",
    "longitude": "-1.30452000",
    "native": null,
    "timezone": "Europe/Paris",
    "translations": {}
  },
  {
    "id": 43214,
    "name": "Le Loroux-Bottereau",
    "state_id": 5012,
    "state_code": "44",
    "country_id": 75,
    "country_code": "FR",
    "latitude": "47.23763000",
    "longitude": "-1.34952000",
    "native": null,
    "timezone": "Europe/Paris",
    "translations": {}
  },
  {
    "id": 43245,
    "name": "Le Pallet",
    "state_id": 5012,
    "state_code": "44",
    "country_id": 75,
    "country_code": "FR",
    "latitude": "47.13809000",
    "longitude": "-1.33476000",
    "native": null,
    "timezone": "Europe/Paris",
    "translations": {}
  },
  {
    "id": 43248,
    "name": "Le Pellerin",
    "state_id": 5012,
    "state_code": "44",
    "country_id": 75,
    "country_code": "FR",
    "latitude": "47.19915000",
    "longitude": "-1.75514000",
    "native": null,
    "timezone": "Europe/Paris",
    "translations": {}
  },
  {
    "id": 43281,
    "name": "Le Pouliguen",
    "state_id": 5012,
    "state_code": "44",
    "country_id": 75,
    "country_code": "FR",
    "latitude": "47.26973000",
    "longitude": "-2.42780000",
    "native": null,
    "timezone": "Europe/Paris",
    "translations": {}
  },
  {
    "id": 43309,
    "name": "Le Temple-de-Bretagne",
    "state_id": 5012,
    "state_code": "44",
    "country_id": 75,
    "country_code": "FR",
    "latitude": "47.32737000",
    "longitude": "-1.78904000",
    "native": null,
    "timezone": "Europe/Paris",
    "translations": {}
  },
  {
    "id": 43344,
    "name": "Legé",
    "state_id": 5012,
    "state_code": "44",
    "country_id": 75,
    "country_code": "FR",
    "latitude": "46.88484000",
    "longitude": "-1.60127000",
    "native": null,
    "timezone": "Europe/Paris",
    "translations": {}
  },
  {
    "id": 43411,
    "name": "Les Moutiers-en-Retz",
    "state_id": 5012,
    "state_code": "44",
    "country_id": 75,
    "country_code": "FR",
    "latitude": "47.06375000",
    "longitude": "-1.99900000",
    "native": null,
    "timezone": "Europe/Paris",
    "translations": {}
  },
  {
    "id": 43429,
    "name": "Les Sorinières",
    "state_id": 5012,
    "state_code": "44",
    "country_id": 75,
    "country_code": "FR",
    "latitude": "47.14831000",
    "longitude": "-1.52932000",
    "native": null,
    "timezone": "Europe/Paris",
    "translations": {}
  },
  {
    "id": 43430,
    "name": "Les Touches",
    "state_id": 5012,
    "state_code": "44",
    "country_id": 75,
    "country_code": "FR",
    "latitude": "47.44249000",
    "longitude": "-1.43097000",
    "native": null,
    "timezone": "Europe/Paris",
    "translations": {}
  },
  {
    "id": 43481,
    "name": "Ligné",
    "state_id": 5012,
    "state_code": "44",
    "country_id": 75,
    "country_code": "FR",
    "latitude": "47.41096000",
    "longitude": "-1.37726000",
    "native": null,
    "timezone": "Europe/Paris",
    "translations": {}
  },
  {
    "id": 43507,
    "name": "Liré",
    "state_id": 5012,
    "state_code": "44",
    "country_id": 75,
    "country_code": "FR",
    "latitude": "47.34322000",
    "longitude": "-1.16536000",
    "native": null,
    "timezone": "Europe/Paris",
    "translations": {}
  },
  {
    "id": 43540,
    "name": "Loire-Atlantique",
    "state_id": 5012,
    "state_code": "44",
    "country_id": 75,
    "country_code": "FR",
    "latitude": "47.32863000",
    "longitude": "-1.65764000",
    "native": null,
    "timezone": "Europe/Paris",
    "translations": {}
  },
  {
    "id": 161867,
    "name": "Loireauxence",
    "state_id": 5012,
    "state_code": "44",
    "country_id": 75,
    "country_code": "FR",
    "latitude": "47.43520000",
    "longitude": "-1.03190000",
    "native": null,
    "timezone": "Europe/Paris",
    "translations": {}
  },
  {
    "id": 43660,
    "name": "Lusanger",
    "state_id": 5012,
    "state_code": "44",
    "country_id": 75,
    "country_code": "FR",
    "latitude": "47.68153000",
    "longitude": "-1.58857000",
    "native": null,
    "timezone": "Europe/Paris",
    "translations": {}
  },
  {
    "id": 43712,
    "name": "Machecoul",
    "state_id": 5012,
    "state_code": "44",
    "country_id": 75,
    "country_code": "FR",
    "latitude": "46.99358000",
    "longitude": "-1.82352000",
    "native": null,
    "timezone": "Europe/Paris",
    "translations": {}
  },
  {
    "id": 161875,
    "name": "Machecoul-Saint-Même",
    "state_id": 5012,
    "state_code": "44",
    "country_id": 75,
    "country_code": "FR",
    "latitude": "47.00570000",
    "longitude": "-1.80630000",
    "native": null,
    "timezone": "Europe/Paris",
    "translations": {}
  },
  {
    "id": 43741,
    "name": "Maisdon-sur-Sèvre",
    "state_id": 5012,
    "state_code": "44",
    "country_id": 75,
    "country_code": "FR",
    "latitude": "47.09714000",
    "longitude": "-1.38000000",
    "native": null,
    "timezone": "Europe/Paris",
    "translations": {}
  },
  {
    "id": 43766,
    "name": "Malville",
    "state_id": 5012,
    "state_code": "44",
    "country_id": 75,
    "country_code": "FR",
    "latitude": "47.35905000",
    "longitude": "-1.86227000",
    "native": null,
    "timezone": "Europe/Paris",
    "translations": {}
  },
  {
    "id": 43878,
    "name": "Marsac-sur-Don",
    "state_id": 5012,
    "state_code": "44",
    "country_id": 75,
    "country_code": "FR",
    "latitude": "47.59648000",
    "longitude": "-1.67952000",
    "native": null,
    "timezone": "Europe/Paris",
    "translations": {}
  },
  {
    "id": 43961,
    "name": "Mauves-sur-Loire",
    "state_id": 5012,
    "state_code": "44",
    "country_id": 75,
    "country_code": "FR",
    "latitude": "47.29738000",
    "longitude": "-1.38763000",
    "native": null,
    "timezone": "Europe/Paris",
    "translations": {}
  },
  {
    "id": 44483,
    "name": "Mésanger",
    "state_id": 5012,
    "state_code": "44",
    "country_id": 75,
    "country_code": "FR",
    "latitude": "47.43131000",
    "longitude": "-1.22798000",
    "native": null,
    "timezone": "Europe/Paris",
    "translations": {}
  },
  {
    "id": 44031,
    "name": "Mesquer",
    "state_id": 5012,
    "state_code": "44",
    "country_id": 75,
    "country_code": "FR",
    "latitude": "47.39919000",
    "longitude": "-2.45986000",
    "native": null,
    "timezone": "Europe/Paris",
    "translations": {}
  },
  {
    "id": 44104,
    "name": "Missillac",
    "state_id": 5012,
    "state_code": "44",
    "country_id": 75,
    "country_code": "FR",
    "latitude": "47.48155000",
    "longitude": "-2.16000000",
    "native": null,
    "timezone": "Europe/Paris",
    "translations": {}
  },
  {
    "id": 44115,
    "name": "Moisdon-la-Rivière",
    "state_id": 5012,
    "state_code": "44",
    "country_id": 75,
    "country_code": "FR",
    "latitude": "47.62175000",
    "longitude": "-1.37258000",
    "native": null,
    "timezone": "Europe/Paris",
    "translations": {}
  },
  {
    "id": 44146,
    "name": "Monnières",
    "state_id": 5012,
    "state_code": "44",
    "country_id": 75,
    "country_code": "FR",
    "latitude": "47.13301000",
    "longitude": "-1.35317000",
    "native": null,
    "timezone": "Europe/Paris",
    "translations": {}
  },
  {
    "id": 44195,
    "name": "Montbert",
    "state_id": 5012,
    "state_code": "44",
    "country_id": 75,
    "country_code": "FR",
    "latitude": "47.05613000",
    "longitude": "-1.48890000",
    "native": null,
    "timezone": "Europe/Paris",
    "translations": {}
  },
  {
    "id": 44292,
    "name": "Montoir-de-Bretagne",
    "state_id": 5012,
    "state_code": "44",
    "country_id": 75,
    "country_code": "FR",
    "latitude": "47.33012000",
    "longitude": "-2.15107000",
    "native": null,
    "timezone": "Europe/Paris",
    "translations": {}
  },
  {
    "id": 44417,
    "name": "Mouzeil",
    "state_id": 5012,
    "state_code": "44",
    "country_id": 75,
    "country_code": "FR",
    "latitude": "47.44738000",
    "longitude": "-1.34786000",
    "native": null,
    "timezone": "Europe/Paris",
    "translations": {}
  },
  {
    "id": 44418,
    "name": "Mouzillon",
    "state_id": 5012,
    "state_code": "44",
    "country_id": 75,
    "country_code": "FR",
    "latitude": "47.14096000",
    "longitude": "-1.28191000",
    "native": null,
    "timezone": "Europe/Paris",
    "translations": {}
  },
  {
    "id": 44506,
    "name": "Nantes",
    "state_id": 5012,
    "state_code": "44",
    "country_id": 75,
    "country_code": "FR",
    "latitude": "47.21725000",
    "longitude": "-1.55336000",
    "native": null,
    "timezone": "Europe/Paris",
    "translations": {}
  },
  {
    "id": 44645,
    "name": "Nort-sur-Erdre",
    "state_id": 5012,
    "state_code": "44",
    "country_id": 75,
    "country_code": "FR",
    "latitude": "47.43881000",
    "longitude": "-1.49833000",
    "native": null,
    "timezone": "Europe/Paris",
    "translations": {}
  },
  {
    "id": 44656,
    "name": "Notre-Dame-des-Landes",
    "state_id": 5012,
    "state_code": "44",
    "country_id": 75,
    "country_code": "FR",
    "latitude": "47.38048000",
    "longitude": "-1.70904000",
    "native": null,
    "timezone": "Europe/Paris",
    "translations": {}
  },
  {
    "id": 44681,
    "name": "Nozay",
    "state_id": 5012,
    "state_code": "44",
    "country_id": 75,
    "country_code": "FR",
    "latitude": "47.56495000",
    "longitude": "-1.62629000",
    "native": null,
    "timezone": "Europe/Paris",
    "translations": {}
  },
  {
    "id": 44788,
    "name": "Orvault",
    "state_id": 5012,
    "state_code": "44",
    "country_id": 75,
    "country_code": "FR",
    "latitude": "47.27095000",
    "longitude": "-1.62190000",
    "native": null,
    "timezone": "Europe/Paris",
    "translations": {}
  },
  {
    "id": 44803,
    "name": "Oudon",
    "state_id": 5012,
    "state_code": "44",
    "country_id": 75,
    "country_code": "FR",
    "latitude": "47.34774000",
    "longitude": "-1.28500000",
    "native": null,
    "timezone": "Europe/Paris",
    "translations": {}
  },
  {
    "id": 44828,
    "name": "Paimboeuf",
    "state_id": 5012,
    "state_code": "44",
    "country_id": 75,
    "country_code": "FR",
    "latitude": "47.28654000",
    "longitude": "-2.03048000",
    "native": null,
    "timezone": "Europe/Paris",
    "translations": {}
  },
  {
    "id": 44843,
    "name": "Pannecé",
    "state_id": 5012,
    "state_code": "44",
    "country_id": 75,
    "country_code": "FR",
    "latitude": "47.48583000",
    "longitude": "-1.23940000",
    "native": null,
    "timezone": "Europe/Paris",
    "translations": {}
  },
  {
    "id": 44872,
    "name": "Paulx",
    "state_id": 5012,
    "state_code": "44",
    "country_id": 75,
    "country_code": "FR",
    "latitude": "46.96181000",
    "longitude": "-1.75520000",
    "native": null,
    "timezone": "Europe/Paris",
    "translations": {}
  },
  {
    "id": 44916,
    "name": "Petit-Mars",
    "state_id": 5012,
    "state_code": "44",
    "country_id": 75,
    "country_code": "FR",
    "latitude": "47.39512000",
    "longitude": "-1.45262000",
    "native": null,
    "timezone": "Europe/Paris",
    "translations": {}
  },
  {
    "id": 44978,
    "name": "Piriac-sur-Mer",
    "state_id": 5012,
    "state_code": "44",
    "country_id": 75,
    "country_code": "FR",
    "latitude": "47.37938000",
    "longitude": "-2.54616000",
    "native": null,
    "timezone": "Europe/Paris",
    "translations": {}
  },
  {
    "id": 45011,
    "name": "Plessé",
    "state_id": 5012,
    "state_code": "44",
    "country_id": 75,
    "country_code": "FR",
    "latitude": "47.54180000",
    "longitude": "-1.88609000",
    "native": null,
    "timezone": "Europe/Paris",
    "translations": {}
  },
  {
    "id": 45170,
    "name": "Pont-Saint-Martin",
    "state_id": 5012,
    "state_code": "44",
    "country_id": 75,
    "country_code": "FR",
    "latitude": "47.12338000",
    "longitude": "-1.58455000",
    "native": null,
    "timezone": "Europe/Paris",
    "translations": {}
  },
  {
    "id": 45206,
    "name": "Pontchâteau",
    "state_id": 5012,
    "state_code": "44",
    "country_id": 75,
    "country_code": "FR",
    "latitude": "47.43797000",
    "longitude": "-2.09011000",
    "native": null,
    "timezone": "Europe/Paris",
    "translations": {}
  },
  {
    "id": 45223,
    "name": "Pornic",
    "state_id": 5012,
    "state_code": "44",
    "country_id": 75,
    "country_code": "FR",
    "latitude": "47.11205000",
    "longitude": "-2.08888000",
    "native": null,
    "timezone": "Europe/Paris",
    "translations": {}
  },
  {
    "id": 45224,
    "name": "Pornichet",
    "state_id": 5012,
    "state_code": "44",
    "country_id": 75,
    "country_code": "FR",
    "latitude": "47.26682000",
    "longitude": "-2.33794000",
    "native": null,
    "timezone": "Europe/Paris",
    "translations": {}
  },
  {
    "id": 45230,
    "name": "Port-Saint-Père",
    "state_id": 5012,
    "state_code": "44",
    "country_id": 75,
    "country_code": "FR",
    "latitude": "47.13294000",
    "longitude": "-1.74850000",
    "native": null,
    "timezone": "Europe/Paris",
    "translations": {}
  },
  {
    "id": 45308,
    "name": "Préfailles",
    "state_id": 5012,
    "state_code": "44",
    "country_id": 75,
    "country_code": "FR",
    "latitude": "47.12839000",
    "longitude": "-2.21693000",
    "native": null,
    "timezone": "Europe/Paris",
    "translations": {}
  },
  {
    "id": 45289,
    "name": "Prinquiau",
    "state_id": 5012,
    "state_code": "44",
    "country_id": 75,
    "country_code": "FR",
    "latitude": "47.36215000",
    "longitude": "-2.00952000",
    "native": null,
    "timezone": "Europe/Paris",
    "translations": {}
  },
  {
    "id": 45388,
    "name": "Quilly",
    "state_id": 5012,
    "state_code": "44",
    "country_id": 75,
    "country_code": "FR",
    "latitude": "47.46131000",
    "longitude": "-1.95274000",
    "native": null,
    "timezone": "Europe/Paris",
    "translations": {}
  },
  {
    "id": 45453,
    "name": "Remouillé",
    "state_id": 5012,
    "state_code": "44",
    "country_id": 75,
    "country_code": "FR",
    "latitude": "47.05587000",
    "longitude": "-1.37682000",
    "native": null,
    "timezone": "Europe/Paris",
    "translations": {}
  },
  {
    "id": 45482,
    "name": "Rezé",
    "state_id": 5012,
    "state_code": "44",
    "country_id": 75,
    "country_code": "FR",
    "latitude": "47.18144000",
    "longitude": "-1.54965000",
    "native": null,
    "timezone": "Europe/Paris",
    "translations": {}
  },
  {
    "id": 45485,
    "name": "Riaillé",
    "state_id": 5012,
    "state_code": "44",
    "country_id": 75,
    "country_code": "FR",
    "latitude": "47.51797000",
    "longitude": "-1.29404000",
    "native": null,
    "timezone": "Europe/Paris",
    "translations": {}
  },
  {
    "id": 45615,
    "name": "Rouans",
    "state_id": 5012,
    "state_code": "44",
    "country_id": 75,
    "country_code": "FR",
    "latitude": "47.18321000",
    "longitude": "-1.85929000",
    "native": null,
    "timezone": "Europe/Paris",
    "translations": {}
  },
  {
    "id": 45625,
    "name": "Rougé",
    "state_id": 5012,
    "state_code": "44",
    "country_id": 75,
    "country_code": "FR",
    "latitude": "47.78367000",
    "longitude": "-1.44763000",
    "native": null,
    "timezone": "Europe/Paris",
    "translations": {}
  },
  {
    "id": 45711,
    "name": "Saffré",
    "state_id": 5012,
    "state_code": "44",
    "country_id": 75,
    "country_code": "FR",
    "latitude": "47.50143000",
    "longitude": "-1.57856000",
    "native": null,
    "timezone": "Europe/Paris",
    "translations": {}
  },
  {
    "id": 161972,
    "name": "Saint-Aignan-Grandlieu",
    "state_id": 5012,
    "state_code": "44",
    "country_id": 75,
    "country_code": "FR",
    "latitude": "47.12960000",
    "longitude": "-1.61910000",
    "native": null,
    "timezone": "Europe/Paris",
    "translations": {}
  },
  {
    "id": 45762,
    "name": "Saint-André-des-Eaux",
    "state_id": 5012,
    "state_code": "44",
    "country_id": 75,
    "country_code": "FR",
    "latitude": "47.31461000",
    "longitude": "-2.31105000",
    "native": null,
    "timezone": "Europe/Paris",
    "translations": {}
  },
  {
    "id": 45784,
    "name": "Saint-Aubin-des-Châteaux",
    "state_id": 5012,
    "state_code": "44",
    "country_id": 75,
    "country_code": "FR",
    "latitude": "47.72047000",
    "longitude": "-1.48876000",
    "native": null,
    "timezone": "Europe/Paris",
    "translations": {}
  },
  {
    "id": 45823,
    "name": "Saint-Brevin-les-Pins",
    "state_id": 5012,
    "state_code": "44",
    "country_id": 75,
    "country_code": "FR",
    "latitude": "47.25000000",
    "longitude": "-2.16667000",
    "native": null,
    "timezone": "Europe/Paris",
    "translations": {}
  },
  {
    "id": 161978,
    "name": "Saint-Colomban",
    "state_id": 5012,
    "state_code": "44",
    "country_id": 75,
    "country_code": "FR",
    "latitude": "47.01750000",
    "longitude": "-1.55260000",
    "native": null,
    "timezone": "Europe/Paris",
    "translations": {}
  },
  {
    "id": 45877,
    "name": "Saint-Crespin-sur-Moine",
    "state_id": 5012,
    "state_code": "44",
    "country_id": 75,
    "country_code": "FR",
    "latitude": "47.09968000",
    "longitude": "-1.18651000",
    "native": null,
    "timezone": "Europe/Paris",
    "translations": {}
  },
  {
    "id": 46647,
    "name": "Saint-Étienne-de-Mer-Morte",
    "state_id": 5012,
    "state_code": "44",
    "country_id": 75,
    "country_code": "FR",
    "latitude": "46.92848000",
    "longitude": "-1.74272000",
    "native": null,
    "timezone": "Europe/Paris",
    "translations": {}
  },
  {
    "id": 46648,
    "name": "Saint-Étienne-de-Montluc",
    "state_id": 5012,
    "state_code": "44",
    "country_id": 75,
    "country_code": "FR",
    "latitude": "47.27690000",
    "longitude": "-1.78072000",
    "native": null,
    "timezone": "Europe/Paris",
    "translations": {}
  },
  {
    "id": 45931,
    "name": "Saint-Fiacre-sur-Maine",
    "state_id": 5012,
    "state_code": "44",
    "country_id": 75,
    "country_code": "FR",
    "latitude": "47.14255000",
    "longitude": "-1.41714000",
    "native": null,
    "timezone": "Europe/Paris",
    "translations": {}
  },
  {
    "id": 45934,
    "name": "Saint-Florent-le-Vieil",
    "state_id": 5012,
    "state_code": "44",
    "country_id": 75,
    "country_code": "FR",
    "latitude": "47.36069000",
    "longitude": "-1.01515000",
    "native": null,
    "timezone": "Europe/Paris",
    "translations": {}
  },
  {
    "id": 46046,
    "name": "Saint-Géréon",
    "state_id": 5012,
    "state_code": "44",
    "country_id": 75,
    "country_code": "FR",
    "latitude": "47.36774000",
    "longitude": "-1.20262000",
    "native": null,
    "timezone": "Europe/Paris",
    "translations": {}
  },
  {
    "id": 46021,
    "name": "Saint-Germain-sur-Moine",
    "state_id": 5012,
    "state_code": "44",
    "country_id": 75,
    "country_code": "FR",
    "latitude": "47.11746000",
    "longitude": "-1.12223000",
    "native": null,
    "timezone": "Europe/Paris",
    "translations": {}
  },
  {
    "id": 46033,
    "name": "Saint-Gildas-des-Bois",
    "state_id": 5012,
    "state_code": "44",
    "country_id": 75,
    "country_code": "FR",
    "latitude": "47.51622000",
    "longitude": "-2.03659000",
    "native": null,
    "timezone": "Europe/Paris",
    "translations": {}
  },
  {
    "id": 46048,
    "name": "Saint-Herblain",
    "state_id": 5012,
    "state_code": "44",
    "country_id": 75,
    "country_code": "FR",
    "latitude": "47.21765000",
    "longitude": "-1.64841000",
    "native": null,
    "timezone": "Europe/Paris",
    "translations": {}
  },
  {
    "id": 46049,
    "name": "Saint-Herblon",
    "state_id": 5012,
    "state_code": "44",
    "country_id": 75,
    "country_code": "FR",
    "latitude": "47.40786000",
    "longitude": "-1.09738000",
    "native": null,
    "timezone": "Europe/Paris",
    "translations": {}
  },
  {
    "id": 46055,
    "name": "Saint-Hilaire-de-Chaléons",
    "state_id": 5012,
    "state_code": "44",
    "country_id": 75,
    "country_code": "FR",
    "latitude": "47.10196000",
    "longitude": "-1.86690000",
    "native": null,
    "timezone": "Europe/Paris",
    "translations": {}
  },
  {
    "id": 46056,
    "name": "Saint-Hilaire-de-Clisson",
    "state_id": 5012,
    "state_code": "44",
    "country_id": 75,
    "country_code": "FR",
    "latitude": "47.06222000",
    "longitude": "-1.30778000",
    "native": null,
    "timezone": "Europe/Paris",
    "translations": {}
  },
  {
    "id": 46057,
    "name": "Saint-Hilaire-de-Loulay",
    "state_id": 5012,
    "state_code": "44",
    "country_id": 75,
    "country_code": "FR",
    "latitude": "47.00190000",
    "longitude": "-1.33079000",
    "native": null,
    "timezone": "Europe/Paris",
    "translations": {}
  },
  {
    "id": 46087,
    "name": "Saint-Jean-de-Boiseau",
    "state_id": 5012,
    "state_code": "44",
    "country_id": 75,
    "country_code": "FR",
    "latitude": "47.19315000",
    "longitude": "-1.72340000",
    "native": null,
    "timezone": "Europe/Paris",
    "translations": {}
  },
  {
    "id": 46124,
    "name": "Saint-Joachim",
    "state_id": 5012,
    "state_code": "44",
    "country_id": 75,
    "country_code": "FR",
    "latitude": "47.38349000",
    "longitude": "-2.19239000",
    "native": null,
    "timezone": "Europe/Paris",
    "translations": {}
  },
  {
    "id": 46139,
    "name": "Saint-Julien-de-Concelles",
    "state_id": 5012,
    "state_code": "44",
    "country_id": 75,
    "country_code": "FR",
    "latitude": "47.25285000",
    "longitude": "-1.38428000",
    "native": null,
    "timezone": "Europe/Paris",
    "translations": {}
  },
  {
    "id": 46182,
    "name": "Saint-Laurent-des-Autels",
    "state_id": 5012,
    "state_code": "44",
    "country_id": 75,
    "country_code": "FR",
    "latitude": "47.28524000",
    "longitude": "-1.18881000",
    "native": null,
    "timezone": "Europe/Paris",
    "translations": {}
  },
  {
    "id": 46215,
    "name": "Saint-Léger-les-Vignes",
    "state_id": 5012,
    "state_code": "44",
    "country_id": 75,
    "country_code": "FR",
    "latitude": "47.13587000",
    "longitude": "-1.73060000",
    "native": null,
    "timezone": "Europe/Paris",
    "translations": {}
  },
  {
    "id": 46203,
    "name": "Saint-Lumine-de-Clisson",
    "state_id": 5012,
    "state_code": "44",
    "country_id": 75,
    "country_code": "FR",
    "latitude": "47.08413000",
    "longitude": "-1.33524000",
    "native": null,
    "timezone": "Europe/Paris",
    "translations": {}
  },
  {
    "id": 46204,
    "name": "Saint-Lumine-de-Coutais",
    "state_id": 5012,
    "state_code": "44",
    "country_id": 75,
    "country_code": "FR",
    "latitude": "47.05399000",
    "longitude": "-1.72777000",
    "native": null,
    "timezone": "Europe/Paris",
    "translations": {}
  },
  {
    "id": 46207,
    "name": "Saint-Lyphard",
    "state_id": 5012,
    "state_code": "44",
    "country_id": 75,
    "country_code": "FR",
    "latitude": "47.39822000",
    "longitude": "-2.30642000",
    "native": null,
    "timezone": "Europe/Paris",
    "translations": {}
  },
  {
    "id": 46230,
    "name": "Saint-Malo-de-Guersac",
    "state_id": 5012,
    "state_code": "44",
    "country_id": 75,
    "country_code": "FR",
    "latitude": "47.35345000",
    "longitude": "-2.17773000",
    "native": null,
    "timezone": "Europe/Paris",
    "translations": {}
  },
  {
    "id": 46254,
    "name": "Saint-Mars-de-Coutais",
    "state_id": 5012,
    "state_code": "44",
    "country_id": 75,
    "country_code": "FR",
    "latitude": "47.11153000",
    "longitude": "-1.73437000",
    "native": null,
    "timezone": "Europe/Paris",
    "translations": {}
  },
  {
    "id": 46255,
    "name": "Saint-Mars-du-Désert",
    "state_id": 5012,
    "state_code": "44",
    "country_id": 75,
    "country_code": "FR",
    "latitude": "47.36560000",
    "longitude": "-1.40678000",
    "native": null,
    "timezone": "Europe/Paris",
    "translations": {}
  },
  {
    "id": 46258,
    "name": "Saint-Mars-la-Jaille",
    "state_id": 5012,
    "state_code": "44",
    "country_id": 75,
    "country_code": "FR",
    "latitude": "47.52566000",
    "longitude": "-1.18483000",
    "native": null,
    "timezone": "Europe/Paris",
    "translations": {}
  },
  {
    "id": 46354,
    "name": "Saint-Même-le-Tenu",
    "state_id": 5012,
    "state_code": "44",
    "country_id": 75,
    "country_code": "FR",
    "latitude": "47.02005000",
    "longitude": "-1.79459000",
    "native": null,
    "timezone": "Europe/Paris",
    "translations": {}
  },
  {
    "id": 46335,
    "name": "Saint-Michel-Chef-Chef",
    "state_id": 5012,
    "state_code": "44",
    "country_id": 75,
    "country_code": "FR",
    "latitude": "47.18072000",
    "longitude": "-2.14869000",
    "native": null,
    "timezone": "Europe/Paris",
    "translations": {}
  },
  {
    "id": 46345,
    "name": "Saint-Molf",
    "state_id": 5012,
    "state_code": "44",
    "country_id": 75,
    "country_code": "FR",
    "latitude": "47.39167000",
    "longitude": "-2.42357000",
    "native": null,
    "timezone": "Europe/Paris",
    "translations": {}
  },
  {
    "id": 46365,
    "name": "Saint-Nicolas-de-Redon",
    "state_id": 5012,
    "state_code": "44",
    "country_id": 75,
    "country_code": "FR",
    "latitude": "47.64343000",
    "longitude": "-2.06305000",
    "native": null,
    "timezone": "Europe/Paris",
    "translations": {}
  },
  {
    "id": 46478,
    "name": "Saint-Père-en-Retz",
    "state_id": 5012,
    "state_code": "44",
    "country_id": 75,
    "country_code": "FR",
    "latitude": "47.20559000",
    "longitude": "-2.04095000",
    "native": null,
    "timezone": "Europe/Paris",
    "translations": {}
  },
  {
    "id": 46424,
    "name": "Saint-Philbert-de-Grand-Lieu",
    "state_id": 5012,
    "state_code": "44",
    "country_id": 75,
    "country_code": "FR",
    "latitude": "47.03580000",
    "longitude": "-1.64120000",
    "native": null,
    "timezone": "Europe/Paris",
    "translations": {}
  },
  {
    "id": 46578,
    "name": "Saint-Sébastien-sur-Loire",
    "state_id": 5012,
    "state_code": "44",
    "country_id": 75,
    "country_code": "FR",
    "latitude": "47.20768000",
    "longitude": "-1.50332000",
    "native": null,
    "timezone": "Europe/Paris",
    "translations": {}
  },
  {
    "id": 46606,
    "name": "Saint-Viaud",
    "state_id": 5012,
    "state_code": "44",
    "country_id": 75,
    "country_code": "FR",
    "latitude": "47.25619000",
    "longitude": "-2.01833000",
    "native": null,
    "timezone": "Europe/Paris",
    "translations": {}
  },
  {
    "id": 46616,
    "name": "Saint-Vincent-des-Landes",
    "state_id": 5012,
    "state_code": "44",
    "country_id": 75,
    "country_code": "FR",
    "latitude": "47.65695000",
    "longitude": "-1.49572000",
    "native": null,
    "timezone": "Europe/Paris",
    "translations": {}
  },
  {
    "id": 46665,
    "name": "Sainte-Anne-sur-Brivet",
    "state_id": 5012,
    "state_code": "44",
    "country_id": 75,
    "country_code": "FR",
    "latitude": "47.46071000",
    "longitude": "-2.00415000",
    "native": null,
    "timezone": "Europe/Paris",
    "translations": {}
  },
  {
    "id": 46703,
    "name": "Sainte-Luce-sur-Loire",
    "state_id": 5012,
    "state_code": "44",
    "country_id": 75,
    "country_code": "FR",
    "latitude": "47.25381000",
    "longitude": "-1.48430000",
    "native": null,
    "timezone": "Europe/Paris",
    "translations": {}
  },
  {
    "id": 46721,
    "name": "Sainte-Pazanne",
    "state_id": 5012,
    "state_code": "44",
    "country_id": 75,
    "country_code": "FR",
    "latitude": "47.10301000",
    "longitude": "-1.80950000",
    "native": null,
    "timezone": "Europe/Paris",
    "translations": {}
  },
  {
    "id": 46724,
    "name": "Sainte-Reine-de-Bretagne",
    "state_id": 5012,
    "state_code": "44",
    "country_id": 75,
    "country_code": "FR",
    "latitude": "47.44131000",
    "longitude": "-2.19238000",
    "native": null,
    "timezone": "Europe/Paris",
    "translations": {}
  },
  {
    "id": 46857,
    "name": "Sautron",
    "state_id": 5012,
    "state_code": "44",
    "country_id": 75,
    "country_code": "FR",
    "latitude": "47.26274000",
    "longitude": "-1.67107000",
    "native": null,
    "timezone": "Europe/Paris",
    "translations": {}
  },
  {
    "id": 46871,
    "name": "Savenay",
    "state_id": 5012,
    "state_code": "44",
    "country_id": 75,
    "country_code": "FR",
    "latitude": "47.36072000",
    "longitude": "-1.94215000",
    "native": null,
    "timezone": "Europe/Paris",
    "translations": {}
  },
  {
    "id": 47149,
    "name": "Sévérac",
    "state_id": 5012,
    "state_code": "44",
    "country_id": 75,
    "country_code": "FR",
    "latitude": "47.55008000",
    "longitude": "-2.07496000",
    "native": null,
    "timezone": "Europe/Paris",
    "translations": {}
  },
  {
    "id": 47005,
    "name": "Sion-les-Mines",
    "state_id": 5012,
    "state_code": "44",
    "country_id": 75,
    "country_code": "FR",
    "latitude": "47.73476000",
    "longitude": "-1.59190000",
    "native": null,
    "timezone": "Europe/Paris",
    "translations": {}
  },
  {
    "id": 47062,
    "name": "Soudan",
    "state_id": 5012,
    "state_code": "44",
    "country_id": 75,
    "country_code": "FR",
    "latitude": "47.73777000",
    "longitude": "-1.30566000",
    "native": null,
    "timezone": "Europe/Paris",
    "translations": {}
  },
  {
    "id": 47112,
    "name": "Sucé-sur-Erdre",
    "state_id": 5012,
    "state_code": "44",
    "country_id": 75,
    "country_code": "FR",
    "latitude": "47.33333000",
    "longitude": "-1.53333000",
    "native": null,
    "timezone": "Europe/Paris",
    "translations": {}
  },
  {
    "id": 47194,
    "name": "Teillé",
    "state_id": 5012,
    "state_code": "44",
    "country_id": 75,
    "country_code": "FR",
    "latitude": "47.46170000",
    "longitude": "-1.27810000",
    "native": null,
    "timezone": "Europe/Paris",
    "translations": {}
  },
  {
    "id": 47255,
    "name": "Thouaré-sur-Loire",
    "state_id": 5012,
    "state_code": "44",
    "country_id": 75,
    "country_code": "FR",
    "latitude": "47.26893000",
    "longitude": "-1.43834000",
    "native": null,
    "timezone": "Europe/Paris",
    "translations": {}
  },
  {
    "id": 47282,
    "name": "Tillières",
    "state_id": 5012,
    "state_code": "44",
    "country_id": 75,
    "country_code": "FR",
    "latitude": "47.14397000",
    "longitude": "-1.16334000",
    "native": null,
    "timezone": "Europe/Paris",
    "translations": {}
  },
  {
    "id": 47343,
    "name": "Touvois",
    "state_id": 5012,
    "state_code": "44",
    "country_id": 75,
    "country_code": "FR",
    "latitude": "46.90208000",
    "longitude": "-1.68333000",
    "native": null,
    "timezone": "Europe/Paris",
    "translations": {}
  },
  {
    "id": 47355,
    "name": "Treillières",
    "state_id": 5012,
    "state_code": "44",
    "country_id": 75,
    "country_code": "FR",
    "latitude": "47.33060000",
    "longitude": "-1.61918000",
    "native": null,
    "timezone": "Europe/Paris",
    "translations": {}
  },
  {
    "id": 47373,
    "name": "Trignac",
    "state_id": 5012,
    "state_code": "44",
    "country_id": 75,
    "country_code": "FR",
    "latitude": "47.31809000",
    "longitude": "-2.18895000",
    "native": null,
    "timezone": "Europe/Paris",
    "translations": {}
  },
  {
    "id": 162053,
    "name": "Vair-sur-Loire",
    "state_id": 5012,
    "state_code": "44",
    "country_id": 75,
    "country_code": "FR",
    "latitude": "47.40190000",
    "longitude": "-1.10950000",
    "native": null,
    "timezone": "Europe/Paris",
    "translations": {}
  },
  {
    "id": 47489,
    "name": "Vallet",
    "state_id": 5012,
    "state_code": "44",
    "country_id": 75,
    "country_code": "FR",
    "latitude": "47.16227000",
    "longitude": "-1.26607000",
    "native": null,
    "timezone": "Europe/Paris",
    "translations": {}
  },
  {
    "id": 162081,
    "name": "Vallons-de-l'Erdre",
    "state_id": 5012,
    "state_code": "44",
    "country_id": 75,
    "country_code": "FR",
    "latitude": "47.53490000",
    "longitude": "-1.14140000",
    "native": null,
    "timezone": "Europe/Paris",
    "translations": {}
  },
  {
    "id": 47507,
    "name": "Varades",
    "state_id": 5012,
    "state_code": "44",
    "country_id": 75,
    "country_code": "FR",
    "latitude": "47.38458000",
    "longitude": "-1.02842000",
    "native": null,
    "timezone": "Europe/Paris",
    "translations": {}
  },
  {
    "id": 47549,
    "name": "Vay",
    "state_id": 5012,
    "state_code": "44",
    "country_id": 75,
    "country_code": "FR",
    "latitude": "47.55466000",
    "longitude": "-1.70095000",
    "native": null,
    "timezone": "Europe/Paris",
    "translations": {}
  },
  {
    "id": 47642,
    "name": "Vertou",
    "state_id": 5012,
    "state_code": "44",
    "country_id": 75,
    "country_code": "FR",
    "latitude": "47.16869000",
    "longitude": "-1.46929000",
    "native": null,
    "timezone": "Europe/Paris",
    "translations": {}
  },
  {
    "id": 47678,
    "name": "Vieillevigne",
    "state_id": 5012,
    "state_code": "44",
    "country_id": 75,
    "country_code": "FR",
    "latitude": "46.97214000",
    "longitude": "-1.43405000",
    "native": null,
    "timezone": "Europe/Paris",
    "translations": {}
  },
  {
    "id": 47696,
    "name": "Vigneux-de-Bretagne",
    "state_id": 5012,
    "state_code": "44",
    "country_id": 75,
    "country_code": "FR",
    "latitude": "47.32547000",
    "longitude": "-1.73678000",
    "native": null,
    "timezone": "Europe/Paris",
    "translations": {}
  },
  {
    "id": 162095,
    "name": "Villeneuve-en-Retz",
    "state_id": 5012,
    "state_code": "44",
    "country_id": 75,
    "country_code": "FR",
    "latitude": "47.03500000",
    "longitude": "-1.90190000",
    "native": null,
    "timezone": "Europe/Paris",
    "translations": {}
  },
  {
    "id": 47921,
    "name": "Vue",
    "state_id": 5012,
    "state_code": "44",
    "country_id": 75,
    "country_code": "FR",
    "latitude": "47.19953000",
    "longitude": "-1.87750000",
    "native": null,
    "timezone": "Europe/Paris",
    "translations": {}
  }
]