[
  {
    "id": 39264,
    "name": "Ahetze",
    "state_id": 5032,
    "state_code": "64",
    "country_id": 75,
    "country_code": "FR",
    "latitude": "43.40432000",
    "longitude": "-1.57191000",
    "native": null,
    "timezone": "Europe/Paris",
    "translations": {}
  },
  {
    "id": 39403,
    "name": "Anglet",
    "state_id": 5032,
    "state_code": "64",
    "country_id": 75,
    "country_code": "FR",
    "latitude": "43.47664000",
    "longitude": "-1.51346000",
    "native": null,
    "timezone": "Europe/Paris",
    "translations": {}
  },
  {
    "id": 39450,
    "name": "Arbonne",
    "state_id": 5032,
    "state_code": "64",
    "country_id": 75,
    "country_code": "FR",
    "latitude": "43.43248000",
    "longitude": "-1.55118000",
    "native": null,
    "timezone": "Europe/Paris",
    "translations": {}
  },
  {
    "id": 39453,
    "name": "Arbus",
    "state_id": 5032,
    "state_code": "64",
    "country_id": 75,
    "country_code": "FR",
    "latitude": "43.33333000",
    "longitude": "-0.50000000",
    "native": null,
    "timezone": "Europe/Paris",
    "translations": {}
  },
  {
    "id": 39458,
    "name": "Arcangues",
    "state_id": 5032,
    "state_code": "64",
    "country_id": 75,
    "country_code": "FR",
    "latitude": "43.43124000",
    "longitude": "-1.52237000",
    "native": null,
    "timezone": "Europe/Paris",
    "translations": {}
  },
  {
    "id": 39472,
    "name": "Arette",
    "state_id": 5032,
    "state_code": "64",
    "country_id": 75,
    "country_code": "FR",
    "latitude": "43.10000000",
    "longitude": "-0.71667000",
    "native": null,
    "timezone": "Europe/Paris",
    "translations": {}
  },
  {
    "id": 39523,
    "name": "Arthez-de-Béarn",
    "state_id": 5032,
    "state_code": "64",
    "country_id": 75,
    "country_code": "FR",
    "latitude": "43.46667000",
    "longitude": "-0.60000000",
    "native": null,
    "timezone": "Europe/Paris",
    "translations": {}
  },
  {
    "id": 39527,
    "name": "Artiguelouve",
    "state_id": 5032,
    "state_code": "64",
    "country_id": 75,
    "country_code": "FR",
    "latitude": "43.31667000",
    "longitude": "-0.46667000",
    "native": null,
    "timezone": "Europe/Paris",
    "translations": {}
  },
  {
    "id": 39529,
    "name": "Artix",
    "state_id": 5032,
    "state_code": "64",
    "country_id": 75,
    "country_code": "FR",
    "latitude": "43.39667000",
    "longitude": "-0.57256000",
    "native": null,
    "timezone": "Europe/Paris",
    "translations": {}
  },
  {
    "id": 39531,
    "name": "Arudy",
    "state_id": 5032,
    "state_code": "64",
    "country_id": 75,
    "country_code": "FR",
    "latitude": "43.10640000",
    "longitude": "-0.43333000",
    "native": null,
    "timezone": "Europe/Paris",
    "translations": {}
  },
  {
    "id": 39540,
    "name": "Ascain",
    "state_id": 5032,
    "state_code": "64",
    "country_id": 75,
    "country_code": "FR",
    "latitude": "43.34521000",
    "longitude": "-1.62073000",
    "native": null,
    "timezone": "Europe/Paris",
    "translations": {}
  },
  {
    "id": 39552,
    "name": "Assat",
    "state_id": 5032,
    "state_code": "64",
    "country_id": 75,
    "country_code": "FR",
    "latitude": "43.25000000",
    "longitude": "-0.30000000",
    "native": null,
    "timezone": "Europe/Paris",
    "translations": {}
  },
  {
    "id": 39553,
    "name": "Asson",
    "state_id": 5032,
    "state_code": "64",
    "country_id": 75,
    "country_code": "FR",
    "latitude": "43.15000000",
    "longitude": "-0.25000000",
    "native": null,
    "timezone": "Europe/Paris",
    "translations": {}
  },
  {
    "id": 39780,
    "name": "Bardos",
    "state_id": 5032,
    "state_code": "64",
    "country_id": 75,
    "country_code": "FR",
    "latitude": "43.47392000",
    "longitude": "-1.20347000",
    "native": null,
    "timezone": "Europe/Paris",
    "translations": {}
  },
  {
    "id": 39803,
    "name": "Bassussarry",
    "state_id": 5032,
    "state_code": "64",
    "country_id": 75,
    "country_code": "FR",
    "latitude": "43.44272000",
    "longitude": "-1.51647000",
    "native": null,
    "timezone": "Europe/Paris",
    "translations": {}
  },
  {
    "id": 39824,
    "name": "Bayonne",
    "state_id": 5032,
    "state_code": "64",
    "country_id": 75,
    "country_code": "FR",
    "latitude": "43.49257000",
    "longitude": "-1.47624000",
    "native": null,
    "timezone": "Europe/Paris",
    "translations": {}
  },
  {
    "id": 40427,
    "name": "Bénéjacq",
    "state_id": 5032,
    "state_code": "64",
    "country_id": 75,
    "country_code": "FR",
    "latitude": "43.20000000",
    "longitude": "-0.21667000",
    "native": null,
    "timezone": "Europe/Paris",
    "translations": {}
  },
  {
    "id": 40006,
    "name": "Biarritz",
    "state_id": 5032,
    "state_code": "64",
    "country_id": 75,
    "country_code": "FR",
    "latitude": "43.48012000",
    "longitude": "-1.55558000",
    "native": null,
    "timezone": "Europe/Paris",
    "translations": {}
  },
  {
    "id": 40009,
    "name": "Bidache",
    "state_id": 5032,
    "state_code": "64",
    "country_id": 75,
    "country_code": "FR",
    "latitude": "43.48299000",
    "longitude": "-1.14121000",
    "native": null,
    "timezone": "Europe/Paris",
    "translations": {}
  },
  {
    "id": 40010,
    "name": "Bidart",
    "state_id": 5032,
    "state_code": "64",
    "country_id": 75,
    "country_code": "FR",
    "latitude": "43.43760000",
    "longitude": "-1.59127000",
    "native": null,
    "timezone": "Europe/Paris",
    "translations": {}
  },
  {
    "id": 40025,
    "name": "Billère",
    "state_id": 5032,
    "state_code": "64",
    "country_id": 75,
    "country_code": "FR",
    "latitude": "43.30000000",
    "longitude": "-0.40000000",
    "native": null,
    "timezone": "Europe/Paris",
    "translations": {}
  },
  {
    "id": 40038,
    "name": "Bizanos",
    "state_id": 5032,
    "state_code": "64",
    "country_id": 75,
    "country_code": "FR",
    "latitude": "43.28333000",
    "longitude": "-0.35000000",
    "native": null,
    "timezone": "Europe/Paris",
    "translations": {}
  },
  {
    "id": 40079,
    "name": "Boeil-Bezing",
    "state_id": 5032,
    "state_code": "64",
    "country_id": 75,
    "country_code": "FR",
    "latitude": "43.21667000",
    "longitude": "-0.26667000",
    "native": null,
    "timezone": "Europe/Paris",
    "translations": {}
  },
  {
    "id": 40137,
    "name": "Bordes",
    "state_id": 5032,
    "state_code": "64",
    "country_id": 75,
    "country_code": "FR",
    "latitude": "43.23333000",
    "longitude": "-0.28333000",
    "native": null,
    "timezone": "Europe/Paris",
    "translations": {}
  },
  {
    "id": 40145,
    "name": "Bosdarros",
    "state_id": 5032,
    "state_code": "64",
    "country_id": 75,
    "country_code": "FR",
    "latitude": "43.21667000",
    "longitude": "-0.36667000",
    "native": null,
    "timezone": "Europe/Paris",
    "translations": {}
  },
  {
    "id": 40150,
    "name": "Boucau",
    "state_id": 5032,
    "state_code": "64",
    "country_id": 75,
    "country_code": "FR",
    "latitude": "43.52770000",
    "longitude": "-1.46556000",
    "native": null,
    "timezone": "Europe/Paris",
    "translations": {}
  },
  {
    "id": 40324,
    "name": "Briscous",
    "state_id": 5032,
    "state_code": "64",
    "country_id": 75,
    "country_code": "FR",
    "latitude": "43.45958000",
    "longitude": "-1.33353000",
    "native": null,
    "timezone": "Europe/Paris",
    "translations": {}
  },
  {
    "id": 40391,
    "name": "Buros",
    "state_id": 5032,
    "state_code": "64",
    "country_id": 75,
    "country_code": "FR",
    "latitude": "43.35000000",
    "longitude": "-0.30000000",
    "native": null,
    "timezone": "Europe/Paris",
    "translations": {}
  },
  {
    "id": 40488,
    "name": "Cambo-les-Bains",
    "state_id": 5032,
    "state_code": "64",
    "country_id": 75,
    "country_code": "FR",
    "latitude": "43.35851000",
    "longitude": "-1.40105000",
    "native": null,
    "timezone": "Europe/Paris",
    "translations": {}
  },
  {
    "id": 41014,
    "name": "Chéraute",
    "state_id": 5032,
    "state_code": "64",
    "country_id": 75,
    "country_code": "FR",
    "latitude": "43.23096000",
    "longitude": "-0.86831000",
    "native": null,
    "timezone": "Europe/Paris",
    "translations": {}
  },
  {
    "id": 41019,
    "name": "Ciboure",
    "state_id": 5032,
    "state_code": "64",
    "country_id": 75,
    "country_code": "FR",
    "latitude": "43.38287000",
    "longitude": "-1.67600000",
    "native": null,
    "timezone": "Europe/Paris",
    "translations": {}
  },
  {
    "id": 41076,
    "name": "Coarraze",
    "state_id": 5032,
    "state_code": "64",
    "country_id": 75,
    "country_code": "FR",
    "latitude": "43.16930430",
    "longitude": "-0.23135270",
    "native": null,
    "timezone": "Europe/Paris",
    "translations": {}
  },
  {
    "id": 41451,
    "name": "Denguin",
    "state_id": 5032,
    "state_code": "64",
    "country_id": 75,
    "country_code": "FR",
    "latitude": "43.36667000",
    "longitude": "-0.50000000",
    "native": null,
    "timezone": "Europe/Paris",
    "translations": {}
  },
  {
    "id": 41638,
    "name": "Département des Pyrénées-Atlantiques",
    "state_id": 5032,
    "state_code": "64",
    "country_id": 75,
    "country_code": "FR",
    "latitude": "43.23587000",
    "longitude": "-0.81642000",
    "native": null,
    "timezone": "Europe/Paris",
    "translations": {}
  },
  {
    "id": 41718,
    "name": "Espelette",
    "state_id": 5032,
    "state_code": "64",
    "country_id": 75,
    "country_code": "FR",
    "latitude": "43.34015000",
    "longitude": "-1.44737000",
    "native": null,
    "timezone": "Europe/Paris",
    "translations": {}
  },
  {
    "id": 42027,
    "name": "Gan",
    "state_id": 5032,
    "state_code": "64",
    "country_id": 75,
    "country_code": "FR",
    "latitude": "43.23333000",
    "longitude": "-0.38333000",
    "native": null,
    "timezone": "Europe/Paris",
    "translations": {}
  },
  {
    "id": 42045,
    "name": "Garlin",
    "state_id": 5032,
    "state_code": "64",
    "country_id": 75,
    "country_code": "FR",
    "latitude": "43.55927000",
    "longitude": "-0.27321000",
    "native": null,
    "timezone": "Europe/Paris",
    "translations": {}
  },
  {
    "id": 42060,
    "name": "Gelos",
    "state_id": 5032,
    "state_code": "64",
    "country_id": 75,
    "country_code": "FR",
    "latitude": "43.28333000",
    "longitude": "-0.36667000",
    "native": null,
    "timezone": "Europe/Paris",
    "translations": {}
  },
  {
    "id": 42071,
    "name": "Ger",
    "state_id": 5032,
    "state_code": "64",
    "country_id": 75,
    "country_code": "FR",
    "latitude": "43.25000000",
    "longitude": "-0.05000000",
    "native": null,
    "timezone": "Europe/Paris",
    "translations": {}
  },
  {
    "id": 42289,
    "name": "Guéthary",
    "state_id": 5032,
    "state_code": "64",
    "country_id": 75,
    "country_code": "FR",
    "latitude": "43.42285000",
    "longitude": "-1.61073000",
    "native": null,
    "timezone": "Europe/Paris",
    "translations": {}
  },
  {
    "id": 42333,
    "name": "Hasparren",
    "state_id": 5032,
    "state_code": "64",
    "country_id": 75,
    "country_code": "FR",
    "latitude": "43.38377000",
    "longitude": "-1.30499000",
    "native": null,
    "timezone": "Europe/Paris",
    "translations": {}
  },
  {
    "id": 42367,
    "name": "Hendaye",
    "state_id": 5032,
    "state_code": "64",
    "country_id": 75,
    "country_code": "FR",
    "latitude": "43.37172000",
    "longitude": "-1.77382000",
    "native": null,
    "timezone": "Europe/Paris",
    "translations": {}
  },
  {
    "id": 42470,
    "name": "Idron",
    "state_id": 5032,
    "state_code": "64",
    "country_id": 75,
    "country_code": "FR",
    "latitude": "43.28333000",
    "longitude": "-0.31667000",
    "native": null,
    "timezone": "Europe/Paris",
    "translations": {}
  },
  {
    "id": 42475,
    "name": "Igon",
    "state_id": 5032,
    "state_code": "64",
    "country_id": 75,
    "country_code": "FR",
    "latitude": "43.15992450",
    "longitude": "-0.23278020",
    "native": null,
    "timezone": "Europe/Paris",
    "translations": {}
  },
  {
    "id": 42515,
    "name": "Itxassou",
    "state_id": 5032,
    "state_code": "64",
    "country_id": 75,
    "country_code": "FR",
    "latitude": "43.32893000",
    "longitude": "-1.40617000",
    "native": null,
    "timezone": "Europe/Paris",
    "translations": {}
  },
  {
    "id": 42594,
    "name": "Jurançon",
    "state_id": 5032,
    "state_code": "64",
    "country_id": 75,
    "country_code": "FR",
    "latitude": "43.28830000",
    "longitude": "-0.38694000",
    "native": null,
    "timezone": "Europe/Paris",
    "translations": {}
  },
  {
    "id": 42960,
    "name": "Lagor",
    "state_id": 5032,
    "state_code": "64",
    "country_id": 75,
    "country_code": "FR",
    "latitude": "43.38333000",
    "longitude": "-0.65000000",
    "native": null,
    "timezone": "Europe/Paris",
    "translations": {}
  },
  {
    "id": 42966,
    "name": "Lahonce",
    "state_id": 5032,
    "state_code": "64",
    "country_id": 75,
    "country_code": "FR",
    "latitude": "43.48248000",
    "longitude": "-1.39101000",
    "native": null,
    "timezone": "Europe/Paris",
    "translations": {}
  },
  {
    "id": 43079,
    "name": "Larressore",
    "state_id": 5032,
    "state_code": "64",
    "country_id": 75,
    "country_code": "FR",
    "latitude": "43.36792000",
    "longitude": "-1.43976000",
    "native": null,
    "timezone": "Europe/Paris",
    "translations": {}
  },
  {
    "id": 43081,
    "name": "Laruns",
    "state_id": 5032,
    "state_code": "64",
    "country_id": 75,
    "country_code": "FR",
    "latitude": "42.98826000",
    "longitude": "-0.42658000",
    "native": null,
    "timezone": "Europe/Paris",
    "translations": {}
  },
  {
    "id": 43086,
    "name": "Lasseube",
    "state_id": 5032,
    "state_code": "64",
    "country_id": 75,
    "country_code": "FR",
    "latitude": "43.23333000",
    "longitude": "-0.48333000",
    "native": null,
    "timezone": "Europe/Paris",
    "translations": {}
  },
  {
    "id": 43340,
    "name": "Ledeuix",
    "state_id": 5032,
    "state_code": "64",
    "country_id": 75,
    "country_code": "FR",
    "latitude": "43.21667000",
    "longitude": "-0.61667000",
    "native": null,
    "timezone": "Europe/Paris",
    "translations": {}
  },
  {
    "id": 43436,
    "name": "Lescar",
    "state_id": 5032,
    "state_code": "64",
    "country_id": 75,
    "country_code": "FR",
    "latitude": "43.33333000",
    "longitude": "-0.41667000",
    "native": null,
    "timezone": "Europe/Paris",
    "translations": {}
  },
  {
    "id": 43443,
    "name": "Lestelle-Bétharram",
    "state_id": 5032,
    "state_code": "64",
    "country_id": 75,
    "country_code": "FR",
    "latitude": "43.13333000",
    "longitude": "-0.21667000",
    "native": null,
    "timezone": "Europe/Paris",
    "translations": {}
  },
  {
    "id": 43576,
    "name": "Lons",
    "state_id": 5032,
    "state_code": "64",
    "country_id": 75,
    "country_code": "FR",
    "latitude": "43.31667000",
    "longitude": "-0.40000000",
    "native": null,
    "timezone": "Europe/Paris",
    "translations": {}
  },
  {
    "id": 43613,
    "name": "Louvie-Juzon",
    "state_id": 5032,
    "state_code": "64",
    "country_id": 75,
    "country_code": "FR",
    "latitude": "43.08646000",
    "longitude": "-0.41928000",
    "native": null,
    "timezone": "Europe/Paris",
    "translations": {}
  },
  {
    "id": 43637,
    "name": "Lucq-de-Béarn",
    "state_id": 5032,
    "state_code": "64",
    "country_id": 75,
    "country_code": "FR",
    "latitude": "43.30000000",
    "longitude": "-0.66667000",
    "native": null,
    "timezone": "Europe/Paris",
    "translations": {}
  },
  {
    "id": 43949,
    "name": "Mauléon-Licharre",
    "state_id": 5032,
    "state_code": "64",
    "country_id": 75,
    "country_code": "FR",
    "latitude": "43.22684000",
    "longitude": "-0.88038000",
    "native": null,
    "timezone": "Europe/Paris",
    "translations": {}
  },
  {
    "id": 43979,
    "name": "Mazères-Lezons",
    "state_id": 5032,
    "state_code": "64",
    "country_id": 75,
    "country_code": "FR",
    "latitude": "43.26667000",
    "longitude": "-0.35000000",
    "native": null,
    "timezone": "Europe/Paris",
    "translations": {}
  },
  {
    "id": 44097,
    "name": "Mirepeix",
    "state_id": 5032,
    "state_code": "64",
    "country_id": 75,
    "country_code": "FR",
    "latitude": "43.18333000",
    "longitude": "-0.25000000",
    "native": null,
    "timezone": "Europe/Paris",
    "translations": {}
  },
  {
    "id": 44140,
    "name": "Monein",
    "state_id": 5032,
    "state_code": "64",
    "country_id": 75,
    "country_code": "FR",
    "latitude": "43.33333000",
    "longitude": "-0.58333000",
    "native": null,
    "timezone": "Europe/Paris",
    "translations": {}
  },
  {
    "id": 44153,
    "name": "Mont",
    "state_id": 5032,
    "state_code": "64",
    "country_id": 75,
    "country_code": "FR",
    "latitude": "43.43333000",
    "longitude": "-0.65000000",
    "native": null,
    "timezone": "Europe/Paris",
    "translations": {}
  },
  {
    "id": 44177,
    "name": "Montardon",
    "state_id": 5032,
    "state_code": "64",
    "country_id": 75,
    "country_code": "FR",
    "latitude": "43.36667000",
    "longitude": "-0.35000000",
    "native": null,
    "timezone": "Europe/Paris",
    "translations": {}
  },
  {
    "id": 44187,
    "name": "Montaut",
    "state_id": 5032,
    "state_code": "64",
    "country_id": 75,
    "country_code": "FR",
    "latitude": "43.13333000",
    "longitude": "-0.20000000",
    "native": null,
    "timezone": "Europe/Paris",
    "translations": {}
  },
  {
    "id": 44356,
    "name": "Morlaas",
    "state_id": 5032,
    "state_code": "64",
    "country_id": 75,
    "country_code": "FR",
    "latitude": "43.35000000",
    "longitude": "-0.26667000",
    "native": null,
    "timezone": "Europe/Paris",
    "translations": {}
  },
  {
    "id": 44388,
    "name": "Mouguerre",
    "state_id": 5032,
    "state_code": "64",
    "country_id": 75,
    "country_code": "FR",
    "latitude": "43.46795000",
    "longitude": "-1.41824000",
    "native": null,
    "timezone": "Europe/Paris",
    "translations": {}
  },
  {
    "id": 44399,
    "name": "Mourenx",
    "state_id": 5032,
    "state_code": "64",
    "country_id": 75,
    "country_code": "FR",
    "latitude": "43.38333000",
    "longitude": "-0.60000000",
    "native": null,
    "timezone": "Europe/Paris",
    "translations": {}
  },
  {
    "id": 44520,
    "name": "Navailles-Angos",
    "state_id": 5032,
    "state_code": "64",
    "country_id": 75,
    "country_code": "FR",
    "latitude": "43.41667000",
    "longitude": "-0.33333000",
    "native": null,
    "timezone": "Europe/Paris",
    "translations": {}
  },
  {
    "id": 44521,
    "name": "Navarrenx",
    "state_id": 5032,
    "state_code": "64",
    "country_id": 75,
    "country_code": "FR",
    "latitude": "43.32135000",
    "longitude": "-0.75927000",
    "native": null,
    "timezone": "Europe/Paris",
    "translations": {}
  },
  {
    "id": 44525,
    "name": "Nay",
    "state_id": 5032,
    "state_code": "64",
    "country_id": 75,
    "country_code": "FR",
    "latitude": "43.18333000",
    "longitude": "-0.26667000",
    "native": null,
    "timezone": "Europe/Paris",
    "translations": {}
  },
  {
    "id": 44659,
    "name": "Nousty",
    "state_id": 5032,
    "state_code": "64",
    "country_id": 75,
    "country_code": "FR",
    "latitude": "43.26667000",
    "longitude": "-0.21667000",
    "native": null,
    "timezone": "Europe/Paris",
    "translations": {}
  },
  {
    "id": 44721,
    "name": "Ogeu-les-Bains",
    "state_id": 5032,
    "state_code": "64",
    "country_id": 75,
    "country_code": "FR",
    "latitude": "43.15000000",
    "longitude": "-0.50000000",
    "native": null,
    "timezone": "Europe/Paris",
    "translations": {}
  },
  {
    "id": 44739,
    "name": "Oloron-Sainte-Marie",
    "state_id": 5032,
    "state_code": "64",
    "country_id": 75,
    "country_code": "FR",
    "latitude": "43.19441000",
    "longitude": "-0.61069000",
    "native": null,
    "timezone": "Europe/Paris",
    "translations": {}
  },
  {
    "id": 44786,
    "name": "Orthez",
    "state_id": 5032,
    "state_code": "64",
    "country_id": 75,
    "country_code": "FR",
    "latitude": "43.48839000",
    "longitude": "-0.77244000",
    "native": null,
    "timezone": "Europe/Paris",
    "translations": {}
  },
  {
    "id": 44811,
    "name": "Ousse",
    "state_id": 5032,
    "state_code": "64",
    "country_id": 75,
    "country_code": "FR",
    "latitude": "43.28333000",
    "longitude": "-0.26667000",
    "native": null,
    "timezone": "Europe/Paris",
    "translations": {}
  },
  {
    "id": 44867,
    "name": "Pau",
    "state_id": 5032,
    "state_code": "64",
    "country_id": 75,
    "country_code": "FR",
    "latitude": "43.30000000",
    "longitude": "-0.36667000",
    "native": null,
    "timezone": "Europe/Paris",
    "translations": {}
  },
  {
    "id": 45133,
    "name": "Poey-de-Lescar",
    "state_id": 5032,
    "state_code": "64",
    "country_id": 75,
    "country_code": "FR",
    "latitude": "43.35000000",
    "longitude": "-0.46667000",
    "native": null,
    "timezone": "Europe/Paris",
    "translations": {}
  },
  {
    "id": 45199,
    "name": "Pontacq",
    "state_id": 5032,
    "state_code": "64",
    "country_id": 75,
    "country_code": "FR",
    "latitude": "43.18333000",
    "longitude": "-0.11667000",
    "native": null,
    "timezone": "Europe/Paris",
    "translations": {}
  },
  {
    "id": 45341,
    "name": "Puyoô",
    "state_id": 5032,
    "state_code": "64",
    "country_id": 75,
    "country_code": "FR",
    "latitude": "43.52502000",
    "longitude": "-0.91283000",
    "native": null,
    "timezone": "Europe/Paris",
    "translations": {}
  },
  {
    "id": 46643,
    "name": "Saint-Étienne-de-Baïgorry",
    "state_id": 5032,
    "state_code": "64",
    "country_id": 75,
    "country_code": "FR",
    "latitude": "43.17533000",
    "longitude": "-1.34670000",
    "native": null,
    "timezone": "Europe/Paris",
    "translations": {}
  },
  {
    "id": 46094,
    "name": "Saint-Jean-de-Luz",
    "state_id": 5032,
    "state_code": "64",
    "country_id": 75,
    "country_code": "FR",
    "latitude": "43.38871000",
    "longitude": "-1.66267000",
    "native": null,
    "timezone": "Europe/Paris",
    "translations": {}
  },
  {
    "id": 46086,
    "name": "Saint-Jean-Pied-de-Port",
    "state_id": 5032,
    "state_code": "64",
    "country_id": 75,
    "country_code": "FR",
    "latitude": "43.16363000",
    "longitude": "-1.23738000",
    "native": null,
    "timezone": "Europe/Paris",
    "translations": {}
  },
  {
    "id": 46389,
    "name": "Saint-Palais",
    "state_id": 5032,
    "state_code": "64",
    "country_id": 75,
    "country_code": "FR",
    "latitude": "43.32867000",
    "longitude": "-1.03333000",
    "native": null,
    "timezone": "Europe/Paris",
    "translations": {}
  },
  {
    "id": 46481,
    "name": "Saint-Pée-sur-Nivelle",
    "state_id": 5032,
    "state_code": "64",
    "country_id": 75,
    "country_code": "FR",
    "latitude": "43.35564000",
    "longitude": "-1.55013000",
    "native": null,
    "timezone": "Europe/Paris",
    "translations": {}
  },
  {
    "id": 162012,
    "name": "Saint-Pierre-d'Irube",
    "state_id": 5032,
    "state_code": "64",
    "country_id": 75,
    "country_code": "FR",
    "latitude": "43.46280000",
    "longitude": "-1.44470000",
    "native": null,
    "timezone": "Europe/Paris",
    "translations": {}
  },
  {
    "id": 46748,
    "name": "Salies-de-Béarn",
    "state_id": 5032,
    "state_code": "64",
    "country_id": 75,
    "country_code": "FR",
    "latitude": "43.47422000",
    "longitude": "-0.92448000",
    "native": null,
    "timezone": "Europe/Paris",
    "translations": {}
  },
  {
    "id": 46804,
    "name": "Sare",
    "state_id": 5032,
    "state_code": "64",
    "country_id": 75,
    "country_code": "FR",
    "latitude": "43.31260000",
    "longitude": "-1.58012000",
    "native": null,
    "timezone": "Europe/Paris",
    "translations": {}
  },
  {
    "id": 46858,
    "name": "Sauvagnon",
    "state_id": 5032,
    "state_code": "64",
    "country_id": 75,
    "country_code": "FR",
    "latitude": "43.40000000",
    "longitude": "-0.38333000",
    "native": null,
    "timezone": "Europe/Paris",
    "translations": {}
  },
  {
    "id": 46862,
    "name": "Sauveterre-de-Béarn",
    "state_id": 5032,
    "state_code": "64",
    "country_id": 75,
    "country_code": "FR",
    "latitude": "43.40000000",
    "longitude": "-0.93333000",
    "native": null,
    "timezone": "Europe/Paris",
    "translations": {}
  },
  {
    "id": 46967,
    "name": "Serres-Castet",
    "state_id": 5032,
    "state_code": "64",
    "country_id": 75,
    "country_code": "FR",
    "latitude": "43.38333000",
    "longitude": "-0.35000000",
    "native": null,
    "timezone": "Europe/Paris",
    "translations": {}
  },
  {
    "id": 47078,
    "name": "Soumoulou",
    "state_id": 5032,
    "state_code": "64",
    "country_id": 75,
    "country_code": "FR",
    "latitude": "43.26667000",
    "longitude": "-0.18333000",
    "native": null,
    "timezone": "Europe/Paris",
    "translations": {}
  },
  {
    "id": 47081,
    "name": "Souraïde",
    "state_id": 5032,
    "state_code": "64",
    "country_id": 75,
    "country_code": "FR",
    "latitude": "43.34154000",
    "longitude": "-1.47559000",
    "native": null,
    "timezone": "Europe/Paris",
    "translations": {}
  },
  {
    "id": 47430,
    "name": "Urcuit",
    "state_id": 5032,
    "state_code": "64",
    "country_id": 75,
    "country_code": "FR",
    "latitude": "43.48594000",
    "longitude": "-1.33668000",
    "native": null,
    "timezone": "Europe/Paris",
    "translations": {}
  },
  {
    "id": 47433,
    "name": "Urrugne",
    "state_id": 5032,
    "state_code": "64",
    "country_id": 75,
    "country_code": "FR",
    "latitude": "43.36361000",
    "longitude": "-1.69921000",
    "native": null,
    "timezone": "Europe/Paris",
    "translations": {}
  },
  {
    "id": 47434,
    "name": "Urt",
    "state_id": 5032,
    "state_code": "64",
    "country_id": 75,
    "country_code": "FR",
    "latitude": "43.49009000",
    "longitude": "-1.29744000",
    "native": null,
    "timezone": "Europe/Paris",
    "translations": {}
  },
  {
    "id": 47442,
    "name": "Ustaritz",
    "state_id": 5032,
    "state_code": "64",
    "country_id": 75,
    "country_code": "FR",
    "latitude": "43.39650000",
    "longitude": "-1.45603000",
    "native": null,
    "timezone": "Europe/Paris",
    "translations": {}
  },
  {
    "id": 47445,
    "name": "Uzein",
    "state_id": 5032,
    "state_code": "64",
    "country_id": 75,
    "country_code": "FR",
    "latitude": "43.40000000",
    "longitude": "-0.43333000",
    "native": null,
    "timezone": "Europe/Paris",
    "translations": {}
  },
  {
    "id": 47742,
    "name": "Villefranque",
    "state_id": 5032,
    "state_code": "64",
    "country_id": 75,
    "country_code": "FR",
    "latitude": "43.43631000",
    "longitude": "-1.45324000",
    "native": null,
    "timezone": "Europe/Paris",
    "translations": {}
  }
]