[
  {
    "id": 39312,
    "name": "Algolsheim",
    "state_id": 5036,
    "state_code": "68",
    "country_id": 75,
    "country_code": "FR",
    "latitude": "48.00629000",
    "longitude": "7.55945000",
    "native": null,
    "timezone": "Europe/Paris",
    "translations": {}
  },
  {
    "id": 39338,
    "name": "Altkirch",
    "state_id": 5036,
    "state_code": "68",
    "country_id": 75,
    "country_code": "FR",
    "latitude": "47.62417000",
    "longitude": "7.23954000",
    "native": null,
    "timezone": "Europe/Paris",
    "translations": {}
  },
  {
    "id": 39366,
    "name": "Ammerschwihr",
    "state_id": 5036,
    "state_code": "68",
    "country_id": 75,
    "country_code": "FR",
    "latitude": "48.12548000",
    "longitude": "7.28282000",
    "native": null,
    "timezone": "Europe/Paris",
    "translations": {}
  },
  {
    "id": 39385,
    "name": "Andolsheim",
    "state_id": 5036,
    "state_code": "68",
    "country_id": 75,
    "country_code": "FR",
    "latitude": "48.06179000",
    "longitude": "7.41637000",
    "native": null,
    "timezone": "Europe/Paris",
    "translations": {}
  },
  {
    "id": 39545,
    "name": "Aspach",
    "state_id": 5036,
    "state_code": "68",
    "country_id": 75,
    "country_code": "FR",
    "latitude": "47.64234000",
    "longitude": "7.23353000",
    "native": null,
    "timezone": "Europe/Paris",
    "translations": {}
  },
  {
    "id": 39546,
    "name": "Aspach-le-Bas",
    "state_id": 5036,
    "state_code": "68",
    "country_id": 75,
    "country_code": "FR",
    "latitude": "47.76135000",
    "longitude": "7.15104000",
    "native": null,
    "timezone": "Europe/Paris",
    "translations": {}
  },
  {
    "id": 39547,
    "name": "Aspach-le-Haut",
    "state_id": 5036,
    "state_code": "68",
    "country_id": 75,
    "country_code": "FR",
    "latitude": "47.77653000",
    "longitude": "7.13145000",
    "native": null,
    "timezone": "Europe/Paris",
    "translations": {}
  },
  {
    "id": 39749,
    "name": "Baldersheim",
    "state_id": 5036,
    "state_code": "68",
    "country_id": 75,
    "country_code": "FR",
    "latitude": "47.80136000",
    "longitude": "7.38078000",
    "native": null,
    "timezone": "Europe/Paris",
    "translations": {}
  },
  {
    "id": 39761,
    "name": "Bantzenheim",
    "state_id": 5036,
    "state_code": "68",
    "country_id": 75,
    "country_code": "FR",
    "latitude": "47.82452000",
    "longitude": "7.51445000",
    "native": null,
    "timezone": "Europe/Paris",
    "translations": {}
  },
  {
    "id": 39794,
    "name": "Bartenheim",
    "state_id": 5036,
    "state_code": "68",
    "country_id": 75,
    "country_code": "FR",
    "latitude": "47.63364000",
    "longitude": "7.47951000",
    "native": null,
    "timezone": "Europe/Paris",
    "translations": {}
  },
  {
    "id": 39806,
    "name": "Battenheim",
    "state_id": 5036,
    "state_code": "68",
    "country_id": 75,
    "country_code": "FR",
    "latitude": "47.81999000",
    "longitude": "7.38170000",
    "native": null,
    "timezone": "Europe/Paris",
    "translations": {}
  },
  {
    "id": 39941,
    "name": "Bennwihr",
    "state_id": 5036,
    "state_code": "68",
    "country_id": 75,
    "country_code": "FR",
    "latitude": "48.14456000",
    "longitude": "7.32445000",
    "native": null,
    "timezone": "Europe/Paris",
    "translations": {}
  },
  {
    "id": 39946,
    "name": "Bergheim",
    "state_id": 5036,
    "state_code": "68",
    "country_id": 75,
    "country_code": "FR",
    "latitude": "48.20540000",
    "longitude": "7.36299000",
    "native": null,
    "timezone": "Europe/Paris",
    "translations": {}
  },
  {
    "id": 39947,
    "name": "Bergholtz",
    "state_id": 5036,
    "state_code": "68",
    "country_id": 75,
    "country_code": "FR",
    "latitude": "47.91670000",
    "longitude": "7.24651000",
    "native": null,
    "timezone": "Europe/Paris",
    "translations": {}
  },
  {
    "id": 39963,
    "name": "Berrwiller",
    "state_id": 5036,
    "state_code": "68",
    "country_id": 75,
    "country_code": "FR",
    "latitude": "47.84984000",
    "longitude": "7.21922000",
    "native": null,
    "timezone": "Europe/Paris",
    "translations": {}
  },
  {
    "id": 40013,
    "name": "Biesheim",
    "state_id": 5036,
    "state_code": "68",
    "country_id": 75,
    "country_code": "FR",
    "latitude": "48.04118000",
    "longitude": "7.54474000",
    "native": null,
    "timezone": "Europe/Paris",
    "translations": {}
  },
  {
    "id": 40035,
    "name": "Bitschwiller-lès-Thann",
    "state_id": 5036,
    "state_code": "68",
    "country_id": 75,
    "country_code": "FR",
    "latitude": "47.82969000",
    "longitude": "7.07911000",
    "native": null,
    "timezone": "Europe/Paris",
    "translations": {}
  },
  {
    "id": 40068,
    "name": "Blodelsheim",
    "state_id": 5036,
    "state_code": "68",
    "country_id": 75,
    "country_code": "FR",
    "latitude": "47.88538000",
    "longitude": "7.53635000",
    "native": null,
    "timezone": "Europe/Paris",
    "translations": {}
  },
  {
    "id": 40071,
    "name": "Blotzheim",
    "state_id": 5036,
    "state_code": "68",
    "country_id": 75,
    "country_code": "FR",
    "latitude": "47.60260000",
    "longitude": "7.49654000",
    "native": null,
    "timezone": "Europe/Paris",
    "translations": {}
  },
  {
    "id": 40104,
    "name": "Bollwiller",
    "state_id": 5036,
    "state_code": "68",
    "country_id": 75,
    "country_code": "FR",
    "latitude": "47.85832000",
    "longitude": "7.26179000",
    "native": null,
    "timezone": "Europe/Paris",
    "translations": {}
  },
  {
    "id": 40347,
    "name": "Brunstatt",
    "state_id": 5036,
    "state_code": "68",
    "country_id": 75,
    "country_code": "FR",
    "latitude": "47.72131000",
    "longitude": "7.32009000",
    "native": null,
    "timezone": "Europe/Paris",
    "translations": {}
  },
  {
    "id": 161707,
    "name": "Brunstatt-Didenheim",
    "state_id": 5036,
    "state_code": "68",
    "country_id": 75,
    "country_code": "FR",
    "latitude": "47.71650000",
    "longitude": "7.31480000",
    "native": null,
    "timezone": "Europe/Paris",
    "translations": {}
  },
  {
    "id": 40377,
    "name": "Buhl",
    "state_id": 5036,
    "state_code": "68",
    "country_id": 75,
    "country_code": "FR",
    "latitude": "47.92806000",
    "longitude": "7.18719000",
    "native": null,
    "timezone": "Europe/Paris",
    "translations": {}
  },
  {
    "id": 40389,
    "name": "Burnhaupt-le-Bas",
    "state_id": 5036,
    "state_code": "68",
    "country_id": 75,
    "country_code": "FR",
    "latitude": "47.71764000",
    "longitude": "7.16148000",
    "native": null,
    "timezone": "Europe/Paris",
    "translations": {}
  },
  {
    "id": 40390,
    "name": "Burnhaupt-le-Haut",
    "state_id": 5036,
    "state_code": "68",
    "country_id": 75,
    "country_code": "FR",
    "latitude": "47.73162000",
    "longitude": "7.14437000",
    "native": null,
    "timezone": "Europe/Paris",
    "translations": {}
  },
  {
    "id": 40565,
    "name": "Carspach",
    "state_id": 5036,
    "state_code": "68",
    "country_id": 75,
    "country_code": "FR",
    "latitude": "47.61608000",
    "longitude": "7.21018000",
    "native": null,
    "timezone": "Europe/Paris",
    "translations": {}
  },
  {
    "id": 40650,
    "name": "Cernay",
    "state_id": 5036,
    "state_code": "68",
    "country_id": 75,
    "country_code": "FR",
    "latitude": "47.80970000",
    "longitude": "7.17699000",
    "native": null,
    "timezone": "Europe/Paris",
    "translations": {}
  },
  {
    "id": 40687,
    "name": "Chalampé",
    "state_id": 5036,
    "state_code": "68",
    "country_id": 75,
    "country_code": "FR",
    "latitude": "47.82019000",
    "longitude": "7.54113000",
    "native": null,
    "timezone": "Europe/Paris",
    "translations": {}
  },
  {
    "id": 41096,
    "name": "Colmar",
    "state_id": 5036,
    "state_code": "68",
    "country_id": 75,
    "country_code": "FR",
    "latitude": "48.08078000",
    "longitude": "7.35584000",
    "native": null,
    "timezone": "Europe/Paris",
    "translations": {}
  },
  {
    "id": 41428,
    "name": "Dannemarie",
    "state_id": 5036,
    "state_code": "68",
    "country_id": 75,
    "country_code": "FR",
    "latitude": "47.63034000",
    "longitude": "7.11903000",
    "native": null,
    "timezone": "Europe/Paris",
    "translations": {}
  },
  {
    "id": 41456,
    "name": "Dessenheim",
    "state_id": 5036,
    "state_code": "68",
    "country_id": 75,
    "country_code": "FR",
    "latitude": "47.97767000",
    "longitude": "7.48891000",
    "native": null,
    "timezone": "Europe/Paris",
    "translations": {}
  },
  {
    "id": 41465,
    "name": "Didenheim",
    "state_id": 5036,
    "state_code": "68",
    "country_id": 75,
    "country_code": "FR",
    "latitude": "47.71866000",
    "longitude": "7.30157000",
    "native": null,
    "timezone": "Europe/Paris",
    "translations": {}
  },
  {
    "id": 41471,
    "name": "Dietwiller",
    "state_id": 5036,
    "state_code": "68",
    "country_id": 75,
    "country_code": "FR",
    "latitude": "47.69278000",
    "longitude": "7.40300000",
    "native": null,
    "timezone": "Europe/Paris",
    "translations": {}
  },
  {
    "id": 41660,
    "name": "Eguisheim",
    "state_id": 5036,
    "state_code": "68",
    "country_id": 75,
    "country_code": "FR",
    "latitude": "48.04280000",
    "longitude": "7.30617000",
    "native": null,
    "timezone": "Europe/Paris",
    "translations": {}
  },
  {
    "id": 41676,
    "name": "Ensisheim",
    "state_id": 5036,
    "state_code": "68",
    "country_id": 75,
    "country_code": "FR",
    "latitude": "47.86584000",
    "longitude": "7.35052000",
    "native": null,
    "timezone": "Europe/Paris",
    "translations": {}
  },
  {
    "id": 41711,
    "name": "Eschentzwiller",
    "state_id": 5036,
    "state_code": "68",
    "country_id": 75,
    "country_code": "FR",
    "latitude": "47.71270000",
    "longitude": "7.39773000",
    "native": null,
    "timezone": "Europe/Paris",
    "translations": {}
  },
  {
    "id": 41795,
    "name": "Fellering",
    "state_id": 5036,
    "state_code": "68",
    "country_id": 75,
    "country_code": "FR",
    "latitude": "47.89659000",
    "longitude": "6.98552000",
    "native": null,
    "timezone": "Europe/Paris",
    "translations": {}
  },
  {
    "id": 41804,
    "name": "Ferrette",
    "state_id": 5036,
    "state_code": "68",
    "country_id": 75,
    "country_code": "FR",
    "latitude": "47.49436000",
    "longitude": "7.31372000",
    "native": null,
    "timezone": "Europe/Paris",
    "translations": {}
  },
  {
    "id": 41808,
    "name": "Fessenheim",
    "state_id": 5036,
    "state_code": "68",
    "country_id": 75,
    "country_code": "FR",
    "latitude": "47.91565000",
    "longitude": "7.53499000",
    "native": null,
    "timezone": "Europe/Paris",
    "translations": {}
  },
  {
    "id": 41834,
    "name": "Flaxlanden",
    "state_id": 5036,
    "state_code": "68",
    "country_id": 75,
    "country_code": "FR",
    "latitude": "47.69547000",
    "longitude": "7.31484000",
    "native": null,
    "timezone": "Europe/Paris",
    "translations": {}
  },
  {
    "id": 41918,
    "name": "Fortschwihr",
    "state_id": 5036,
    "state_code": "68",
    "country_id": 75,
    "country_code": "FR",
    "latitude": "48.08825000",
    "longitude": "7.45050000",
    "native": null,
    "timezone": "Europe/Paris",
    "translations": {}
  },
  {
    "id": 41986,
    "name": "Fréland",
    "state_id": 5036,
    "state_code": "68",
    "country_id": 75,
    "country_code": "FR",
    "latitude": "48.17215000",
    "longitude": "7.19167000",
    "native": null,
    "timezone": "Europe/Paris",
    "translations": {}
  },
  {
    "id": 42239,
    "name": "Guebwiller",
    "state_id": 5036,
    "state_code": "68",
    "country_id": 75,
    "country_code": "FR",
    "latitude": "47.91667000",
    "longitude": "7.20000000",
    "native": null,
    "timezone": "Europe/Paris",
    "translations": {}
  },
  {
    "id": 42279,
    "name": "Guémar",
    "state_id": 5036,
    "state_code": "68",
    "country_id": 75,
    "country_code": "FR",
    "latitude": "48.18869000",
    "longitude": "7.39706000",
    "native": null,
    "timezone": "Europe/Paris",
    "translations": {}
  },
  {
    "id": 42250,
    "name": "Guewenheim",
    "state_id": 5036,
    "state_code": "68",
    "country_id": 75,
    "country_code": "FR",
    "latitude": "47.75283000",
    "longitude": "7.09253000",
    "native": null,
    "timezone": "Europe/Paris",
    "translations": {}
  },
  {
    "id": 42305,
    "name": "Habsheim",
    "state_id": 5036,
    "state_code": "68",
    "country_id": 75,
    "country_code": "FR",
    "latitude": "47.72975000",
    "longitude": "7.41801000",
    "native": null,
    "timezone": "Europe/Paris",
    "translations": {}
  },
  {
    "id": 42307,
    "name": "Hagenthal-le-Bas",
    "state_id": 5036,
    "state_code": "68",
    "country_id": 75,
    "country_code": "FR",
    "latitude": "47.52497000",
    "longitude": "7.47783000",
    "native": null,
    "timezone": "Europe/Paris",
    "translations": {}
  },
  {
    "id": 42340,
    "name": "Haut-Rhin",
    "state_id": 5036,
    "state_code": "68",
    "country_id": 75,
    "country_code": "FR",
    "latitude": "47.87603000",
    "longitude": "7.27190000",
    "native": null,
    "timezone": "Europe/Paris",
    "translations": {}
  },
  {
    "id": 42450,
    "name": "Hégenheim",
    "state_id": 5036,
    "state_code": "68",
    "country_id": 75,
    "country_code": "FR",
    "latitude": "47.56299000",
    "longitude": "7.52401000",
    "native": null,
    "timezone": "Europe/Paris",
    "translations": {}
  },
  {
    "id": 42364,
    "name": "Heimsbrunn",
    "state_id": 5036,
    "state_code": "68",
    "country_id": 75,
    "country_code": "FR",
    "latitude": "47.72669000",
    "longitude": "7.22699000",
    "native": null,
    "timezone": "Europe/Paris",
    "translations": {}
  },
  {
    "id": 42383,
    "name": "Herrlisheim-près-Colmar",
    "state_id": 5036,
    "state_code": "68",
    "country_id": 75,
    "country_code": "FR",
    "latitude": "48.01835000",
    "longitude": "7.32668000",
    "native": null,
    "timezone": "Europe/Paris",
    "translations": {}
  },
  {
    "id": 42465,
    "name": "Hésingue",
    "state_id": 5036,
    "state_code": "68",
    "country_id": 75,
    "country_code": "FR",
    "latitude": "47.57818000",
    "longitude": "7.51911000",
    "native": null,
    "timezone": "Europe/Paris",
    "translations": {}
  },
  {
    "id": 42401,
    "name": "Hirsingue",
    "state_id": 5036,
    "state_code": "68",
    "country_id": 75,
    "country_code": "FR",
    "latitude": "47.58768000",
    "longitude": "7.25299000",
    "native": null,
    "timezone": "Europe/Paris",
    "translations": {}
  },
  {
    "id": 42403,
    "name": "Hirtzbach",
    "state_id": 5036,
    "state_code": "68",
    "country_id": 75,
    "country_code": "FR",
    "latitude": "47.59839000",
    "longitude": "7.22222000",
    "native": null,
    "timezone": "Europe/Paris",
    "translations": {}
  },
  {
    "id": 42404,
    "name": "Hirtzfelden",
    "state_id": 5036,
    "state_code": "68",
    "country_id": 75,
    "country_code": "FR",
    "latitude": "47.91131000",
    "longitude": "7.44610000",
    "native": null,
    "timezone": "Europe/Paris",
    "translations": {}
  },
  {
    "id": 42407,
    "name": "Hochstatt",
    "state_id": 5036,
    "state_code": "68",
    "country_id": 75,
    "country_code": "FR",
    "latitude": "47.70389000",
    "longitude": "7.27650000",
    "native": null,
    "timezone": "Europe/Paris",
    "translations": {}
  },
  {
    "id": 42410,
    "name": "Holtzwihr",
    "state_id": 5036,
    "state_code": "68",
    "country_id": 75,
    "country_code": "FR",
    "latitude": "48.11288000",
    "longitude": "7.42080000",
    "native": null,
    "timezone": "Europe/Paris",
    "translations": {}
  },
  {
    "id": 42418,
    "name": "Horbourg-Wihr",
    "state_id": 5036,
    "state_code": "68",
    "country_id": 75,
    "country_code": "FR",
    "latitude": "48.08106000",
    "longitude": "7.39380000",
    "native": null,
    "timezone": "Europe/Paris",
    "translations": {}
  },
  {
    "id": 42433,
    "name": "Houssen",
    "state_id": 5036,
    "state_code": "68",
    "country_id": 75,
    "country_code": "FR",
    "latitude": "48.12579000",
    "longitude": "7.37735000",
    "native": null,
    "timezone": "Europe/Paris",
    "translations": {}
  },
  {
    "id": 42442,
    "name": "Huningue",
    "state_id": 5036,
    "state_code": "68",
    "country_id": 75,
    "country_code": "FR",
    "latitude": "47.60477000",
    "longitude": "7.57782000",
    "native": null,
    "timezone": "Europe/Paris",
    "translations": {}
  },
  {
    "id": 42445,
    "name": "Husseren-Wesserling",
    "state_id": 5036,
    "state_code": "68",
    "country_id": 75,
    "country_code": "FR",
    "latitude": "47.88351000",
    "longitude": "6.98994000",
    "native": null,
    "timezone": "Europe/Paris",
    "translations": {}
  },
  {
    "id": 42480,
    "name": "Illfurth",
    "state_id": 5036,
    "state_code": "68",
    "country_id": 75,
    "country_code": "FR",
    "latitude": "47.67410000",
    "longitude": "7.26607000",
    "native": null,
    "timezone": "Europe/Paris",
    "translations": {}
  },
  {
    "id": 42483,
    "name": "Illzach",
    "state_id": 5036,
    "state_code": "68",
    "country_id": 75,
    "country_code": "FR",
    "latitude": "47.77420000",
    "longitude": "7.35175000",
    "native": null,
    "timezone": "Europe/Paris",
    "translations": {}
  },
  {
    "id": 42487,
    "name": "Ingersheim",
    "state_id": 5036,
    "state_code": "68",
    "country_id": 75,
    "country_code": "FR",
    "latitude": "48.09803000",
    "longitude": "7.30308000",
    "native": null,
    "timezone": "Europe/Paris",
    "translations": {}
  },
  {
    "id": 42504,
    "name": "Issenheim",
    "state_id": 5036,
    "state_code": "68",
    "country_id": 75,
    "country_code": "FR",
    "latitude": "47.90357000",
    "longitude": "7.25235000",
    "native": null,
    "timezone": "Europe/Paris",
    "translations": {}
  },
  {
    "id": 42547,
    "name": "Jebsheim",
    "state_id": 5036,
    "state_code": "68",
    "country_id": 75,
    "country_code": "FR",
    "latitude": "48.12375000",
    "longitude": "7.47578000",
    "native": null,
    "timezone": "Europe/Paris",
    "translations": {}
  },
  {
    "id": 42605,
    "name": "Kaysersberg",
    "state_id": 5036,
    "state_code": "68",
    "country_id": 75,
    "country_code": "FR",
    "latitude": "48.13803000",
    "longitude": "7.26385000",
    "native": null,
    "timezone": "Europe/Paris",
    "translations": {}
  },
  {
    "id": 161793,
    "name": "Kaysersberg Vignoble",
    "state_id": 5036,
    "state_code": "68",
    "country_id": 75,
    "country_code": "FR",
    "latitude": "48.15470000",
    "longitude": "7.27600000",
    "native": null,
    "timezone": "Europe/Paris",
    "translations": {}
  },
  {
    "id": 42606,
    "name": "Kembs",
    "state_id": 5036,
    "state_code": "68",
    "country_id": 75,
    "country_code": "FR",
    "latitude": "47.68948000",
    "longitude": "7.50323000",
    "native": null,
    "timezone": "Europe/Paris",
    "translations": {}
  },
  {
    "id": 42616,
    "name": "Kingersheim",
    "state_id": 5036,
    "state_code": "68",
    "country_id": 75,
    "country_code": "FR",
    "latitude": "47.79100000",
    "longitude": "7.32647000",
    "native": null,
    "timezone": "Europe/Paris",
    "translations": {}
  },
  {
    "id": 42620,
    "name": "Kruth",
    "state_id": 5036,
    "state_code": "68",
    "country_id": 75,
    "country_code": "FR",
    "latitude": "47.93101000",
    "longitude": "6.96467000",
    "native": null,
    "timezone": "Europe/Paris",
    "translations": {}
  },
  {
    "id": 42621,
    "name": "Kunheim",
    "state_id": 5036,
    "state_code": "68",
    "country_id": 75,
    "country_code": "FR",
    "latitude": "48.07657000",
    "longitude": "7.53489000",
    "native": null,
    "timezone": "Europe/Paris",
    "translations": {}
  },
  {
    "id": 42921,
    "name": "Labaroche",
    "state_id": 5036,
    "state_code": "68",
    "country_id": 75,
    "country_code": "FR",
    "latitude": "48.11076000",
    "longitude": "7.19244000",
    "native": null,
    "timezone": "Europe/Paris",
    "translations": {}
  },
  {
    "id": 43012,
    "name": "Landser",
    "state_id": 5036,
    "state_code": "68",
    "country_id": 75,
    "country_code": "FR",
    "latitude": "47.68501000",
    "longitude": "7.38998000",
    "native": null,
    "timezone": "Europe/Paris",
    "translations": {}
  },
  {
    "id": 43062,
    "name": "Lapoutroie",
    "state_id": 5036,
    "state_code": "68",
    "country_id": 75,
    "country_code": "FR",
    "latitude": "48.15398000",
    "longitude": "7.16714000",
    "native": null,
    "timezone": "Europe/Paris",
    "translations": {}
  },
  {
    "id": 43101,
    "name": "Lautenbach",
    "state_id": 5036,
    "state_code": "68",
    "country_id": 75,
    "country_code": "FR",
    "latitude": "47.94055000",
    "longitude": "7.15768000",
    "native": null,
    "timezone": "Europe/Paris",
    "translations": {}
  },
  {
    "id": 43102,
    "name": "Lautenbachzell",
    "state_id": 5036,
    "state_code": "68",
    "country_id": 75,
    "country_code": "FR",
    "latitude": "47.94124000",
    "longitude": "7.14643000",
    "native": null,
    "timezone": "Europe/Paris",
    "translations": {}
  },
  {
    "id": 43457,
    "name": "Leymen",
    "state_id": 5036,
    "state_code": "68",
    "country_id": 75,
    "country_code": "FR",
    "latitude": "47.49632000",
    "longitude": "7.48517000",
    "native": null,
    "timezone": "Europe/Paris",
    "translations": {}
  },
  {
    "id": 43524,
    "name": "Lièpvre",
    "state_id": 5036,
    "state_code": "68",
    "country_id": 75,
    "country_code": "FR",
    "latitude": "48.27166000",
    "longitude": "7.28229000",
    "native": null,
    "timezone": "Europe/Paris",
    "translations": {}
  },
  {
    "id": 43666,
    "name": "Lutterbach",
    "state_id": 5036,
    "state_code": "68",
    "country_id": 75,
    "country_code": "FR",
    "latitude": "47.75976000",
    "longitude": "7.28032000",
    "native": null,
    "timezone": "Europe/Paris",
    "translations": {}
  },
  {
    "id": 43928,
    "name": "Masevaux",
    "state_id": 5036,
    "state_code": "68",
    "country_id": 75,
    "country_code": "FR",
    "latitude": "47.77671000",
    "longitude": "6.99683000",
    "native": null,
    "timezone": "Europe/Paris",
    "translations": {}
  },
  {
    "id": 161886,
    "name": "Masevaux-Niederbruck",
    "state_id": 5036,
    "state_code": "68",
    "country_id": 75,
    "country_code": "FR",
    "latitude": "47.78190000",
    "longitude": "6.97640000",
    "native": null,
    "timezone": "Europe/Paris",
    "translations": {}
  },
  {
    "id": 44026,
    "name": "Merxheim",
    "state_id": 5036,
    "state_code": "68",
    "country_id": 75,
    "country_code": "FR",
    "latitude": "47.91128000",
    "longitude": "7.29492000",
    "native": null,
    "timezone": "Europe/Paris",
    "translations": {}
  },
  {
    "id": 44042,
    "name": "Metzeral",
    "state_id": 5036,
    "state_code": "68",
    "country_id": 75,
    "country_code": "FR",
    "latitude": "48.01217000",
    "longitude": "7.07091000",
    "native": null,
    "timezone": "Europe/Paris",
    "translations": {}
  },
  {
    "id": 44055,
    "name": "Meyenheim",
    "state_id": 5036,
    "state_code": "68",
    "country_id": 75,
    "country_code": "FR",
    "latitude": "47.91364000",
    "longitude": "7.35560000",
    "native": null,
    "timezone": "Europe/Paris",
    "translations": {}
  },
  {
    "id": 44337,
    "name": "Moosch",
    "state_id": 5036,
    "state_code": "68",
    "country_id": 75,
    "country_code": "FR",
    "latitude": "47.86035000",
    "longitude": "7.04870000",
    "native": null,
    "timezone": "Europe/Paris",
    "translations": {}
  },
  {
    "id": 44367,
    "name": "Morschwiller-le-Bas",
    "state_id": 5036,
    "state_code": "68",
    "country_id": 75,
    "country_code": "FR",
    "latitude": "47.73615000",
    "longitude": "7.26954000",
    "native": null,
    "timezone": "Europe/Paris",
    "translations": {}
  },
  {
    "id": 44433,
    "name": "Mulhouse",
    "state_id": 5036,
    "state_code": "68",
    "country_id": 75,
    "country_code": "FR",
    "latitude": "47.75205000",
    "longitude": "7.32866000",
    "native": null,
    "timezone": "Europe/Paris",
    "translations": {}
  },
  {
    "id": 44435,
    "name": "Munchhouse",
    "state_id": 5036,
    "state_code": "68",
    "country_id": 75,
    "country_code": "FR",
    "latitude": "47.86930000",
    "longitude": "7.45233000",
    "native": null,
    "timezone": "Europe/Paris",
    "translations": {}
  },
  {
    "id": 44437,
    "name": "Munster",
    "state_id": 5036,
    "state_code": "68",
    "country_id": 75,
    "country_code": "FR",
    "latitude": "48.04048000",
    "longitude": "7.13933000",
    "native": null,
    "timezone": "Europe/Paris",
    "translations": {}
  },
  {
    "id": 44538,
    "name": "Neuf-Brisach",
    "state_id": 5036,
    "state_code": "68",
    "country_id": 75,
    "country_code": "FR",
    "latitude": "48.01783000",
    "longitude": "7.52795000",
    "native": null,
    "timezone": "Europe/Paris",
    "translations": {}
  },
  {
    "id": 44706,
    "name": "Oberhergheim",
    "state_id": 5036,
    "state_code": "68",
    "country_id": 75,
    "country_code": "FR",
    "latitude": "47.96668000",
    "longitude": "7.39516000",
    "native": null,
    "timezone": "Europe/Paris",
    "translations": {}
  },
  {
    "id": 44714,
    "name": "Oderen",
    "state_id": 5036,
    "state_code": "68",
    "country_id": 75,
    "country_code": "FR",
    "latitude": "47.91036000",
    "longitude": "6.97463000",
    "native": null,
    "timezone": "Europe/Paris",
    "translations": {}
  },
  {
    "id": 44755,
    "name": "Orbey",
    "state_id": 5036,
    "state_code": "68",
    "country_id": 75,
    "country_code": "FR",
    "latitude": "48.12651000",
    "longitude": "7.16455000",
    "native": null,
    "timezone": "Europe/Paris",
    "translations": {}
  },
  {
    "id": 44793,
    "name": "Ostheim",
    "state_id": 5036,
    "state_code": "68",
    "country_id": 75,
    "country_code": "FR",
    "latitude": "48.15995000",
    "longitude": "7.36976000",
    "native": null,
    "timezone": "Europe/Paris",
    "translations": {}
  },
  {
    "id": 44799,
    "name": "Ottmarsheim",
    "state_id": 5036,
    "state_code": "68",
    "country_id": 75,
    "country_code": "FR",
    "latitude": "47.78802000",
    "longitude": "7.50777000",
    "native": null,
    "timezone": "Europe/Paris",
    "translations": {}
  },
  {
    "id": 44937,
    "name": "Pfaffenheim",
    "state_id": 5036,
    "state_code": "68",
    "country_id": 75,
    "country_code": "FR",
    "latitude": "47.98567000",
    "longitude": "7.28928000",
    "native": null,
    "timezone": "Europe/Paris",
    "translations": {}
  },
  {
    "id": 44939,
    "name": "Pfastatt",
    "state_id": 5036,
    "state_code": "68",
    "country_id": 75,
    "country_code": "FR",
    "latitude": "47.76915000",
    "longitude": "7.30295000",
    "native": null,
    "timezone": "Europe/Paris",
    "translations": {}
  },
  {
    "id": 44940,
    "name": "Pfetterhouse",
    "state_id": 5036,
    "state_code": "68",
    "country_id": 75,
    "country_code": "FR",
    "latitude": "47.50128000",
    "longitude": "7.16598000",
    "native": null,
    "timezone": "Europe/Paris",
    "translations": {}
  },
  {
    "id": 45329,
    "name": "Pulversheim",
    "state_id": 5036,
    "state_code": "68",
    "country_id": 75,
    "country_code": "FR",
    "latitude": "47.83753000",
    "longitude": "7.30119000",
    "native": null,
    "timezone": "Europe/Paris",
    "translations": {}
  },
  {
    "id": 45416,
    "name": "Raedersheim",
    "state_id": 5036,
    "state_code": "68",
    "country_id": 75,
    "country_code": "FR",
    "latitude": "47.88895000",
    "longitude": "7.28222000",
    "native": null,
    "timezone": "Europe/Paris",
    "translations": {}
  },
  {
    "id": 45689,
    "name": "Réguisheim",
    "state_id": 5036,
    "state_code": "68",
    "country_id": 75,
    "country_code": "FR",
    "latitude": "47.89563000",
    "longitude": "7.35288000",
    "native": null,
    "timezone": "Europe/Paris",
    "translations": {}
  },
  {
    "id": 45451,
    "name": "Reiningue",
    "state_id": 5036,
    "state_code": "68",
    "country_id": 75,
    "country_code": "FR",
    "latitude": "47.75215000",
    "longitude": "7.23327000",
    "native": null,
    "timezone": "Europe/Paris",
    "translations": {}
  },
  {
    "id": 45490,
    "name": "Ribeauvillé",
    "state_id": 5036,
    "state_code": "68",
    "country_id": 75,
    "country_code": "FR",
    "latitude": "48.19510000",
    "longitude": "7.31938000",
    "native": null,
    "timezone": "Europe/Paris",
    "translations": {}
  },
  {
    "id": 45498,
    "name": "Richwiller",
    "state_id": 5036,
    "state_code": "68",
    "country_id": 75,
    "country_code": "FR",
    "latitude": "47.77995000",
    "longitude": "7.28067000",
    "native": null,
    "timezone": "Europe/Paris",
    "translations": {}
  },
  {
    "id": 45500,
    "name": "Riedisheim",
    "state_id": 5036,
    "state_code": "68",
    "country_id": 75,
    "country_code": "FR",
    "latitude": "47.74847000",
    "longitude": "7.36716000",
    "native": null,
    "timezone": "Europe/Paris",
    "translations": {}
  },
  {
    "id": 45523,
    "name": "Riquewihr",
    "state_id": 5036,
    "state_code": "68",
    "country_id": 75,
    "country_code": "FR",
    "latitude": "48.16672000",
    "longitude": "7.29707000",
    "native": null,
    "timezone": "Europe/Paris",
    "translations": {}
  },
  {
    "id": 45534,
    "name": "Rixheim",
    "state_id": 5036,
    "state_code": "68",
    "country_id": 75,
    "country_code": "FR",
    "latitude": "47.74970000",
    "longitude": "7.40203000",
    "native": null,
    "timezone": "Europe/Paris",
    "translations": {}
  },
  {
    "id": 45571,
    "name": "Romagny",
    "state_id": 5036,
    "state_code": "68",
    "country_id": 75,
    "country_code": "FR",
    "latitude": "48.63931000",
    "longitude": "-0.96605000",
    "native": null,
    "timezone": "Europe/Paris",
    "translations": {}
  },
  {
    "id": 45600,
    "name": "Rosenau",
    "state_id": 5036,
    "state_code": "68",
    "country_id": 75,
    "country_code": "FR",
    "latitude": "47.63688000",
    "longitude": "7.53598000",
    "native": null,
    "timezone": "Europe/Paris",
    "translations": {}
  },
  {
    "id": 45619,
    "name": "Rouffach",
    "state_id": 5036,
    "state_code": "68",
    "country_id": 75,
    "country_code": "FR",
    "latitude": "47.95786000",
    "longitude": "7.30016000",
    "native": null,
    "timezone": "Europe/Paris",
    "translations": {}
  },
  {
    "id": 45661,
    "name": "Ruelisheim",
    "state_id": 5036,
    "state_code": "68",
    "country_id": 75,
    "country_code": "FR",
    "latitude": "47.82405000",
    "longitude": "7.35744000",
    "native": null,
    "timezone": "Europe/Paris",
    "translations": {}
  },
  {
    "id": 45671,
    "name": "Rumersheim-le-Haut",
    "state_id": 5036,
    "state_code": "68",
    "country_id": 75,
    "country_code": "FR",
    "latitude": "47.85124000",
    "longitude": "7.52079000",
    "native": null,
    "timezone": "Europe/Paris",
    "translations": {}
  },
  {
    "id": 45750,
    "name": "Saint-Amarin",
    "state_id": 5036,
    "state_code": "68",
    "country_id": 75,
    "country_code": "FR",
    "latitude": "47.87494000",
    "longitude": "7.02940000",
    "native": null,
    "timezone": "Europe/Paris",
    "translations": {}
  },
  {
    "id": 46672,
    "name": "Sainte-Croix-aux-Mines",
    "state_id": 5036,
    "state_code": "68",
    "country_id": 75,
    "country_code": "FR",
    "latitude": "48.26249000",
    "longitude": "7.22739000",
    "native": null,
    "timezone": "Europe/Paris",
    "translations": {}
  },
  {
    "id": 46673,
    "name": "Sainte-Croix-en-Plaine",
    "state_id": 5036,
    "state_code": "68",
    "country_id": 75,
    "country_code": "FR",
    "latitude": "48.00876000",
    "longitude": "7.38556000",
    "native": null,
    "timezone": "Europe/Paris",
    "translations": {}
  },
  {
    "id": 46711,
    "name": "Sainte-Marie-aux-Mines",
    "state_id": 5036,
    "state_code": "68",
    "country_id": 75,
    "country_code": "FR",
    "latitude": "48.24649000",
    "longitude": "7.18385000",
    "native": null,
    "timezone": "Europe/Paris",
    "translations": {}
  },
  {
    "id": 46853,
    "name": "Sausheim",
    "state_id": 5036,
    "state_code": "68",
    "country_id": 75,
    "country_code": "FR",
    "latitude": "47.78711000",
    "longitude": "7.37267000",
    "native": null,
    "timezone": "Europe/Paris",
    "translations": {}
  },
  {
    "id": 46947,
    "name": "Sentheim",
    "state_id": 5036,
    "state_code": "68",
    "country_id": 75,
    "country_code": "FR",
    "latitude": "47.75560000",
    "longitude": "7.05305000",
    "native": null,
    "timezone": "Europe/Paris",
    "translations": {}
  },
  {
    "id": 46990,
    "name": "Sierentz",
    "state_id": 5036,
    "state_code": "68",
    "country_id": 75,
    "country_code": "FR",
    "latitude": "47.65834000",
    "longitude": "7.45387000",
    "native": null,
    "timezone": "Europe/Paris",
    "translations": {}
  },
  {
    "id": 46994,
    "name": "Sigolsheim",
    "state_id": 5036,
    "state_code": "68",
    "country_id": 75,
    "country_code": "FR",
    "latitude": "48.13493000",
    "longitude": "7.29980000",
    "native": null,
    "timezone": "Europe/Paris",
    "translations": {}
  },
  {
    "id": 47074,
    "name": "Soultz-Haut-Rhin",
    "state_id": 5036,
    "state_code": "68",
    "country_id": 75,
    "country_code": "FR",
    "latitude": "47.88849000",
    "longitude": "7.22860000",
    "native": null,
    "timezone": "Europe/Paris",
    "translations": {}
  },
  {
    "id": 47076,
    "name": "Soultzeren",
    "state_id": 5036,
    "state_code": "68",
    "country_id": 75,
    "country_code": "FR",
    "latitude": "48.06394000",
    "longitude": "7.10233000",
    "native": null,
    "timezone": "Europe/Paris",
    "translations": {}
  },
  {
    "id": 47077,
    "name": "Soultzmatt",
    "state_id": 5036,
    "state_code": "68",
    "country_id": 75,
    "country_code": "FR",
    "latitude": "47.96188000",
    "longitude": "7.23759000",
    "native": null,
    "timezone": "Europe/Paris",
    "translations": {}
  },
  {
    "id": 47097,
    "name": "Staffelfelden",
    "state_id": 5036,
    "state_code": "68",
    "country_id": 75,
    "country_code": "FR",
    "latitude": "47.82647000",
    "longitude": "7.25235000",
    "native": null,
    "timezone": "Europe/Paris",
    "translations": {}
  },
  {
    "id": 47103,
    "name": "Steinbach",
    "state_id": 5036,
    "state_code": "68",
    "country_id": 75,
    "country_code": "FR",
    "latitude": "47.82140000",
    "longitude": "7.15279000",
    "native": null,
    "timezone": "Europe/Paris",
    "translations": {}
  },
  {
    "id": 47108,
    "name": "Stosswihr",
    "state_id": 5036,
    "state_code": "68",
    "country_id": 75,
    "country_code": "FR",
    "latitude": "48.05389000",
    "longitude": "7.09964000",
    "native": null,
    "timezone": "Europe/Paris",
    "translations": {}
  },
  {
    "id": 47117,
    "name": "Sundhoffen",
    "state_id": 5036,
    "state_code": "68",
    "country_id": 75,
    "country_code": "FR",
    "latitude": "48.04263000",
    "longitude": "7.41320000",
    "native": null,
    "timezone": "Europe/Paris",
    "translations": {}
  },
  {
    "id": 47217,
    "name": "Thann",
    "state_id": 5036,
    "state_code": "68",
    "country_id": 75,
    "country_code": "FR",
    "latitude": "47.80789000",
    "longitude": "7.10301000",
    "native": null,
    "timezone": "Europe/Paris",
    "translations": {}
  },
  {
    "id": 47415,
    "name": "Turckheim",
    "state_id": 5036,
    "state_code": "68",
    "country_id": 75,
    "country_code": "FR",
    "latitude": "48.08748000",
    "longitude": "7.27707000",
    "native": null,
    "timezone": "Europe/Paris",
    "translations": {}
  },
  {
    "id": 47423,
    "name": "Uffholtz",
    "state_id": 5036,
    "state_code": "68",
    "country_id": 75,
    "country_code": "FR",
    "latitude": "47.82082000",
    "longitude": "7.17785000",
    "native": null,
    "timezone": "Europe/Paris",
    "translations": {}
  },
  {
    "id": 47426,
    "name": "Ungersheim",
    "state_id": 5036,
    "state_code": "68",
    "country_id": 75,
    "country_code": "FR",
    "latitude": "47.87848000",
    "longitude": "7.30797000",
    "native": null,
    "timezone": "Europe/Paris",
    "translations": {}
  },
  {
    "id": 47691,
    "name": "Vieux-Thann",
    "state_id": 5036,
    "state_code": "68",
    "country_id": 75,
    "country_code": "FR",
    "latitude": "47.80400000",
    "longitude": "7.12067000",
    "native": null,
    "timezone": "Europe/Paris",
    "translations": {}
  },
  {
    "id": 47706,
    "name": "Village-Neuf",
    "state_id": 5036,
    "state_code": "68",
    "country_id": 75,
    "country_code": "FR",
    "latitude": "47.60682000",
    "longitude": "7.56964000",
    "native": null,
    "timezone": "Europe/Paris",
    "translations": {}
  },
  {
    "id": 47895,
    "name": "Volgelsheim",
    "state_id": 5036,
    "state_code": "68",
    "country_id": 75,
    "country_code": "FR",
    "latitude": "48.01462000",
    "longitude": "7.55456000",
    "native": null,
    "timezone": "Europe/Paris",
    "translations": {}
  },
  {
    "id": 47938,
    "name": "Waldighofen",
    "state_id": 5036,
    "state_code": "68",
    "country_id": 75,
    "country_code": "FR",
    "latitude": "47.55045000",
    "longitude": "7.31512000",
    "native": null,
    "timezone": "Europe/Paris",
    "translations": {}
  },
  {
    "id": 47958,
    "name": "Wattwiller",
    "state_id": 5036,
    "state_code": "68",
    "country_id": 75,
    "country_code": "FR",
    "latitude": "47.83649000",
    "longitude": "7.17785000",
    "native": null,
    "timezone": "Europe/Paris",
    "translations": {}
  },
  {
    "id": 47966,
    "name": "Wettolsheim",
    "state_id": 5036,
    "state_code": "68",
    "country_id": 75,
    "country_code": "FR",
    "latitude": "48.05755000",
    "longitude": "7.29844000",
    "native": null,
    "timezone": "Europe/Paris",
    "translations": {}
  },
  {
    "id": 47968,
    "name": "Widensolen",
    "state_id": 5036,
    "state_code": "68",
    "country_id": 75,
    "country_code": "FR",
    "latitude": "48.06377000",
    "longitude": "7.48015000",
    "native": null,
    "timezone": "Europe/Paris",
    "translations": {}
  },
  {
    "id": 47971,
    "name": "Wihr-au-Val",
    "state_id": 5036,
    "state_code": "68",
    "country_id": 75,
    "country_code": "FR",
    "latitude": "48.05196000",
    "longitude": "7.20493000",
    "native": null,
    "timezone": "Europe/Paris",
    "translations": {}
  },
  {
    "id": 47981,
    "name": "Wintzenheim",
    "state_id": 5036,
    "state_code": "68",
    "country_id": 75,
    "country_code": "FR",
    "latitude": "48.07269000",
    "longitude": "7.29072000",
    "native": null,
    "timezone": "Europe/Paris",
    "translations": {}
  },
  {
    "id": 47987,
    "name": "Wittelsheim",
    "state_id": 5036,
    "state_code": "68",
    "country_id": 75,
    "country_code": "FR",
    "latitude": "47.80947000",
    "longitude": "7.24154000",
    "native": null,
    "timezone": "Europe/Paris",
    "translations": {}
  },
  {
    "id": 47988,
    "name": "Wittenheim",
    "state_id": 5036,
    "state_code": "68",
    "country_id": 75,
    "country_code": "FR",
    "latitude": "47.81090000",
    "longitude": "7.32756000",
    "native": null,
    "timezone": "Europe/Paris",
    "translations": {}
  },
  {
    "id": 47994,
    "name": "Wolfgantzen",
    "state_id": 5036,
    "state_code": "68",
    "country_id": 75,
    "country_code": "FR",
    "latitude": "48.02805000",
    "longitude": "7.50040000",
    "native": null,
    "timezone": "Europe/Paris",
    "translations": {}
  },
  {
    "id": 48026,
    "name": "Zillisheim",
    "state_id": 5036,
    "state_code": "68",
    "country_id": 75,
    "country_code": "FR",
    "latitude": "47.69604000",
    "longitude": "7.29736000",
    "native": null,
    "timezone": "Europe/Paris",
    "translations": {}
  },
  {
    "id": 48027,
    "name": "Zimmersheim",
    "state_id": 5036,
    "state_code": "68",
    "country_id": 75,
    "country_code": "FR",
    "latitude": "47.72079000",
    "longitude": "7.38847000",
    "native": null,
    "timezone": "Europe/Paris",
    "translations": {}
  }
]