[
  {
    "id": 39273,
    "name": "Aigueblanche",
    "state_id": 5042,
    "state_code": "73",
    "country_id": 75,
    "country_code": "FR",
    "latitude": "45.50455000",
    "longitude": "6.50184000",
    "native": null,
    "timezone": "Europe/Paris",
    "translations": {}
  },
  {
    "id": 39285,
    "name": "Aime",
    "state_id": 5042,
    "state_code": "73",
    "country_id": 75,
    "country_code": "FR",
    "latitude": "45.55559000",
    "longitude": "6.65042000",
    "native": null,
    "timezone": "Europe/Paris",
    "translations": {}
  },
  {
    "id": 161656,
    "name": "Aime-la-Plagne",
    "state_id": 5042,
    "state_code": "73",
    "country_id": 75,
    "country_code": "FR",
    "latitude": "45.56610000",
    "longitude": "6.61190000",
    "native": null,
    "timezone": "Europe/Paris",
    "translations": {}
  },
  {
    "id": 39291,
    "name": "Aiton",
    "state_id": 5042,
    "state_code": "73",
    "country_id": 75,
    "country_code": "FR",
    "latitude": "45.56123000",
    "longitude": "6.25955000",
    "native": null,
    "timezone": "Europe/Paris",
    "translations": {}
  },
  {
    "id": 39295,
    "name": "Aix-les-Bains",
    "state_id": 5042,
    "state_code": "73",
    "country_id": 75,
    "country_code": "FR",
    "latitude": "45.69173000",
    "longitude": "5.90863000",
    "native": null,
    "timezone": "Europe/Paris",
    "translations": {}
  },
  {
    "id": 39304,
    "name": "Albertville",
    "state_id": 5042,
    "state_code": "73",
    "country_id": 75,
    "country_code": "FR",
    "latitude": "45.67452000",
    "longitude": "6.39061000",
    "native": null,
    "timezone": "Europe/Paris",
    "translations": {}
  },
  {
    "id": 39773,
    "name": "Barberaz",
    "state_id": 5042,
    "state_code": "73",
    "country_id": 75,
    "country_code": "FR",
    "latitude": "45.56179000",
    "longitude": "5.94306000",
    "native": null,
    "timezone": "Europe/Paris",
    "translations": {}
  },
  {
    "id": 39776,
    "name": "Barby",
    "state_id": 5042,
    "state_code": "73",
    "country_id": 75,
    "country_code": "FR",
    "latitude": "45.56810000",
    "longitude": "5.97966000",
    "native": null,
    "timezone": "Europe/Paris",
    "translations": {}
  },
  {
    "id": 39846,
    "name": "Beaufort",
    "state_id": 5042,
    "state_code": "73",
    "country_id": 75,
    "country_code": "FR",
    "latitude": "45.71915000",
    "longitude": "6.57331000",
    "native": null,
    "timezone": "Europe/Paris",
    "translations": {}
  },
  {
    "id": 39911,
    "name": "Belle-Plagne",
    "state_id": 5042,
    "state_code": "73",
    "country_id": 75,
    "country_code": "FR",
    "latitude": "45.50932000",
    "longitude": "6.70685000",
    "native": null,
    "timezone": "Europe/Paris",
    "translations": {}
  },
  {
    "id": 40190,
    "name": "Bourg-Saint-Maurice",
    "state_id": 5042,
    "state_code": "73",
    "country_id": 75,
    "country_code": "FR",
    "latitude": "45.61463000",
    "longitude": "6.76845000",
    "native": null,
    "timezone": "Europe/Paris",
    "translations": {}
  },
  {
    "id": 40242,
    "name": "Bozel",
    "state_id": 5042,
    "state_code": "73",
    "country_id": 75,
    "country_code": "FR",
    "latitude": "45.44288000",
    "longitude": "6.64896000",
    "native": null,
    "timezone": "Europe/Paris",
    "translations": {}
  },
  {
    "id": 40325,
    "name": "Brison-Saint-Innocent",
    "state_id": 5042,
    "state_code": "73",
    "country_id": 75,
    "country_code": "FR",
    "latitude": "45.72440000",
    "longitude": "5.88895000",
    "native": null,
    "timezone": "Europe/Paris",
    "translations": {}
  },
  {
    "id": 40694,
    "name": "Challes-les-Eaux",
    "state_id": 5042,
    "state_code": "73",
    "country_id": 75,
    "country_code": "FR",
    "latitude": "45.54685000",
    "longitude": "5.98098000",
    "native": null,
    "timezone": "Europe/Paris",
    "translations": {}
  },
  {
    "id": 40713,
    "name": "Chambéry",
    "state_id": 5042,
    "state_code": "73",
    "country_id": 75,
    "country_code": "FR",
    "latitude": "45.56628000",
    "longitude": "5.92079000",
    "native": null,
    "timezone": "Europe/Paris",
    "translations": {}
  },
  {
    "id": 40911,
    "name": "Chindrieux",
    "state_id": 5042,
    "state_code": "73",
    "country_id": 75,
    "country_code": "FR",
    "latitude": "45.81948000",
    "longitude": "5.85024000",
    "native": null,
    "timezone": "Europe/Paris",
    "translations": {}
  },
  {
    "id": 41081,
    "name": "Cognin",
    "state_id": 5042,
    "state_code": "73",
    "country_id": 75,
    "country_code": "FR",
    "latitude": "45.55952000",
    "longitude": "5.89113000",
    "native": null,
    "timezone": "Europe/Paris",
    "translations": {}
  },
  {
    "id": 41247,
    "name": "Courchevel",
    "state_id": 5042,
    "state_code": "73",
    "country_id": 75,
    "country_code": "FR",
    "latitude": "45.41538000",
    "longitude": "6.63643000",
    "native": null,
    "timezone": "Europe/Paris",
    "translations": {}
  },
  {
    "id": 41336,
    "name": "Cruet",
    "state_id": 5042,
    "state_code": "73",
    "country_id": 75,
    "country_code": "FR",
    "latitude": "45.52890000",
    "longitude": "6.09220000",
    "native": null,
    "timezone": "Europe/Paris",
    "translations": {}
  },
  {
    "id": 41515,
    "name": "Domessin",
    "state_id": 5042,
    "state_code": "73",
    "country_id": 75,
    "country_code": "FR",
    "latitude": "45.54739000",
    "longitude": "5.70495000",
    "native": null,
    "timezone": "Europe/Paris",
    "translations": {}
  },
  {
    "id": 41580,
    "name": "Drumettaz",
    "state_id": 5042,
    "state_code": "73",
    "country_id": 75,
    "country_code": "FR",
    "latitude": "45.66136000",
    "longitude": "5.92191000",
    "native": null,
    "timezone": "Europe/Paris",
    "translations": {}
  },
  {
    "id": 161753,
    "name": "Drumettaz-Clarafond",
    "state_id": 5042,
    "state_code": "73",
    "country_id": 75,
    "country_code": "FR",
    "latitude": "45.66100000",
    "longitude": "5.93770000",
    "native": null,
    "timezone": "Europe/Paris",
    "translations": {}
  },
  {
    "id": 161756,
    "name": "Entrelacs",
    "state_id": 5042,
    "state_code": "73",
    "country_id": 75,
    "country_code": "FR",
    "latitude": "45.78650000",
    "longitude": "5.91490000",
    "native": null,
    "timezone": "Europe/Paris",
    "translations": {}
  },
  {
    "id": 41974,
    "name": "Frontenex",
    "state_id": 5042,
    "state_code": "73",
    "country_id": 75,
    "country_code": "FR",
    "latitude": "45.63335000",
    "longitude": "6.31168000",
    "native": null,
    "timezone": "Europe/Paris",
    "translations": {}
  },
  {
    "id": 42096,
    "name": "Gilly-sur-Isère",
    "state_id": 5042,
    "state_code": "73",
    "country_id": 75,
    "country_code": "FR",
    "latitude": "45.65917000",
    "longitude": "6.35096000",
    "native": null,
    "timezone": "Europe/Paris",
    "translations": {}
  },
  {
    "id": 161775,
    "name": "Grand-Aigueblanche",
    "state_id": 5042,
    "state_code": "73",
    "country_id": 75,
    "country_code": "FR",
    "latitude": "45.51510000",
    "longitude": "6.51620000",
    "native": null,
    "timezone": "Europe/Paris",
    "translations": {}
  },
  {
    "id": 42235,
    "name": "Grésy-sur-Aix",
    "state_id": 5042,
    "state_code": "73",
    "country_id": 75,
    "country_code": "FR",
    "latitude": "45.72311000",
    "longitude": "5.92522000",
    "native": null,
    "timezone": "Europe/Paris",
    "translations": {}
  },
  {
    "id": 42236,
    "name": "Grésy-sur-Isère",
    "state_id": 5042,
    "state_code": "73",
    "country_id": 75,
    "country_code": "FR",
    "latitude": "45.59898000",
    "longitude": "6.25358000",
    "native": null,
    "timezone": "Europe/Paris",
    "translations": {}
  },
  {
    "id": 42210,
    "name": "Grignon",
    "state_id": 5042,
    "state_code": "73",
    "country_id": 75,
    "country_code": "FR",
    "latitude": "45.65122000",
    "longitude": "6.37795000",
    "native": null,
    "timezone": "Europe/Paris",
    "translations": {}
  },
  {
    "id": 42522,
    "name": "Jacob-Bellecombette",
    "state_id": 5042,
    "state_code": "73",
    "country_id": 75,
    "country_code": "FR",
    "latitude": "45.55763000",
    "longitude": "5.91484000",
    "native": null,
    "timezone": "Europe/Paris",
    "translations": {}
  },
  {
    "id": 42658,
    "name": "La Bâthie",
    "state_id": 5042,
    "state_code": "73",
    "country_id": 75,
    "country_code": "FR",
    "latitude": "45.62829000",
    "longitude": "6.44900000",
    "native": null,
    "timezone": "Europe/Paris",
    "translations": {}
  },
  {
    "id": 42642,
    "name": "La Biolle",
    "state_id": 5042,
    "state_code": "73",
    "country_id": 75,
    "country_code": "FR",
    "latitude": "45.75846000",
    "longitude": "5.92866000",
    "native": null,
    "timezone": "Europe/Paris",
    "translations": {}
  },
  {
    "id": 42654,
    "name": "La Bridoire",
    "state_id": 5042,
    "state_code": "73",
    "country_id": 75,
    "country_code": "FR",
    "latitude": "45.52504000",
    "longitude": "5.74073000",
    "native": null,
    "timezone": "Europe/Paris",
    "translations": {}
  },
  {
    "id": 42676,
    "name": "La Chambre",
    "state_id": 5042,
    "state_code": "73",
    "country_id": 75,
    "country_code": "FR",
    "latitude": "45.35862000",
    "longitude": "6.29978000",
    "native": null,
    "timezone": "Europe/Paris",
    "translations": {}
  },
  {
    "id": 161822,
    "name": "La Léchère",
    "state_id": 5042,
    "state_code": "73",
    "country_id": 75,
    "country_code": "FR",
    "latitude": "45.52610000",
    "longitude": "6.46660000",
    "native": null,
    "timezone": "Europe/Paris",
    "translations": {}
  },
  {
    "id": 42816,
    "name": "La Motte-Servolex",
    "state_id": 5042,
    "state_code": "73",
    "country_id": 75,
    "country_code": "FR",
    "latitude": "45.59702000",
    "longitude": "5.86724000",
    "native": null,
    "timezone": "Europe/Paris",
    "translations": {}
  },
  {
    "id": 161824,
    "name": "La Plagne Tarentaise",
    "state_id": 5042,
    "state_code": "73",
    "country_id": 75,
    "country_code": "FR",
    "latitude": "45.56840000",
    "longitude": "6.70300000",
    "native": null,
    "timezone": "Europe/Paris",
    "translations": {}
  },
  {
    "id": 42841,
    "name": "La Ravoire",
    "state_id": 5042,
    "state_code": "73",
    "country_id": 75,
    "country_code": "FR",
    "latitude": "45.56266000",
    "longitude": "5.95826000",
    "native": null,
    "timezone": "Europe/Paris",
    "translations": {}
  },
  {
    "id": 43139,
    "name": "Le Bourget-du-Lac",
    "state_id": 5042,
    "state_code": "73",
    "country_id": 75,
    "country_code": "FR",
    "latitude": "45.65362000",
    "longitude": "5.85490000",
    "native": null,
    "timezone": "Europe/Paris",
    "translations": {}
  },
  {
    "id": 43273,
    "name": "Le Pont-de-Beauvoisin",
    "state_id": 5042,
    "state_code": "73",
    "country_id": 75,
    "country_code": "FR",
    "latitude": "45.53694000",
    "longitude": "5.67333000",
    "native": null,
    "timezone": "Europe/Paris",
    "translations": {}
  },
  {
    "id": 43359,
    "name": "Les Allues",
    "state_id": 5042,
    "state_code": "73",
    "country_id": 75,
    "country_code": "FR",
    "latitude": "45.43255000",
    "longitude": "6.55558000",
    "native": null,
    "timezone": "Europe/Paris",
    "translations": {}
  },
  {
    "id": 161853,
    "name": "Les Belleville",
    "state_id": 5042,
    "state_code": "73",
    "country_id": 75,
    "country_code": "FR",
    "latitude": "45.36280000",
    "longitude": "6.50600000",
    "native": null,
    "timezone": "Europe/Paris",
    "translations": {}
  },
  {
    "id": 43434,
    "name": "Les Échelles",
    "state_id": 5042,
    "state_code": "73",
    "country_id": 75,
    "country_code": "FR",
    "latitude": "45.44058000",
    "longitude": "5.74866000",
    "native": null,
    "timezone": "Europe/Paris",
    "translations": {}
  },
  {
    "id": 43405,
    "name": "Les Marches",
    "state_id": 5042,
    "state_code": "73",
    "country_id": 75,
    "country_code": "FR",
    "latitude": "45.50042000",
    "longitude": "6.00381000",
    "native": null,
    "timezone": "Europe/Paris",
    "translations": {}
  },
  {
    "id": 44452,
    "name": "Mâcot-la-Plagne",
    "state_id": 5042,
    "state_code": "73",
    "country_id": 75,
    "country_code": "FR",
    "latitude": "45.55000000",
    "longitude": "6.66667000",
    "native": null,
    "timezone": "Europe/Paris",
    "translations": {}
  },
  {
    "id": 43910,
    "name": "Marthod",
    "state_id": 5042,
    "state_code": "73",
    "country_id": 75,
    "country_code": "FR",
    "latitude": "45.72714000",
    "longitude": "6.40299000",
    "native": null,
    "timezone": "Europe/Paris",
    "translations": {}
  },
  {
    "id": 44012,
    "name": "Mercury",
    "state_id": 5042,
    "state_code": "73",
    "country_id": 75,
    "country_code": "FR",
    "latitude": "45.67452000",
    "longitude": "6.33688000",
    "native": null,
    "timezone": "Europe/Paris",
    "translations": {}
  },
  {
    "id": 44470,
    "name": "Méribel",
    "state_id": 5042,
    "state_code": "73",
    "country_id": 75,
    "country_code": "FR",
    "latitude": "45.41497000",
    "longitude": "6.56500000",
    "native": null,
    "timezone": "Europe/Paris",
    "translations": {}
  },
  {
    "id": 44477,
    "name": "Méry",
    "state_id": 5042,
    "state_code": "73",
    "country_id": 75,
    "country_code": "FR",
    "latitude": "45.64139000",
    "longitude": "5.93550000",
    "native": null,
    "timezone": "Europe/Paris",
    "translations": {}
  },
  {
    "id": 44109,
    "name": "Modane",
    "state_id": 5042,
    "state_code": "73",
    "country_id": 75,
    "country_code": "FR",
    "latitude": "45.20032000",
    "longitude": "6.66871000",
    "native": null,
    "timezone": "Europe/Paris",
    "translations": {}
  },
  {
    "id": 44291,
    "name": "Montmélian",
    "state_id": 5042,
    "state_code": "73",
    "country_id": 75,
    "country_code": "FR",
    "latitude": "45.50509000",
    "longitude": "6.05634000",
    "native": null,
    "timezone": "Europe/Paris",
    "translations": {}
  },
  {
    "id": 44412,
    "name": "Moutiers",
    "state_id": 5042,
    "state_code": "73",
    "country_id": 75,
    "country_code": "FR",
    "latitude": "45.48459000",
    "longitude": "6.53146000",
    "native": null,
    "timezone": "Europe/Paris",
    "translations": {}
  },
  {
    "id": 44415,
    "name": "Mouxy",
    "state_id": 5042,
    "state_code": "73",
    "country_id": 75,
    "country_code": "FR",
    "latitude": "45.68399000",
    "longitude": "5.93538000",
    "native": null,
    "timezone": "Europe/Paris",
    "translations": {}
  },
  {
    "id": 44665,
    "name": "Novalaise",
    "state_id": 5042,
    "state_code": "73",
    "country_id": 75,
    "country_code": "FR",
    "latitude": "45.59480000",
    "longitude": "5.77767000",
    "native": null,
    "timezone": "Europe/Paris",
    "translations": {}
  },
  {
    "id": 161949,
    "name": "Porte-de-Savoie",
    "state_id": 5042,
    "state_code": "73",
    "country_id": 75,
    "country_code": "FR",
    "latitude": "45.48740000",
    "longitude": "5.98120000",
    "native": null,
    "timezone": "Europe/Paris",
    "translations": {}
  },
  {
    "id": 45736,
    "name": "Saint-Alban-Leysse",
    "state_id": 5042,
    "state_code": "73",
    "country_id": 75,
    "country_code": "FR",
    "latitude": "45.58333000",
    "longitude": "5.95000000",
    "native": null,
    "timezone": "Europe/Paris",
    "translations": {}
  },
  {
    "id": 45801,
    "name": "Saint-Baldoph",
    "state_id": 5042,
    "state_code": "73",
    "country_id": 75,
    "country_code": "FR",
    "latitude": "45.53120000",
    "longitude": "5.95217000",
    "native": null,
    "timezone": "Europe/Paris",
    "translations": {}
  },
  {
    "id": 45835,
    "name": "Saint-Béron",
    "state_id": 5042,
    "state_code": "73",
    "country_id": 75,
    "country_code": "FR",
    "latitude": "45.50308000",
    "longitude": "5.72790000",
    "native": null,
    "timezone": "Europe/Paris",
    "translations": {}
  },
  {
    "id": 45815,
    "name": "Saint-Bon-Tarentaise",
    "state_id": 5042,
    "state_code": "73",
    "country_id": 75,
    "country_code": "FR",
    "latitude": "45.43373000",
    "longitude": "6.63686000",
    "native": null,
    "timezone": "Europe/Paris",
    "translations": {}
  },
  {
    "id": 45925,
    "name": "Saint-Etienne-de-Cuines",
    "state_id": 5042,
    "state_code": "73",
    "country_id": 75,
    "country_code": "FR",
    "latitude": "45.35000000",
    "longitude": "6.28333000",
    "native": null,
    "timezone": "Europe/Paris",
    "translations": {}
  },
  {
    "id": 161985,
    "name": "Saint-Genix-les-Villages",
    "state_id": 5042,
    "state_code": "73",
    "country_id": 75,
    "country_code": "FR",
    "latitude": "45.61020000",
    "longitude": "5.67030000",
    "native": null,
    "timezone": "Europe/Paris",
    "translations": {}
  },
  {
    "id": 46095,
    "name": "Saint-Jean-de-Maurienne",
    "state_id": 5042,
    "state_code": "73",
    "country_id": 75,
    "country_code": "FR",
    "latitude": "45.27534000",
    "longitude": "6.35293000",
    "native": null,
    "timezone": "Europe/Paris",
    "translations": {}
  },
  {
    "id": 46268,
    "name": "Saint-Martin-de-Belleville",
    "state_id": 5042,
    "state_code": "73",
    "country_id": 75,
    "country_code": "FR",
    "latitude": "45.38175000",
    "longitude": "6.50519000",
    "native": null,
    "timezone": "Europe/Paris",
    "translations": {}
  },
  {
    "id": 46337,
    "name": "Saint-Michel-de-Maurienne",
    "state_id": 5042,
    "state_code": "73",
    "country_id": 75,
    "country_code": "FR",
    "latitude": "45.22011000",
    "longitude": "6.46868000",
    "native": null,
    "timezone": "Europe/Paris",
    "translations": {}
  },
  {
    "id": 162011,
    "name": "Saint-Pierre-d'Albigny",
    "state_id": 5042,
    "state_code": "73",
    "country_id": 75,
    "country_code": "FR",
    "latitude": "45.57690000",
    "longitude": "6.15910000",
    "native": null,
    "timezone": "Europe/Paris",
    "translations": {}
  },
  {
    "id": 46510,
    "name": "Saint-Rémy-de-Maurienne",
    "state_id": 5042,
    "state_code": "73",
    "country_id": 75,
    "country_code": "FR",
    "latitude": "45.40000000",
    "longitude": "6.26667000",
    "native": null,
    "timezone": "Europe/Paris",
    "translations": {}
  },
  {
    "id": 46699,
    "name": "Sainte-Hélène-sur-Isère",
    "state_id": 5042,
    "state_code": "73",
    "country_id": 75,
    "country_code": "FR",
    "latitude": "45.61434000",
    "longitude": "6.32052000",
    "native": null,
    "timezone": "Europe/Paris",
    "translations": {}
  },
  {
    "id": 46756,
    "name": "Salins-les-Thermes",
    "state_id": 5042,
    "state_code": "73",
    "country_id": 75,
    "country_code": "FR",
    "latitude": "45.47169000",
    "longitude": "6.53051000",
    "native": null,
    "timezone": "Europe/Paris",
    "translations": {}
  },
  {
    "id": 46886,
    "name": "Savoie",
    "state_id": 5042,
    "state_code": "73",
    "country_id": 75,
    "country_code": "FR",
    "latitude": "45.46805000",
    "longitude": "6.48547000",
    "native": null,
    "timezone": "Europe/Paris",
    "translations": {}
  },
  {
    "id": 47134,
    "name": "Séez",
    "state_id": 5042,
    "state_code": "73",
    "country_id": 75,
    "country_code": "FR",
    "latitude": "45.62368000",
    "longitude": "6.80149000",
    "native": null,
    "timezone": "Europe/Paris",
    "translations": {}
  },
  {
    "id": 47040,
    "name": "Sonnaz",
    "state_id": 5042,
    "state_code": "73",
    "country_id": 75,
    "country_code": "FR",
    "latitude": "45.61765000",
    "longitude": "5.91505000",
    "native": null,
    "timezone": "Europe/Paris",
    "translations": {}
  },
  {
    "id": 47279,
    "name": "Tignes",
    "state_id": 5042,
    "state_code": "73",
    "country_id": 75,
    "country_code": "FR",
    "latitude": "45.49604000",
    "longitude": "6.92463000",
    "native": null,
    "timezone": "Europe/Paris",
    "translations": {}
  },
  {
    "id": 47363,
    "name": "Tresserve",
    "state_id": 5042,
    "state_code": "73",
    "country_id": 75,
    "country_code": "FR",
    "latitude": "45.67610000",
    "longitude": "5.89906000",
    "native": null,
    "timezone": "Europe/Paris",
    "translations": {}
  },
  {
    "id": 47424,
    "name": "Ugine",
    "state_id": 5042,
    "state_code": "73",
    "country_id": 75,
    "country_code": "FR",
    "latitude": "45.75571000",
    "longitude": "6.41503000",
    "native": null,
    "timezone": "Europe/Paris",
    "translations": {}
  },
  {
    "id": 47461,
    "name": "Val Thorens",
    "state_id": 5042,
    "state_code": "73",
    "country_id": 75,
    "country_code": "FR",
    "latitude": "45.29777000",
    "longitude": "6.58377000",
    "native": null,
    "timezone": "Europe/Paris",
    "translations": {}
  },
  {
    "id": 162063,
    "name": "Val-Cenis",
    "state_id": 5042,
    "state_code": "73",
    "country_id": 75,
    "country_code": "FR",
    "latitude": "45.27640000",
    "longitude": "6.89160000",
    "native": null,
    "timezone": "Europe/Paris",
    "translations": {}
  },
  {
    "id": 162065,
    "name": "Val-d'Arc",
    "state_id": 5042,
    "state_code": "73",
    "country_id": 75,
    "country_code": "FR",
    "latitude": "45.53900000",
    "longitude": "6.32310000",
    "native": null,
    "timezone": "Europe/Paris",
    "translations": {}
  },
  {
    "id": 47465,
    "name": "Val-d’Isère",
    "state_id": 5042,
    "state_code": "73",
    "country_id": 75,
    "country_code": "FR",
    "latitude": "45.45142000",
    "longitude": "6.97455000",
    "native": null,
    "timezone": "Europe/Paris",
    "translations": {}
  },
  {
    "id": 162078,
    "name": "Valgelon-La Rochette",
    "state_id": 5042,
    "state_code": "73",
    "country_id": 75,
    "country_code": "FR",
    "latitude": "45.46200000",
    "longitude": "6.12530000",
    "native": null,
    "timezone": "Europe/Paris",
    "translations": {}
  },
  {
    "id": 47492,
    "name": "Valloire",
    "state_id": 5042,
    "state_code": "73",
    "country_id": 75,
    "country_code": "FR",
    "latitude": "45.16542000",
    "longitude": "6.42998000",
    "native": null,
    "timezone": "Europe/Paris",
    "translations": {}
  },
  {
    "id": 47712,
    "name": "Villargondran",
    "state_id": 5042,
    "state_code": "73",
    "country_id": 75,
    "country_code": "FR",
    "latitude": "45.26427000",
    "longitude": "6.37668000",
    "native": null,
    "timezone": "Europe/Paris",
    "translations": {}
  },
  {
    "id": 47838,
    "name": "Vimines",
    "state_id": 5042,
    "state_code": "73",
    "country_id": 75,
    "country_code": "FR",
    "latitude": "45.54640000",
    "longitude": "5.86523000",
    "native": null,
    "timezone": "Europe/Paris",
    "translations": {}
  },
  {
    "id": 47883,
    "name": "Viviers-du-Lac",
    "state_id": 5042,
    "state_code": "73",
    "country_id": 75,
    "country_code": "FR",
    "latitude": "45.65000000",
    "longitude": "5.90000000",
    "native": null,
    "timezone": "Europe/Paris",
    "translations": {}
  },
  {
    "id": 47890,
    "name": "Voglans",
    "state_id": 5042,
    "state_code": "73",
    "country_id": 75,
    "country_code": "FR",
    "latitude": "45.61868000",
    "longitude": "5.88798000",
    "native": null,
    "timezone": "Europe/Paris",
    "translations": {}
  },
  {
    "id": 48003,
    "name": "Yenne",
    "state_id": 5042,
    "state_code": "73",
    "country_id": 75,
    "country_code": "FR",
    "latitude": "45.70420000",
    "longitude": "5.75795000",
    "native": null,
    "timezone": "Europe/Paris",
    "translations": {}
  }
]