[
  {
    "id": 39274,
    "name": "Aiguefonde",
    "state_id": 5049,
    "state_code": "81",
    "country_id": 75,
    "country_code": "FR",
    "latitude": "43.49394000",
    "longitude": "2.31686000",
    "native": null,
    "timezone": "Europe/Paris",
    "translations": {}
  },
  {
    "id": 39305,
    "name": "Albi",
    "state_id": 5049,
    "state_code": "81",
    "country_id": 75,
    "country_code": "FR",
    "latitude": "43.92980000",
    "longitude": "2.14800000",
    "native": null,
    "timezone": "Europe/Paris",
    "translations": {}
  },
  {
    "id": 39526,
    "name": "Arthès",
    "state_id": 5049,
    "state_code": "81",
    "country_id": 75,
    "country_code": "FR",
    "latitude": "43.95745000",
    "longitude": "2.21130000",
    "native": null,
    "timezone": "Europe/Paris",
    "translations": {}
  },
  {
    "id": 39632,
    "name": "Aussillon",
    "state_id": 5049,
    "state_code": "81",
    "country_id": 75,
    "country_code": "FR",
    "latitude": "43.50293000",
    "longitude": "2.36791000",
    "native": null,
    "timezone": "Europe/Paris",
    "translations": {}
  },
  {
    "id": 40063,
    "name": "Blaye-les-Mines",
    "state_id": 5049,
    "state_code": "81",
    "country_id": 75,
    "country_code": "FR",
    "latitude": "44.03073000",
    "longitude": "2.13166000",
    "native": null,
    "timezone": "Europe/Paris",
    "translations": {}
  },
  {
    "id": 40222,
    "name": "Bout-du-Pont-de-Larn",
    "state_id": 5049,
    "state_code": "81",
    "country_id": 75,
    "country_code": "FR",
    "latitude": "43.49738000",
    "longitude": "2.41642000",
    "native": null,
    "timezone": "Europe/Paris",
    "translations": {}
  },
  {
    "id": 40261,
    "name": "Brassac",
    "state_id": 5049,
    "state_code": "81",
    "country_id": 75,
    "country_code": "FR",
    "latitude": "43.62959000",
    "longitude": "2.49763000",
    "native": null,
    "timezone": "Europe/Paris",
    "translations": {}
  },
  {
    "id": 40275,
    "name": "Brens",
    "state_id": 5049,
    "state_code": "81",
    "country_id": 75,
    "country_code": "FR",
    "latitude": "43.88725000",
    "longitude": "1.90716000",
    "native": null,
    "timezone": "Europe/Paris",
    "translations": {}
  },
  {
    "id": 40302,
    "name": "Briatexte",
    "state_id": 5049,
    "state_code": "81",
    "country_id": 75,
    "country_code": "FR",
    "latitude": "43.75237000",
    "longitude": "1.90879000",
    "native": null,
    "timezone": "Europe/Paris",
    "translations": {}
  },
  {
    "id": 40388,
    "name": "Burlats",
    "state_id": 5049,
    "state_code": "81",
    "country_id": 75,
    "country_code": "FR",
    "latitude": "43.63633000",
    "longitude": "2.31879000",
    "native": null,
    "timezone": "Europe/Paris",
    "translations": {}
  },
  {
    "id": 40450,
    "name": "Cadalen",
    "state_id": 5049,
    "state_code": "81",
    "country_id": 75,
    "country_code": "FR",
    "latitude": "43.84933000",
    "longitude": "1.98089000",
    "native": null,
    "timezone": "Europe/Paris",
    "translations": {}
  },
  {
    "id": 40458,
    "name": "Cagnac-les-Mines",
    "state_id": 5049,
    "state_code": "81",
    "country_id": 75,
    "country_code": "FR",
    "latitude": "43.98445000",
    "longitude": "2.14227000",
    "native": null,
    "timezone": "Europe/Paris",
    "translations": {}
  },
  {
    "id": 40464,
    "name": "Cahuzac-sur-Vère",
    "state_id": 5049,
    "state_code": "81",
    "country_id": 75,
    "country_code": "FR",
    "latitude": "43.98268000",
    "longitude": "1.91052000",
    "native": null,
    "timezone": "Europe/Paris",
    "translations": {}
  },
  {
    "id": 161711,
    "name": "Cambon",
    "state_id": 5049,
    "state_code": "81",
    "country_id": 75,
    "country_code": "FR",
    "latitude": "43.91130000",
    "longitude": "2.23180000",
    "native": null,
    "timezone": "Europe/Paris",
    "translations": {}
  },
  {
    "id": 40549,
    "name": "Carmaux",
    "state_id": 5049,
    "state_code": "81",
    "country_id": 75,
    "country_code": "FR",
    "latitude": "44.05099000",
    "longitude": "2.15795000",
    "native": null,
    "timezone": "Europe/Paris",
    "translations": {}
  },
  {
    "id": 40585,
    "name": "Castelnau-de-Lévis",
    "state_id": 5049,
    "state_code": "81",
    "country_id": 75,
    "country_code": "FR",
    "latitude": "43.93975000",
    "longitude": "2.08491000",
    "native": null,
    "timezone": "Europe/Paris",
    "translations": {}
  },
  {
    "id": 40595,
    "name": "Castres",
    "state_id": 5049,
    "state_code": "81",
    "country_id": 75,
    "country_code": "FR",
    "latitude": "43.60589000",
    "longitude": "2.23992000",
    "native": null,
    "timezone": "Europe/Paris",
    "translations": {}
  },
  {
    "id": 41174,
    "name": "Cordes-sur-Ciel",
    "state_id": 5049,
    "state_code": "81",
    "country_id": 75,
    "country_code": "FR",
    "latitude": "44.06667000",
    "longitude": "1.95000000",
    "native": null,
    "timezone": "Europe/Paris",
    "translations": {}
  },
  {
    "id": 41224,
    "name": "Coufouleux",
    "state_id": 5049,
    "state_code": "81",
    "country_id": 75,
    "country_code": "FR",
    "latitude": "43.81713000",
    "longitude": "1.73078000",
    "native": null,
    "timezone": "Europe/Paris",
    "translations": {}
  },
  {
    "id": 41373,
    "name": "Cunac",
    "state_id": 5049,
    "state_code": "81",
    "country_id": 75,
    "country_code": "FR",
    "latitude": "43.93010000",
    "longitude": "2.21878000",
    "native": null,
    "timezone": "Europe/Paris",
    "translations": {}
  },
  {
    "id": 41556,
    "name": "Dourgne",
    "state_id": 5049,
    "state_code": "81",
    "country_id": 75,
    "country_code": "FR",
    "latitude": "43.48381000",
    "longitude": "2.13989000",
    "native": null,
    "timezone": "Europe/Paris",
    "translations": {}
  },
  {
    "id": 41984,
    "name": "Fréjairolles",
    "state_id": 5049,
    "state_code": "81",
    "country_id": 75,
    "country_code": "FR",
    "latitude": "43.88094000",
    "longitude": "2.23151000",
    "native": null,
    "timezone": "Europe/Paris",
    "translations": {}
  },
  {
    "id": 42013,
    "name": "Gaillac",
    "state_id": 5049,
    "state_code": "81",
    "country_id": 75,
    "country_code": "FR",
    "latitude": "43.90160000",
    "longitude": "1.89686000",
    "native": null,
    "timezone": "Europe/Paris",
    "translations": {}
  },
  {
    "id": 42104,
    "name": "Giroussens",
    "state_id": 5049,
    "state_code": "81",
    "country_id": 75,
    "country_code": "FR",
    "latitude": "43.76199000",
    "longitude": "1.77608000",
    "native": null,
    "timezone": "Europe/Paris",
    "translations": {}
  },
  {
    "id": 42188,
    "name": "Graulhet",
    "state_id": 5049,
    "state_code": "81",
    "country_id": 75,
    "country_code": "FR",
    "latitude": "43.76688000",
    "longitude": "1.98938000",
    "native": null,
    "timezone": "Europe/Paris",
    "translations": {}
  },
  {
    "id": 42925,
    "name": "Labastide-Rouairoux",
    "state_id": 5049,
    "state_code": "81",
    "country_id": 75,
    "country_code": "FR",
    "latitude": "43.47566000",
    "longitude": "2.63929000",
    "native": null,
    "timezone": "Europe/Paris",
    "translations": {}
  },
  {
    "id": 42926,
    "name": "Labastide-Saint-Georges",
    "state_id": 5049,
    "state_code": "81",
    "country_id": 75,
    "country_code": "FR",
    "latitude": "43.69962000",
    "longitude": "1.84585000",
    "native": null,
    "timezone": "Europe/Paris",
    "translations": {}
  },
  {
    "id": 42937,
    "name": "Labruguière",
    "state_id": 5049,
    "state_code": "81",
    "country_id": 75,
    "country_code": "FR",
    "latitude": "43.53858000",
    "longitude": "2.26392000",
    "native": null,
    "timezone": "Europe/Paris",
    "translations": {}
  },
  {
    "id": 42944,
    "name": "Lacaune",
    "state_id": 5049,
    "state_code": "81",
    "country_id": 75,
    "country_code": "FR",
    "latitude": "43.70660000",
    "longitude": "2.69293000",
    "native": null,
    "timezone": "Europe/Paris",
    "translations": {}
  },
  {
    "id": 42949,
    "name": "Lacrouzette",
    "state_id": 5049,
    "state_code": "81",
    "country_id": 75,
    "country_code": "FR",
    "latitude": "43.66030000",
    "longitude": "2.34838000",
    "native": null,
    "timezone": "Europe/Paris",
    "translations": {}
  },
  {
    "id": 42955,
    "name": "Lagarrigue",
    "state_id": 5049,
    "state_code": "81",
    "country_id": 75,
    "country_code": "FR",
    "latitude": "43.57765000",
    "longitude": "2.27784000",
    "native": null,
    "timezone": "Europe/Paris",
    "translations": {}
  },
  {
    "id": 42963,
    "name": "Lagrave",
    "state_id": 5049,
    "state_code": "81",
    "country_id": 75,
    "country_code": "FR",
    "latitude": "43.89734000",
    "longitude": "1.99268000",
    "native": null,
    "timezone": "Europe/Paris",
    "translations": {}
  },
  {
    "id": 43104,
    "name": "Lautrec",
    "state_id": 5049,
    "state_code": "81",
    "country_id": 75,
    "country_code": "FR",
    "latitude": "43.70591000",
    "longitude": "2.13925000",
    "native": null,
    "timezone": "Europe/Paris",
    "translations": {}
  },
  {
    "id": 43113,
    "name": "Lavaur",
    "state_id": 5049,
    "state_code": "81",
    "country_id": 75,
    "country_code": "FR",
    "latitude": "43.69847000",
    "longitude": "1.81858000",
    "native": null,
    "timezone": "Europe/Paris",
    "translations": {}
  },
  {
    "id": 43193,
    "name": "Le Garric",
    "state_id": 5049,
    "state_code": "81",
    "country_id": 75,
    "country_code": "FR",
    "latitude": "44.00932000",
    "longitude": "2.16431000",
    "native": null,
    "timezone": "Europe/Paris",
    "translations": {}
  },
  {
    "id": 43300,
    "name": "Le Sequestre",
    "state_id": 5049,
    "state_code": "81",
    "country_id": 75,
    "country_code": "FR",
    "latitude": "43.91076000",
    "longitude": "2.11804000",
    "native": null,
    "timezone": "Europe/Paris",
    "translations": {}
  },
  {
    "id": 161861,
    "name": "Lescure-d'Albigeois",
    "state_id": 5049,
    "state_code": "81",
    "country_id": 75,
    "country_code": "FR",
    "latitude": "43.96310000",
    "longitude": "2.18460000",
    "native": null,
    "timezone": "Europe/Paris",
    "translations": {}
  },
  {
    "id": 43509,
    "name": "Lisle-sur-Tarn",
    "state_id": 5049,
    "state_code": "81",
    "country_id": 75,
    "country_code": "FR",
    "latitude": "43.85249000",
    "longitude": "1.81099000",
    "native": null,
    "timezone": "Europe/Paris",
    "translations": {}
  },
  {
    "id": 43908,
    "name": "Marssac-sur-Tarn",
    "state_id": 5049,
    "state_code": "81",
    "country_id": 75,
    "country_code": "FR",
    "latitude": "43.91768000",
    "longitude": "2.02921000",
    "native": null,
    "timezone": "Europe/Paris",
    "translations": {}
  },
  {
    "id": 43971,
    "name": "Mazamet",
    "state_id": 5049,
    "state_code": "81",
    "country_id": 75,
    "country_code": "FR",
    "latitude": "43.49001000",
    "longitude": "2.37304000",
    "native": null,
    "timezone": "Europe/Paris",
    "translations": {}
  },
  {
    "id": 44091,
    "name": "Mirandol-Bourgnounac",
    "state_id": 5049,
    "state_code": "81",
    "country_id": 75,
    "country_code": "FR",
    "latitude": "44.14273000",
    "longitude": "2.16857000",
    "native": null,
    "timezone": "Europe/Paris",
    "translations": {}
  },
  {
    "id": 44141,
    "name": "Monestiés",
    "state_id": 5049,
    "state_code": "81",
    "country_id": 75,
    "country_code": "FR",
    "latitude": "44.06667000",
    "longitude": "2.10000000",
    "native": null,
    "timezone": "Europe/Paris",
    "translations": {}
  },
  {
    "id": 44176,
    "name": "Montans",
    "state_id": 5049,
    "state_code": "81",
    "country_id": 75,
    "country_code": "FR",
    "latitude": "43.86700000",
    "longitude": "1.88568000",
    "native": null,
    "timezone": "Europe/Paris",
    "translations": {}
  },
  {
    "id": 44305,
    "name": "Montredon-Labessonnié",
    "state_id": 5049,
    "state_code": "81",
    "country_id": 75,
    "country_code": "FR",
    "latitude": "43.71723000",
    "longitude": "2.32454000",
    "native": null,
    "timezone": "Europe/Paris",
    "translations": {}
  },
  {
    "id": 44876,
    "name": "Payrin-Augmontel",
    "state_id": 5049,
    "state_code": "81",
    "country_id": 75,
    "country_code": "FR",
    "latitude": "43.54450000",
    "longitude": "2.35406000",
    "native": null,
    "timezone": "Europe/Paris",
    "translations": {}
  },
  {
    "id": 45179,
    "name": "Pont-de-Larn",
    "state_id": 5049,
    "state_code": "81",
    "country_id": 75,
    "country_code": "FR",
    "latitude": "43.50412000",
    "longitude": "2.40786000",
    "native": null,
    "timezone": "Europe/Paris",
    "translations": {}
  },
  {
    "id": 45337,
    "name": "Puygouzon",
    "state_id": 5049,
    "state_code": "81",
    "country_id": 75,
    "country_code": "FR",
    "latitude": "43.90000000",
    "longitude": "2.16667000",
    "native": null,
    "timezone": "Europe/Paris",
    "translations": {}
  },
  {
    "id": 45338,
    "name": "Puylaurens",
    "state_id": 5049,
    "state_code": "81",
    "country_id": 75,
    "country_code": "FR",
    "latitude": "43.57202000",
    "longitude": "2.01227000",
    "native": null,
    "timezone": "Europe/Paris",
    "translations": {}
  },
  {
    "id": 45411,
    "name": "Rabastens",
    "state_id": 5049,
    "state_code": "81",
    "country_id": 75,
    "country_code": "FR",
    "latitude": "43.82512000",
    "longitude": "1.72382000",
    "native": null,
    "timezone": "Europe/Paris",
    "translations": {}
  },
  {
    "id": 45683,
    "name": "Réalmont",
    "state_id": 5049,
    "state_code": "81",
    "country_id": 75,
    "country_code": "FR",
    "latitude": "43.77754000",
    "longitude": "2.18885000",
    "native": null,
    "timezone": "Europe/Paris",
    "translations": {}
  },
  {
    "id": 45591,
    "name": "Roquecourbe",
    "state_id": 5049,
    "state_code": "81",
    "country_id": 75,
    "country_code": "FR",
    "latitude": "43.66442000",
    "longitude": "2.29264000",
    "native": null,
    "timezone": "Europe/Paris",
    "translations": {}
  },
  {
    "id": 45746,
    "name": "Saint-Amans-Soult",
    "state_id": 5049,
    "state_code": "81",
    "country_id": 75,
    "country_code": "FR",
    "latitude": "43.47697000",
    "longitude": "2.49076000",
    "native": null,
    "timezone": "Europe/Paris",
    "translations": {}
  },
  {
    "id": 45747,
    "name": "Saint-Amans-Valtoret",
    "state_id": 5049,
    "state_code": "81",
    "country_id": 75,
    "country_code": "FR",
    "latitude": "43.48071000",
    "longitude": "2.49095000",
    "native": null,
    "timezone": "Europe/Paris",
    "translations": {}
  },
  {
    "id": 45811,
    "name": "Saint-Benoît-de-Carmaux",
    "state_id": 5049,
    "state_code": "81",
    "country_id": 75,
    "country_code": "FR",
    "latitude": "44.05037000",
    "longitude": "2.12911000",
    "native": null,
    "timezone": "Europe/Paris",
    "translations": {}
  },
  {
    "id": 46404,
    "name": "Saint-Paul-Cap-de-Joux",
    "state_id": 5049,
    "state_code": "81",
    "country_id": 75,
    "country_code": "FR",
    "latitude": "43.64791000",
    "longitude": "1.97559000",
    "native": null,
    "timezone": "Europe/Paris",
    "translations": {}
  },
  {
    "id": 46566,
    "name": "Saint-Sulpice-la-Pointe",
    "state_id": 5049,
    "state_code": "81",
    "country_id": 75,
    "country_code": "FR",
    "latitude": "43.77500000",
    "longitude": "1.68511000",
    "native": null,
    "timezone": "Europe/Paris",
    "translations": {}
  },
  {
    "id": 46892,
    "name": "Saïx",
    "state_id": 5049,
    "state_code": "81",
    "country_id": 75,
    "country_code": "FR",
    "latitude": "43.58333000",
    "longitude": "2.18333000",
    "native": null,
    "timezone": "Europe/Paris",
    "translations": {}
  },
  {
    "id": 47137,
    "name": "Sémalens",
    "state_id": 5049,
    "state_code": "81",
    "country_id": 75,
    "country_code": "FR",
    "latitude": "43.59225000",
    "longitude": "2.11208000",
    "native": null,
    "timezone": "Europe/Paris",
    "translations": {}
  },
  {
    "id": 47051,
    "name": "Sorèze",
    "state_id": 5049,
    "state_code": "81",
    "country_id": 75,
    "country_code": "FR",
    "latitude": "43.45241000",
    "longitude": "2.06799000",
    "native": null,
    "timezone": "Europe/Paris",
    "translations": {}
  },
  {
    "id": 47055,
    "name": "Soual",
    "state_id": 5049,
    "state_code": "81",
    "country_id": 75,
    "country_code": "FR",
    "latitude": "43.55530000",
    "longitude": "2.11679000",
    "native": null,
    "timezone": "Europe/Paris",
    "translations": {}
  },
  {
    "id": 47180,
    "name": "Tarn",
    "state_id": 5049,
    "state_code": "81",
    "country_id": 75,
    "country_code": "FR",
    "latitude": "43.78170000",
    "longitude": "2.16317000",
    "native": null,
    "timezone": "Europe/Paris",
    "translations": {}
  },
  {
    "id": 47472,
    "name": "Valence-d’Albigeois",
    "state_id": 5049,
    "state_code": "81",
    "country_id": 75,
    "country_code": "FR",
    "latitude": "44.01928000",
    "longitude": "2.40534000",
    "native": null,
    "timezone": "Europe/Paris",
    "translations": {}
  },
  {
    "id": 47680,
    "name": "Vielmur-sur-Agout",
    "state_id": 5049,
    "state_code": "81",
    "country_id": 75,
    "country_code": "FR",
    "latitude": "43.61667000",
    "longitude": "2.10000000",
    "native": null,
    "timezone": "Europe/Paris",
    "translations": {}
  },
  {
    "id": 47735,
    "name": "Villefranche-d'Albigeois",
    "state_id": 5049,
    "state_code": "81",
    "country_id": 75,
    "country_code": "FR",
    "latitude": "43.89635000",
    "longitude": "2.33022000",
    "native": null,
    "timezone": "Europe/Paris",
    "translations": {}
  },
  {
    "id": 47884,
    "name": "Viviers-lès-Montagnes",
    "state_id": 5049,
    "state_code": "81",
    "country_id": 75,
    "country_code": "FR",
    "latitude": "43.55474000",
    "longitude": "2.17672000",
    "native": null,
    "timezone": "Europe/Paris",
    "translations": {}
  }
]