[
  {
    "id": 39235,
    "name": "Abbeville",
    "state_id": 5048,
    "state_code": "80",
    "country_id": 75,
    "country_code": "FR",
    "latitude": "50.10521000",
    "longitude": "1.83547000",
    "native": null,
    "timezone": "Europe/Paris",
    "translations": {}
  },
  {
    "id": 39282,
    "name": "Ailly-sur-Noye",
    "state_id": 5048,
    "state_code": "80",
    "country_id": 75,
    "country_code": "FR",
    "latitude": "49.75707000",
    "longitude": "2.36367000",
    "native": null,
    "timezone": "Europe/Paris",
    "translations": {}
  },
  {
    "id": 39283,
    "name": "Ailly-sur-Somme",
    "state_id": 5048,
    "state_code": "80",
    "country_id": 75,
    "country_code": "FR",
    "latitude": "49.92886000",
    "longitude": "2.19615000",
    "native": null,
    "timezone": "Europe/Paris",
    "translations": {}
  },
  {
    "id": 39287,
    "name": "Airaines",
    "state_id": 5048,
    "state_code": "80",
    "country_id": 75,
    "country_code": "FR",
    "latitude": "49.96826000",
    "longitude": "1.94266000",
    "native": null,
    "timezone": "Europe/Paris",
    "translations": {}
  },
  {
    "id": 39303,
    "name": "Albert",
    "state_id": 5048,
    "state_code": "80",
    "country_id": 75,
    "country_code": "FR",
    "latitude": "50.00091000",
    "longitude": "2.65096000",
    "native": null,
    "timezone": "Europe/Paris",
    "translations": {}
  },
  {
    "id": 39364,
    "name": "Amiens",
    "state_id": 5048,
    "state_code": "80",
    "country_id": 75,
    "country_code": "FR",
    "latitude": "49.90000000",
    "longitude": "2.30000000",
    "native": null,
    "timezone": "Europe/Paris",
    "translations": {}
  },
  {
    "id": 39614,
    "name": "Ault",
    "state_id": 5048,
    "state_code": "80",
    "country_id": 75,
    "country_code": "FR",
    "latitude": "50.10404000",
    "longitude": "1.45000000",
    "native": null,
    "timezone": "Europe/Paris",
    "translations": {}
  },
  {
    "id": 39837,
    "name": "Beaucamps-le-Vieux",
    "state_id": 5048,
    "state_code": "80",
    "country_id": 75,
    "country_code": "FR",
    "latitude": "49.84642000",
    "longitude": "1.78272000",
    "native": null,
    "timezone": "Europe/Paris",
    "translations": {}
  },
  {
    "id": 39839,
    "name": "Beauchamps",
    "state_id": 5048,
    "state_code": "80",
    "country_id": 75,
    "country_code": "FR",
    "latitude": "50.01202000",
    "longitude": "1.51764000",
    "native": null,
    "timezone": "Europe/Paris",
    "translations": {}
  },
  {
    "id": 39879,
    "name": "Beauquesne",
    "state_id": 5048,
    "state_code": "80",
    "country_id": 75,
    "country_code": "FR",
    "latitude": "50.08526000",
    "longitude": "2.39276000",
    "native": null,
    "timezone": "Europe/Paris",
    "translations": {}
  },
  {
    "id": 39890,
    "name": "Beauval",
    "state_id": 5048,
    "state_code": "80",
    "country_id": 75,
    "country_code": "FR",
    "latitude": "50.10789000",
    "longitude": "2.33269000",
    "native": null,
    "timezone": "Europe/Paris",
    "translations": {}
  },
  {
    "id": 39951,
    "name": "Bernaville",
    "state_id": 5048,
    "state_code": "80",
    "country_id": 75,
    "country_code": "FR",
    "latitude": "50.13232000",
    "longitude": "2.16300000",
    "native": null,
    "timezone": "Europe/Paris",
    "translations": {}
  },
  {
    "id": 39967,
    "name": "Berteaucourt-les-Dames",
    "state_id": 5048,
    "state_code": "80",
    "country_id": 75,
    "country_code": "FR",
    "latitude": "50.04697000",
    "longitude": "2.15750000",
    "native": null,
    "timezone": "Europe/Paris",
    "translations": {}
  },
  {
    "id": 40430,
    "name": "Béthencourt-sur-Mer",
    "state_id": 5048,
    "state_code": "80",
    "country_id": 75,
    "country_code": "FR",
    "latitude": "50.07756000",
    "longitude": "1.50348000",
    "native": null,
    "timezone": "Europe/Paris",
    "translations": {}
  },
  {
    "id": 40225,
    "name": "Bouttencourt",
    "state_id": 5048,
    "state_code": "80",
    "country_id": 75,
    "country_code": "FR",
    "latitude": "49.93725000",
    "longitude": "1.63431000",
    "native": null,
    "timezone": "Europe/Paris",
    "translations": {}
  },
  {
    "id": 40239,
    "name": "Boves",
    "state_id": 5048,
    "state_code": "80",
    "country_id": 75,
    "country_code": "FR",
    "latitude": "49.84645000",
    "longitude": "2.39605000",
    "native": null,
    "timezone": "Europe/Paris",
    "translations": {}
  },
  {
    "id": 40269,
    "name": "Bray-sur-Somme",
    "state_id": 5048,
    "state_code": "80",
    "country_id": 75,
    "country_code": "FR",
    "latitude": "49.94085000",
    "longitude": "2.71847000",
    "native": null,
    "timezone": "Europe/Paris",
    "translations": {}
  },
  {
    "id": 40494,
    "name": "Camon",
    "state_id": 5048,
    "state_code": "80",
    "country_id": 75,
    "country_code": "FR",
    "latitude": "49.88764000",
    "longitude": "2.34486000",
    "native": null,
    "timezone": "Europe/Paris",
    "translations": {}
  },
  {
    "id": 40622,
    "name": "Cayeux-sur-Mer",
    "state_id": 5048,
    "state_code": "80",
    "country_id": 75,
    "country_code": "FR",
    "latitude": "50.18200000",
    "longitude": "1.49400000",
    "native": null,
    "timezone": "Europe/Paris",
    "translations": {}
  },
  {
    "id": 40841,
    "name": "Chaulnes",
    "state_id": 5048,
    "state_code": "80",
    "country_id": 75,
    "country_code": "FR",
    "latitude": "49.81699000",
    "longitude": "2.80064000",
    "native": null,
    "timezone": "Europe/Paris",
    "translations": {}
  },
  {
    "id": 41012,
    "name": "Chépy",
    "state_id": 5048,
    "state_code": "80",
    "country_id": 75,
    "country_code": "FR",
    "latitude": "50.06361000",
    "longitude": "1.64694000",
    "native": null,
    "timezone": "Europe/Paris",
    "translations": {}
  },
  {
    "id": 41158,
    "name": "Conty",
    "state_id": 5048,
    "state_code": "80",
    "country_id": 75,
    "country_code": "FR",
    "latitude": "49.74100000",
    "longitude": "2.15120000",
    "native": null,
    "timezone": "Europe/Paris",
    "translations": {}
  },
  {
    "id": 41168,
    "name": "Corbie",
    "state_id": 5048,
    "state_code": "80",
    "country_id": 75,
    "country_code": "FR",
    "latitude": "49.90672000",
    "longitude": "2.50682000",
    "native": null,
    "timezone": "Europe/Paris",
    "translations": {}
  },
  {
    "id": 41341,
    "name": "Crécy-en-Ponthieu",
    "state_id": 5048,
    "state_code": "80",
    "country_id": 75,
    "country_code": "FR",
    "latitude": "50.25193000",
    "longitude": "1.88085000",
    "native": null,
    "timezone": "Europe/Paris",
    "translations": {}
  },
  {
    "id": 41311,
    "name": "Creuse",
    "state_id": 5048,
    "state_code": "80",
    "country_id": 75,
    "country_code": "FR",
    "latitude": "46.07523000",
    "longitude": "2.05476000",
    "native": null,
    "timezone": "Europe/Paris",
    "translations": {}
  },
  {
    "id": 41433,
    "name": "Dargnies",
    "state_id": 5048,
    "state_code": "80",
    "country_id": 75,
    "country_code": "FR",
    "latitude": "50.04144000",
    "longitude": "1.52526000",
    "native": null,
    "timezone": "Europe/Paris",
    "translations": {}
  },
  {
    "id": 41502,
    "name": "Doingt",
    "state_id": 5048,
    "state_code": "80",
    "country_id": 75,
    "country_code": "FR",
    "latitude": "49.92113000",
    "longitude": "2.96766000",
    "native": null,
    "timezone": "Europe/Paris",
    "translations": {}
  },
  {
    "id": 41513,
    "name": "Domart-en-Ponthieu",
    "state_id": 5048,
    "state_code": "80",
    "country_id": 75,
    "country_code": "FR",
    "latitude": "50.07437000",
    "longitude": "2.12596000",
    "native": null,
    "timezone": "Europe/Paris",
    "translations": {}
  },
  {
    "id": 41553,
    "name": "Doullens",
    "state_id": 5048,
    "state_code": "80",
    "country_id": 75,
    "country_code": "FR",
    "latitude": "50.15724000",
    "longitude": "2.34019000",
    "native": null,
    "timezone": "Europe/Paris",
    "translations": {}
  },
  {
    "id": 41573,
    "name": "Dreuil-lès-Amiens",
    "state_id": 5048,
    "state_code": "80",
    "country_id": 75,
    "country_code": "FR",
    "latitude": "49.91483000",
    "longitude": "2.22893000",
    "native": null,
    "timezone": "Europe/Paris",
    "translations": {}
  },
  {
    "id": 41598,
    "name": "Dury",
    "state_id": 5048,
    "state_code": "80",
    "country_id": 75,
    "country_code": "FR",
    "latitude": "49.84731000",
    "longitude": "2.27070000",
    "native": null,
    "timezone": "Europe/Paris",
    "translations": {}
  },
  {
    "id": 48071,
    "name": "Épehy",
    "state_id": 5048,
    "state_code": "80",
    "country_id": 75,
    "country_code": "FR",
    "latitude": "50.00000000",
    "longitude": "3.13333000",
    "native": null,
    "timezone": "Europe/Paris",
    "translations": {}
  },
  {
    "id": 41688,
    "name": "Eppeville",
    "state_id": 5048,
    "state_code": "80",
    "country_id": 75,
    "country_code": "FR",
    "latitude": "49.74069000",
    "longitude": "3.05114000",
    "native": null,
    "timezone": "Europe/Paris",
    "translations": {}
  },
  {
    "id": 41813,
    "name": "Feuquières-en-Vimeu",
    "state_id": 5048,
    "state_code": "80",
    "country_id": 75,
    "country_code": "FR",
    "latitude": "50.05982000",
    "longitude": "1.60465000",
    "native": null,
    "timezone": "Europe/Paris",
    "translations": {}
  },
  {
    "id": 41838,
    "name": "Flesselles",
    "state_id": 5048,
    "state_code": "80",
    "country_id": 75,
    "country_code": "FR",
    "latitude": "50.00202000",
    "longitude": "2.26119000",
    "native": null,
    "timezone": "Europe/Paris",
    "translations": {}
  },
  {
    "id": 41855,
    "name": "Flixecourt",
    "state_id": 5048,
    "state_code": "80",
    "country_id": 75,
    "country_code": "FR",
    "latitude": "50.01465000",
    "longitude": "2.08095000",
    "native": null,
    "timezone": "Europe/Paris",
    "translations": {}
  },
  {
    "id": 41916,
    "name": "Fort-Mahon-Plage",
    "state_id": 5048,
    "state_code": "80",
    "country_id": 75,
    "country_code": "FR",
    "latitude": "50.33955000",
    "longitude": "1.55984000",
    "native": null,
    "timezone": "Europe/Paris",
    "translations": {}
  },
  {
    "id": 41962,
    "name": "Fressenneville",
    "state_id": 5048,
    "state_code": "80",
    "country_id": 75,
    "country_code": "FR",
    "latitude": "50.06838000",
    "longitude": "1.57816000",
    "native": null,
    "timezone": "Europe/Paris",
    "translations": {}
  },
  {
    "id": 41966,
    "name": "Friville-Escarbotin",
    "state_id": 5048,
    "state_code": "80",
    "country_id": 75,
    "country_code": "FR",
    "latitude": "50.08602000",
    "longitude": "1.54560000",
    "native": null,
    "timezone": "Europe/Paris",
    "translations": {}
  },
  {
    "id": 42024,
    "name": "Gamaches",
    "state_id": 5048,
    "state_code": "80",
    "country_id": 75,
    "country_code": "FR",
    "latitude": "49.98615000",
    "longitude": "1.55624000",
    "native": null,
    "timezone": "Europe/Paris",
    "translations": {}
  },
  {
    "id": 42313,
    "name": "Hallencourt",
    "state_id": 5048,
    "state_code": "80",
    "country_id": 75,
    "country_code": "FR",
    "latitude": "49.99201000",
    "longitude": "1.87649000",
    "native": null,
    "timezone": "Europe/Paris",
    "translations": {}
  },
  {
    "id": 42317,
    "name": "Ham",
    "state_id": 5048,
    "state_code": "80",
    "country_id": 75,
    "country_code": "FR",
    "latitude": "49.74721000",
    "longitude": "3.07301000",
    "native": null,
    "timezone": "Europe/Paris",
    "translations": {}
  },
  {
    "id": 42325,
    "name": "Harbonnières",
    "state_id": 5048,
    "state_code": "80",
    "country_id": 75,
    "country_code": "FR",
    "latitude": "49.84958000",
    "longitude": "2.66812000",
    "native": null,
    "timezone": "Europe/Paris",
    "translations": {}
  },
  {
    "id": 42412,
    "name": "Hombleux",
    "state_id": 5048,
    "state_code": "80",
    "country_id": 75,
    "country_code": "FR",
    "latitude": "49.73942000",
    "longitude": "2.98574000",
    "native": null,
    "timezone": "Europe/Paris",
    "translations": {}
  },
  {
    "id": 42422,
    "name": "Hornoy-le-Bourg",
    "state_id": 5048,
    "state_code": "80",
    "country_id": 75,
    "country_code": "FR",
    "latitude": "49.85000000",
    "longitude": "1.90000000",
    "native": null,
    "timezone": "Europe/Paris",
    "translations": {}
  },
  {
    "id": 43177,
    "name": "Le Crotoy",
    "state_id": 5048,
    "state_code": "80",
    "country_id": 75,
    "country_code": "FR",
    "latitude": "50.21600000",
    "longitude": "1.62500000",
    "native": null,
    "timezone": "Europe/Paris",
    "translations": {}
  },
  {
    "id": 43567,
    "name": "Longpré-les-Corps-Saints",
    "state_id": 5048,
    "state_code": "80",
    "country_id": 75,
    "country_code": "FR",
    "latitude": "50.01239000",
    "longitude": "1.99287000",
    "native": null,
    "timezone": "Europe/Paris",
    "translations": {}
  },
  {
    "id": 43568,
    "name": "Longueau",
    "state_id": 5048,
    "state_code": "80",
    "country_id": 75,
    "country_code": "FR",
    "latitude": "49.87226000",
    "longitude": "2.35880000",
    "native": null,
    "timezone": "Europe/Paris",
    "translations": {}
  },
  {
    "id": 44455,
    "name": "Méaulte",
    "state_id": 5048,
    "state_code": "80",
    "country_id": 75,
    "country_code": "FR",
    "latitude": "49.98167000",
    "longitude": "2.66121000",
    "native": null,
    "timezone": "Europe/Paris",
    "translations": {}
  },
  {
    "id": 44018,
    "name": "Mers-les-Bains",
    "state_id": 5048,
    "state_code": "80",
    "country_id": 75,
    "country_code": "FR",
    "latitude": "50.06538000",
    "longitude": "1.38810000",
    "native": null,
    "timezone": "Europe/Paris",
    "translations": {}
  },
  {
    "id": 44117,
    "name": "Moislains",
    "state_id": 5048,
    "state_code": "80",
    "country_id": 75,
    "country_code": "FR",
    "latitude": "49.98820000",
    "longitude": "2.96404000",
    "native": null,
    "timezone": "Europe/Paris",
    "translations": {}
  },
  {
    "id": 44214,
    "name": "Montdidier",
    "state_id": 5048,
    "state_code": "80",
    "country_id": 75,
    "country_code": "FR",
    "latitude": "49.64800000",
    "longitude": "2.56991000",
    "native": null,
    "timezone": "Europe/Paris",
    "translations": {}
  },
  {
    "id": 44350,
    "name": "Moreuil",
    "state_id": 5048,
    "state_code": "80",
    "country_id": 75,
    "country_code": "FR",
    "latitude": "49.77457000",
    "longitude": "2.48273000",
    "native": null,
    "timezone": "Europe/Paris",
    "translations": {}
  },
  {
    "id": 44513,
    "name": "Naours",
    "state_id": 5048,
    "state_code": "80",
    "country_id": 75,
    "country_code": "FR",
    "latitude": "50.03682000",
    "longitude": "2.27691000",
    "native": null,
    "timezone": "Europe/Paris",
    "translations": {}
  },
  {
    "id": 44532,
    "name": "Nesle",
    "state_id": 5048,
    "state_code": "80",
    "country_id": 75,
    "country_code": "FR",
    "latitude": "49.75888000",
    "longitude": "2.91133000",
    "native": null,
    "timezone": "Europe/Paris",
    "translations": {}
  },
  {
    "id": 44660,
    "name": "Nouvion",
    "state_id": 5048,
    "state_code": "80",
    "country_id": 75,
    "country_code": "FR",
    "latitude": "50.20000000",
    "longitude": "1.78333000",
    "native": null,
    "timezone": "Europe/Paris",
    "translations": {}
  },
  {
    "id": 44726,
    "name": "Oisemont",
    "state_id": 5048,
    "state_code": "80",
    "country_id": 75,
    "country_code": "FR",
    "latitude": "49.95587000",
    "longitude": "1.76703000",
    "native": null,
    "timezone": "Europe/Paris",
    "translations": {}
  },
  {
    "id": 44891,
    "name": "Pendé",
    "state_id": 5048,
    "state_code": "80",
    "country_id": 75,
    "country_code": "FR",
    "latitude": "50.16055000",
    "longitude": "1.58541000",
    "native": null,
    "timezone": "Europe/Paris",
    "translations": {}
  },
  {
    "id": 45363,
    "name": "Péronne",
    "state_id": 5048,
    "state_code": "80",
    "country_id": 75,
    "country_code": "FR",
    "latitude": "49.93218000",
    "longitude": "2.93630000",
    "native": null,
    "timezone": "Europe/Paris",
    "translations": {}
  },
  {
    "id": 44947,
    "name": "Picquigny",
    "state_id": 5048,
    "state_code": "80",
    "country_id": 75,
    "country_code": "FR",
    "latitude": "49.94413000",
    "longitude": "2.14376000",
    "native": null,
    "timezone": "Europe/Paris",
    "translations": {}
  },
  {
    "id": 45139,
    "name": "Poix-de-Picardie",
    "state_id": 5048,
    "state_code": "80",
    "country_id": 75,
    "country_code": "FR",
    "latitude": "49.78333000",
    "longitude": "1.98333000",
    "native": null,
    "timezone": "Europe/Paris",
    "translations": {}
  },
  {
    "id": 45180,
    "name": "Pont-de-Metz",
    "state_id": 5048,
    "state_code": "80",
    "country_id": 75,
    "country_code": "FR",
    "latitude": "49.87820000",
    "longitude": "2.24266000",
    "native": null,
    "timezone": "Europe/Paris",
    "translations": {}
  },
  {
    "id": 45168,
    "name": "Pont-Remy",
    "state_id": 5048,
    "state_code": "80",
    "country_id": 75,
    "country_code": "FR",
    "latitude": "50.05000000",
    "longitude": "1.91667000",
    "native": null,
    "timezone": "Europe/Paris",
    "translations": {}
  },
  {
    "id": 45258,
    "name": "Poulainville",
    "state_id": 5048,
    "state_code": "80",
    "country_id": 75,
    "country_code": "FR",
    "latitude": "49.94745000",
    "longitude": "2.31373000",
    "native": null,
    "timezone": "Europe/Paris",
    "translations": {}
  },
  {
    "id": 45374,
    "name": "Quend",
    "state_id": 5048,
    "state_code": "80",
    "country_id": 75,
    "country_code": "FR",
    "latitude": "50.31584000",
    "longitude": "1.63609000",
    "native": null,
    "timezone": "Europe/Paris",
    "translations": {}
  },
  {
    "id": 45383,
    "name": "Quevauvillers",
    "state_id": 5048,
    "state_code": "80",
    "country_id": 75,
    "country_code": "FR",
    "latitude": "49.82376000",
    "longitude": "2.08431000",
    "native": null,
    "timezone": "Europe/Paris",
    "translations": {}
  },
  {
    "id": 45528,
    "name": "Rivery",
    "state_id": 5048,
    "state_code": "80",
    "country_id": 75,
    "country_code": "FR",
    "latitude": "49.90328000",
    "longitude": "2.32235000",
    "native": null,
    "timezone": "Europe/Paris",
    "translations": {}
  },
  {
    "id": 45564,
    "name": "Roisel",
    "state_id": 5048,
    "state_code": "80",
    "country_id": 75,
    "country_code": "FR",
    "latitude": "49.94768000",
    "longitude": "3.09973000",
    "native": null,
    "timezone": "Europe/Paris",
    "translations": {}
  },
  {
    "id": 45604,
    "name": "Rosières-en-Santerre",
    "state_id": 5048,
    "state_code": "80",
    "country_id": 75,
    "country_code": "FR",
    "latitude": "49.81433000",
    "longitude": "2.70095000",
    "native": null,
    "timezone": "Europe/Paris",
    "translations": {}
  },
  {
    "id": 45659,
    "name": "Rue",
    "state_id": 5048,
    "state_code": "80",
    "country_id": 75,
    "country_code": "FR",
    "latitude": "50.27150000",
    "longitude": "1.67163000",
    "native": null,
    "timezone": "Europe/Paris",
    "translations": {}
  },
  {
    "id": 45717,
    "name": "Sailly-Flibeaucourt",
    "state_id": 5048,
    "state_code": "80",
    "country_id": 75,
    "country_code": "FR",
    "latitude": "50.18419000",
    "longitude": "1.77180000",
    "native": null,
    "timezone": "Europe/Paris",
    "translations": {}
  },
  {
    "id": 45725,
    "name": "Sains-en-Amiénois",
    "state_id": 5048,
    "state_code": "80",
    "country_id": 75,
    "country_code": "FR",
    "latitude": "49.81716000",
    "longitude": "2.31862000",
    "native": null,
    "timezone": "Europe/Paris",
    "translations": {}
  },
  {
    "id": 46216,
    "name": "Saint-Léger-lès-Domart",
    "state_id": 5048,
    "state_code": "80",
    "country_id": 75,
    "country_code": "FR",
    "latitude": "50.05208000",
    "longitude": "2.14067000",
    "native": null,
    "timezone": "Europe/Paris",
    "translations": {}
  },
  {
    "id": 46376,
    "name": "Saint-Ouen",
    "state_id": 5048,
    "state_code": "80",
    "country_id": 75,
    "country_code": "FR",
    "latitude": "50.03819000",
    "longitude": "2.12088000",
    "native": null,
    "timezone": "Europe/Paris",
    "translations": {}
  },
  {
    "id": 46497,
    "name": "Saint-Riquier",
    "state_id": 5048,
    "state_code": "80",
    "country_id": 75,
    "country_code": "FR",
    "latitude": "50.13235000",
    "longitude": "1.94755000",
    "native": null,
    "timezone": "Europe/Paris",
    "translations": {}
  },
  {
    "id": 46597,
    "name": "Saint-Valery-sur-Somme",
    "state_id": 5048,
    "state_code": "80",
    "country_id": 75,
    "country_code": "FR",
    "latitude": "50.18333000",
    "longitude": "1.63333000",
    "native": null,
    "timezone": "Europe/Paris",
    "translations": {}
  },
  {
    "id": 46747,
    "name": "Saleux",
    "state_id": 5048,
    "state_code": "80",
    "country_id": 75,
    "country_code": "FR",
    "latitude": "49.85630000",
    "longitude": "2.23698000",
    "native": null,
    "timezone": "Europe/Paris",
    "translations": {}
  },
  {
    "id": 46767,
    "name": "Salouël",
    "state_id": 5048,
    "state_code": "80",
    "country_id": 75,
    "country_code": "FR",
    "latitude": "49.86988000",
    "longitude": "2.24340000",
    "native": null,
    "timezone": "Europe/Paris",
    "translations": {}
  },
  {
    "id": 47035,
    "name": "Somme",
    "state_id": 5048,
    "state_code": "80",
    "country_id": 75,
    "country_code": "FR",
    "latitude": "49.93141000",
    "longitude": "2.27639000",
    "native": null,
    "timezone": "Europe/Paris",
    "translations": {}
  },
  {
    "id": 47167,
    "name": "Talmas",
    "state_id": 5048,
    "state_code": "80",
    "country_id": 75,
    "country_code": "FR",
    "latitude": "50.03049000",
    "longitude": "2.32554000",
    "native": null,
    "timezone": "Europe/Paris",
    "translations": {}
  },
  {
    "id": 47694,
    "name": "Vignacourt",
    "state_id": 5048,
    "state_code": "80",
    "country_id": 75,
    "country_code": "FR",
    "latitude": "50.01236000",
    "longitude": "2.19743000",
    "native": null,
    "timezone": "Europe/Paris",
    "translations": {}
  },
  {
    "id": 47797,
    "name": "Villers-Bretonneux",
    "state_id": 5048,
    "state_code": "80",
    "country_id": 75,
    "country_code": "FR",
    "latitude": "49.86844000",
    "longitude": "2.51688000",
    "native": null,
    "timezone": "Europe/Paris",
    "translations": {}
  },
  {
    "id": 47992,
    "name": "Woincourt",
    "state_id": 5048,
    "state_code": "80",
    "country_id": 75,
    "country_code": "FR",
    "latitude": "50.06630000",
    "longitude": "1.53676000",
    "native": null,
    "timezone": "Europe/Paris",
    "translations": {}
  }
]