[
  {
    "id": 39242,
    "name": "Ablon-sur-Seine",
    "state_id": 5062,
    "state_code": "94",
    "country_id": 75,
    "country_code": "FR",
    "latitude": "48.72732000",
    "longitude": "2.42686000",
    "native": null,
    "timezone": "Europe/Paris",
    "translations": {}
  },
  {
    "id": 39311,
    "name": "Alfortville",
    "state_id": 5062,
    "state_code": "94",
    "country_id": 75,
    "country_code": "FR",
    "latitude": "48.80575000",
    "longitude": "2.42040000",
    "native": null,
    "timezone": "Europe/Paris",
    "translations": {}
  },
  {
    "id": 39465,
    "name": "Arcueil",
    "state_id": 5062,
    "state_code": "94",
    "country_id": 75,
    "country_code": "FR",
    "latitude": "48.79993000",
    "longitude": "2.33256000",
    "native": null,
    "timezone": "Europe/Paris",
    "translations": {}
  },
  {
    "id": 40098,
    "name": "Boissy-Saint-Léger",
    "state_id": 5062,
    "state_code": "94",
    "country_id": 75,
    "country_code": "FR",
    "latitude": "48.75149000",
    "longitude": "2.51163000",
    "native": null,
    "timezone": "Europe/Paris",
    "translations": {}
  },
  {
    "id": 40123,
    "name": "Bonneuil-sur-Marne",
    "state_id": 5062,
    "state_code": "94",
    "country_id": 75,
    "country_code": "FR",
    "latitude": "48.76950000",
    "longitude": "2.47930000",
    "native": null,
    "timezone": "Europe/Paris",
    "translations": {}
  },
  {
    "id": 40353,
    "name": "Bry-sur-Marne",
    "state_id": 5062,
    "state_code": "94",
    "country_id": 75,
    "country_code": "FR",
    "latitude": "48.83811000",
    "longitude": "2.52488000",
    "native": null,
    "timezone": "Europe/Paris",
    "translations": {}
  },
  {
    "id": 40449,
    "name": "Cachan",
    "state_id": 5062,
    "state_code": "94",
    "country_id": 75,
    "country_code": "FR",
    "latitude": "48.79632000",
    "longitude": "2.33661000",
    "native": null,
    "timezone": "Europe/Paris",
    "translations": {}
  },
  {
    "id": 40742,
    "name": "Champigny-sur-Marne",
    "state_id": 5062,
    "state_code": "94",
    "country_id": 75,
    "country_code": "FR",
    "latitude": "48.81642000",
    "longitude": "2.49366000",
    "native": null,
    "timezone": "Europe/Paris",
    "translations": {}
  },
  {
    "id": 40798,
    "name": "Charenton-le-Pont",
    "state_id": 5062,
    "state_code": "94",
    "country_id": 75,
    "country_code": "FR",
    "latitude": "48.82209000",
    "longitude": "2.41217000",
    "native": null,
    "timezone": "Europe/Paris",
    "translations": {}
  },
  {
    "id": 40874,
    "name": "Chennevières-sur-Marne",
    "state_id": 5062,
    "state_code": "94",
    "country_id": 75,
    "country_code": "FR",
    "latitude": "48.79702000",
    "longitude": "2.54046000",
    "native": null,
    "timezone": "Europe/Paris",
    "translations": {}
  },
  {
    "id": 40900,
    "name": "Chevilly-Larue",
    "state_id": 5062,
    "state_code": "94",
    "country_id": 75,
    "country_code": "FR",
    "latitude": "48.76476000",
    "longitude": "2.35030000",
    "native": null,
    "timezone": "Europe/Paris",
    "translations": {}
  },
  {
    "id": 40923,
    "name": "Choisy-le-Roi",
    "state_id": 5062,
    "state_code": "94",
    "country_id": 75,
    "country_code": "FR",
    "latitude": "48.76846000",
    "longitude": "2.41874000",
    "native": null,
    "timezone": "Europe/Paris",
    "translations": {}
  },
  {
    "id": 41351,
    "name": "Créteil",
    "state_id": 5062,
    "state_code": "94",
    "country_id": 75,
    "country_code": "FR",
    "latitude": "48.79266000",
    "longitude": "2.46569000",
    "native": null,
    "timezone": "Europe/Paris",
    "translations": {}
  },
  {
    "id": 41902,
    "name": "Fontenay-sous-Bois",
    "state_id": 5062,
    "state_code": "94",
    "country_id": 75,
    "country_code": "FR",
    "latitude": "48.85442000",
    "longitude": "2.48268000",
    "native": null,
    "timezone": "Europe/Paris",
    "translations": {}
  },
  {
    "id": 41958,
    "name": "Fresnes",
    "state_id": 5062,
    "state_code": "94",
    "country_id": 75,
    "country_code": "FR",
    "latitude": "48.75568000",
    "longitude": "2.32241000",
    "native": null,
    "timezone": "Europe/Paris",
    "translations": {}
  },
  {
    "id": 42070,
    "name": "Gentilly",
    "state_id": 5062,
    "state_code": "94",
    "country_id": 75,
    "country_code": "FR",
    "latitude": "48.81294000",
    "longitude": "2.34170000",
    "native": null,
    "timezone": "Europe/Paris",
    "translations": {}
  },
  {
    "id": 42517,
    "name": "Ivry-sur-Seine",
    "state_id": 5062,
    "state_code": "94",
    "country_id": 75,
    "country_code": "FR",
    "latitude": "48.81568000",
    "longitude": "2.38487000",
    "native": null,
    "timezone": "Europe/Paris",
    "translations": {}
  },
  {
    "id": 42554,
    "name": "Joinville-le-Pont",
    "state_id": 5062,
    "state_code": "94",
    "country_id": 75,
    "country_code": "FR",
    "latitude": "48.82538000",
    "longitude": "2.47458000",
    "native": null,
    "timezone": "Europe/Paris",
    "translations": {}
  },
  {
    "id": 42626,
    "name": "L'Haÿ-les-Roses",
    "state_id": 5062,
    "state_code": "94",
    "country_id": 75,
    "country_code": "FR",
    "latitude": "48.78333000",
    "longitude": "2.33333000",
    "native": null,
    "timezone": "Europe/Paris",
    "translations": {}
  },
  {
    "id": 42839,
    "name": "La Queue-en-Brie",
    "state_id": 5062,
    "state_code": "94",
    "country_id": 75,
    "country_code": "FR",
    "latitude": "48.78520000",
    "longitude": "2.58112000",
    "native": null,
    "timezone": "Europe/Paris",
    "translations": {}
  },
  {
    "id": 43208,
    "name": "Le Kremlin-Bicêtre",
    "state_id": 5062,
    "state_code": "94",
    "country_id": 75,
    "country_code": "FR",
    "latitude": "48.81471000",
    "longitude": "2.36073000",
    "native": null,
    "timezone": "Europe/Paris",
    "translations": {}
  },
  {
    "id": 43250,
    "name": "Le Perreux-sur-Marne",
    "state_id": 5062,
    "state_code": "94",
    "country_id": 75,
    "country_code": "FR",
    "latitude": "48.85000000",
    "longitude": "2.50000000",
    "native": null,
    "timezone": "Europe/Paris",
    "translations": {}
  },
  {
    "id": 43270,
    "name": "Le Plessis-Trévise",
    "state_id": 5062,
    "state_code": "94",
    "country_id": 75,
    "country_code": "FR",
    "latitude": "48.81074000",
    "longitude": "2.57363000",
    "native": null,
    "timezone": "Europe/Paris",
    "translations": {}
  },
  {
    "id": 43490,
    "name": "Limeil-Brévannes",
    "state_id": 5062,
    "state_code": "94",
    "country_id": 75,
    "country_code": "FR",
    "latitude": "48.74480000",
    "longitude": "2.48705000",
    "native": null,
    "timezone": "Europe/Paris",
    "translations": {}
  },
  {
    "id": 43743,
    "name": "Maisons-Alfort",
    "state_id": 5062,
    "state_code": "94",
    "country_id": 75,
    "country_code": "FR",
    "latitude": "48.81171000",
    "longitude": "2.43945000",
    "native": null,
    "timezone": "Europe/Paris",
    "translations": {}
  },
  {
    "id": 43775,
    "name": "Mandres-les-Roses",
    "state_id": 5062,
    "state_code": "94",
    "country_id": 75,
    "country_code": "FR",
    "latitude": "48.70198000",
    "longitude": "2.54662000",
    "native": null,
    "timezone": "Europe/Paris",
    "translations": {}
  },
  {
    "id": 161884,
    "name": "Marolles-en-Brie",
    "state_id": 5062,
    "state_code": "94",
    "country_id": 75,
    "country_code": "FR",
    "latitude": "48.73850000",
    "longitude": "2.55390000",
    "native": null,
    "timezone": "Europe/Paris",
    "translations": {}
  },
  {
    "id": 44615,
    "name": "Nogent-sur-Marne",
    "state_id": 5062,
    "state_code": "94",
    "country_id": 75,
    "country_code": "FR",
    "latitude": "48.83669000",
    "longitude": "2.48255000",
    "native": null,
    "timezone": "Europe/Paris",
    "translations": {}
  },
  {
    "id": 44626,
    "name": "Noiseau",
    "state_id": 5062,
    "state_code": "94",
    "country_id": 75,
    "country_code": "FR",
    "latitude": "48.77589000",
    "longitude": "2.54892000",
    "native": null,
    "timezone": "Europe/Paris",
    "translations": {}
  },
  {
    "id": 44773,
    "name": "Orly",
    "state_id": 5062,
    "state_code": "94",
    "country_id": 75,
    "country_code": "FR",
    "latitude": "48.74792000",
    "longitude": "2.39253000",
    "native": null,
    "timezone": "Europe/Paris",
    "translations": {}
  },
  {
    "id": 44777,
    "name": "Ormesson-sur-Marne",
    "state_id": 5062,
    "state_code": "94",
    "country_id": 75,
    "country_code": "FR",
    "latitude": "48.78630000",
    "longitude": "2.54471000",
    "native": null,
    "timezone": "Europe/Paris",
    "translations": {}
  },
  {
    "id": 45357,
    "name": "Périgny",
    "state_id": 5062,
    "state_code": "94",
    "country_id": 75,
    "country_code": "FR",
    "latitude": "48.69656000",
    "longitude": "2.55537000",
    "native": null,
    "timezone": "Europe/Paris",
    "translations": {}
  },
  {
    "id": 45675,
    "name": "Rungis",
    "state_id": 5062,
    "state_code": "94",
    "country_id": 75,
    "country_code": "FR",
    "latitude": "48.74607000",
    "longitude": "2.35275000",
    "native": null,
    "timezone": "Europe/Paris",
    "translations": {}
  },
  {
    "id": 46236,
    "name": "Saint-Mandé",
    "state_id": 5062,
    "state_code": "94",
    "country_id": 75,
    "country_code": "FR",
    "latitude": "48.83864000",
    "longitude": "2.41579000",
    "native": null,
    "timezone": "Europe/Paris",
    "translations": {}
  },
  {
    "id": 46310,
    "name": "Saint-Maur-des-Fossés",
    "state_id": 5062,
    "state_code": "94",
    "country_id": 75,
    "country_code": "FR",
    "latitude": "48.79395000",
    "longitude": "2.49323000",
    "native": null,
    "timezone": "Europe/Paris",
    "translations": {}
  },
  {
    "id": 46798,
    "name": "Santeny",
    "state_id": 5062,
    "state_code": "94",
    "country_id": 75,
    "country_code": "FR",
    "latitude": "48.72730000",
    "longitude": "2.57346000",
    "native": null,
    "timezone": "Europe/Paris",
    "translations": {}
  },
  {
    "id": 47111,
    "name": "Sucy-en-Brie",
    "state_id": 5062,
    "state_code": "94",
    "country_id": 75,
    "country_code": "FR",
    "latitude": "48.76872000",
    "longitude": "2.53474000",
    "native": null,
    "timezone": "Europe/Paris",
    "translations": {}
  },
  {
    "id": 47225,
    "name": "Thiais",
    "state_id": 5062,
    "state_code": "94",
    "country_id": 75,
    "country_code": "FR",
    "latitude": "48.76496000",
    "longitude": "2.39610000",
    "native": null,
    "timezone": "Europe/Paris",
    "translations": {}
  },
  {
    "id": 47462,
    "name": "Val-de-Marne",
    "state_id": 5062,
    "state_code": "94",
    "country_id": 75,
    "country_code": "FR",
    "latitude": "48.78149000",
    "longitude": "2.49331000",
    "native": null,
    "timezone": "Europe/Paris",
    "translations": {}
  },
  {
    "id": 47478,
    "name": "Valenton",
    "state_id": 5062,
    "state_code": "94",
    "country_id": 75,
    "country_code": "FR",
    "latitude": "48.74527000",
    "longitude": "2.46467000",
    "native": null,
    "timezone": "Europe/Paris",
    "translations": {}
  },
  {
    "id": 47727,
    "name": "Villecresnes",
    "state_id": 5062,
    "state_code": "94",
    "country_id": 75,
    "country_code": "FR",
    "latitude": "48.72002000",
    "longitude": "2.53940000",
    "native": null,
    "timezone": "Europe/Paris",
    "translations": {}
  },
  {
    "id": 47745,
    "name": "Villejuif",
    "state_id": 5062,
    "state_code": "94",
    "country_id": 75,
    "country_code": "FR",
    "latitude": "48.79390000",
    "longitude": "2.35992000",
    "native": null,
    "timezone": "Europe/Paris",
    "translations": {}
  },
  {
    "id": 47777,
    "name": "Villeneuve-le-Roi",
    "state_id": 5062,
    "state_code": "94",
    "country_id": 75,
    "country_code": "FR",
    "latitude": "48.73684000",
    "longitude": "2.40081000",
    "native": null,
    "timezone": "Europe/Paris",
    "translations": {}
  },
  {
    "id": 47763,
    "name": "Villeneuve-Saint-Georges",
    "state_id": 5062,
    "state_code": "94",
    "country_id": 75,
    "country_code": "FR",
    "latitude": "48.73219000",
    "longitude": "2.44925000",
    "native": null,
    "timezone": "Europe/Paris",
    "translations": {}
  },
  {
    "id": 47833,
    "name": "Villiers-sur-Marne",
    "state_id": 5062,
    "state_code": "94",
    "country_id": 75,
    "country_code": "FR",
    "latitude": "48.83100000",
    "longitude": "2.54844000",
    "native": null,
    "timezone": "Europe/Paris",
    "translations": {}
  },
  {
    "id": 47844,
    "name": "Vincennes",
    "state_id": 5062,
    "state_code": "94",
    "country_id": 75,
    "country_code": "FR",
    "latitude": "48.84860000",
    "longitude": "2.43769000",
    "native": null,
    "timezone": "Europe/Paris",
    "translations": {}
  },
  {
    "id": 47875,
    "name": "Vitry-sur-Seine",
    "state_id": 5062,
    "state_code": "94",
    "country_id": 75,
    "country_code": "FR",
    "latitude": "48.78716000",
    "longitude": "2.40332000",
    "native": null,
    "timezone": "Europe/Paris",
    "translations": {}
  }
]