[
  {
    "id": 39239,
    "name": "Ableiges",
    "state_id": 5063,
    "state_code": "95",
    "country_id": 75,
    "country_code": "FR",
    "latitude": "49.08932000",
    "longitude": "1.98154000",
    "native": null,
    "timezone": "Europe/Paris",
    "translations": {}
  },
  {
    "id": 39382,
    "name": "Andilly",
    "state_id": 5063,
    "state_code": "95",
    "country_id": 75,
    "country_code": "FR",
    "latitude": "49.00935000",
    "longitude": "2.30240000",
    "native": null,
    "timezone": "Europe/Paris",
    "translations": {}
  },
  {
    "id": 39481,
    "name": "Argenteuil",
    "state_id": 5063,
    "state_code": "95",
    "country_id": 75,
    "country_code": "FR",
    "latitude": "48.94788000",
    "longitude": "2.24744000",
    "native": null,
    "timezone": "Europe/Paris",
    "translations": {}
  },
  {
    "id": 39503,
    "name": "Arnouville",
    "state_id": 5063,
    "state_code": "95",
    "country_id": 75,
    "country_code": "FR",
    "latitude": "48.98333000",
    "longitude": "2.41667000",
    "native": null,
    "timezone": "Europe/Paris",
    "translations": {}
  },
  {
    "id": 39543,
    "name": "Asnières-sur-Oise",
    "state_id": 5063,
    "state_code": "95",
    "country_id": 75,
    "country_code": "FR",
    "latitude": "49.13369000",
    "longitude": "2.35551000",
    "native": null,
    "timezone": "Europe/Paris",
    "translations": {}
  },
  {
    "id": 39560,
    "name": "Attainville",
    "state_id": 5063,
    "state_code": "95",
    "country_id": 75,
    "country_code": "FR",
    "latitude": "49.05779000",
    "longitude": "2.34497000",
    "native": null,
    "timezone": "Europe/Paris",
    "translations": {}
  },
  {
    "id": 39642,
    "name": "Auvers-sur-Oise",
    "state_id": 5063,
    "state_code": "95",
    "country_id": 75,
    "country_code": "FR",
    "latitude": "49.07158000",
    "longitude": "2.16978000",
    "native": null,
    "timezone": "Europe/Paris",
    "translations": {}
  },
  {
    "id": 39724,
    "name": "Baillet-en-France",
    "state_id": 5063,
    "state_code": "95",
    "country_id": 75,
    "country_code": "FR",
    "latitude": "49.06187000",
    "longitude": "2.29880000",
    "native": null,
    "timezone": "Europe/Paris",
    "translations": {}
  },
  {
    "id": 39838,
    "name": "Beauchamp",
    "state_id": 5063,
    "state_code": "95",
    "country_id": 75,
    "country_code": "FR",
    "latitude": "49.01667000",
    "longitude": "2.20000000",
    "native": null,
    "timezone": "Europe/Paris",
    "translations": {}
  },
  {
    "id": 39872,
    "name": "Beaumont-sur-Oise",
    "state_id": 5063,
    "state_code": "95",
    "country_id": 75,
    "country_code": "FR",
    "latitude": "49.14232000",
    "longitude": "2.28705000",
    "native": null,
    "timezone": "Europe/Paris",
    "translations": {}
  },
  {
    "id": 39930,
    "name": "Belloy-en-France",
    "state_id": 5063,
    "state_code": "95",
    "country_id": 75,
    "country_code": "FR",
    "latitude": "49.08837000",
    "longitude": "2.37159000",
    "native": null,
    "timezone": "Europe/Paris",
    "translations": {}
  },
  {
    "id": 39953,
    "name": "Bernes-sur-Oise",
    "state_id": 5063,
    "state_code": "95",
    "country_id": 75,
    "country_code": "FR",
    "latitude": "49.16128000",
    "longitude": "2.30000000",
    "native": null,
    "timezone": "Europe/Paris",
    "translations": {}
  },
  {
    "id": 39974,
    "name": "Bessancourt",
    "state_id": 5063,
    "state_code": "95",
    "country_id": 75,
    "country_code": "FR",
    "latitude": "49.03765000",
    "longitude": "2.20936000",
    "native": null,
    "timezone": "Europe/Paris",
    "translations": {}
  },
  {
    "id": 40002,
    "name": "Bezons",
    "state_id": 5063,
    "state_code": "95",
    "country_id": 75,
    "country_code": "FR",
    "latitude": "48.92426000",
    "longitude": "2.21280000",
    "native": null,
    "timezone": "Europe/Paris",
    "translations": {}
  },
  {
    "id": 161696,
    "name": "Boissy-l'Aillerie",
    "state_id": 5063,
    "state_code": "95",
    "country_id": 75,
    "country_code": "FR",
    "latitude": "49.08210000",
    "longitude": "2.03160000",
    "native": null,
    "timezone": "Europe/Paris",
    "translations": {}
  },
  {
    "id": 40153,
    "name": "Bouffémont",
    "state_id": 5063,
    "state_code": "95",
    "country_id": 75,
    "country_code": "FR",
    "latitude": "49.04377000",
    "longitude": "2.29796000",
    "native": null,
    "timezone": "Europe/Paris",
    "translations": {}
  },
  {
    "id": 40351,
    "name": "Bruyères-sur-Oise",
    "state_id": 5063,
    "state_code": "95",
    "country_id": 75,
    "country_code": "FR",
    "latitude": "49.15756000",
    "longitude": "2.32577000",
    "native": null,
    "timezone": "Europe/Paris",
    "translations": {}
  },
  {
    "id": 40402,
    "name": "Butry-sur-Oise",
    "state_id": 5063,
    "state_code": "95",
    "country_id": 75,
    "country_code": "FR",
    "latitude": "49.08837000",
    "longitude": "2.19916000",
    "native": null,
    "timezone": "Europe/Paris",
    "translations": {}
  },
  {
    "id": 40646,
    "name": "Cergy",
    "state_id": 5063,
    "state_code": "95",
    "country_id": 75,
    "country_code": "FR",
    "latitude": "49.03645000",
    "longitude": "2.07613000",
    "native": null,
    "timezone": "Europe/Paris",
    "translations": {}
  },
  {
    "id": 40647,
    "name": "Cergy-Pontoise",
    "state_id": 5063,
    "state_code": "95",
    "country_id": 75,
    "country_code": "FR",
    "latitude": "49.03894000",
    "longitude": "2.07805000",
    "native": null,
    "timezone": "Europe/Paris",
    "translations": {}
  },
  {
    "id": 40722,
    "name": "Champagne-sur-Oise",
    "state_id": 5063,
    "state_code": "95",
    "country_id": 75,
    "country_code": "FR",
    "latitude": "49.14052000",
    "longitude": "2.24233000",
    "native": null,
    "timezone": "Europe/Paris",
    "translations": {}
  },
  {
    "id": 40818,
    "name": "Chars",
    "state_id": 5063,
    "state_code": "95",
    "country_id": 75,
    "country_code": "FR",
    "latitude": "49.16032000",
    "longitude": "1.93669000",
    "native": null,
    "timezone": "Europe/Paris",
    "translations": {}
  },
  {
    "id": 40847,
    "name": "Chaumontel",
    "state_id": 5063,
    "state_code": "95",
    "country_id": 75,
    "country_code": "FR",
    "latitude": "49.12470000",
    "longitude": "2.43237000",
    "native": null,
    "timezone": "Europe/Paris",
    "translations": {}
  },
  {
    "id": 41180,
    "name": "Cormeilles-en-Parisis",
    "state_id": 5063,
    "state_code": "95",
    "country_id": 75,
    "country_code": "FR",
    "latitude": "48.97111000",
    "longitude": "2.20491000",
    "native": null,
    "timezone": "Europe/Paris",
    "translations": {}
  },
  {
    "id": 41251,
    "name": "Courdimanche",
    "state_id": 5063,
    "state_code": "95",
    "country_id": 75,
    "country_code": "FR",
    "latitude": "49.03513000",
    "longitude": "2.00096000",
    "native": null,
    "timezone": "Europe/Paris",
    "translations": {}
  },
  {
    "id": 41646,
    "name": "Département du Val-d’Oise",
    "state_id": 5063,
    "state_code": "95",
    "country_id": 75,
    "country_code": "FR",
    "latitude": "49.07891000",
    "longitude": "2.17673000",
    "native": null,
    "timezone": "Europe/Paris",
    "translations": {}
  },
  {
    "id": 41459,
    "name": "Deuil-la-Barre",
    "state_id": 5063,
    "state_code": "95",
    "country_id": 75,
    "country_code": "FR",
    "latitude": "48.97674000",
    "longitude": "2.32722000",
    "native": null,
    "timezone": "Europe/Paris",
    "translations": {}
  },
  {
    "id": 41521,
    "name": "Domont",
    "state_id": 5063,
    "state_code": "95",
    "country_id": 75,
    "country_code": "FR",
    "latitude": "49.02782000",
    "longitude": "2.32638000",
    "native": null,
    "timezone": "Europe/Paris",
    "translations": {}
  },
  {
    "id": 41651,
    "name": "Eaubonne",
    "state_id": 5063,
    "state_code": "95",
    "country_id": 75,
    "country_code": "FR",
    "latitude": "48.99712000",
    "longitude": "2.28249000",
    "native": null,
    "timezone": "Europe/Paris",
    "translations": {}
  },
  {
    "id": 48047,
    "name": "Écouen",
    "state_id": 5063,
    "state_code": "95",
    "country_id": 75,
    "country_code": "FR",
    "latitude": "49.02062000",
    "longitude": "2.38309000",
    "native": null,
    "timezone": "Europe/Paris",
    "translations": {}
  },
  {
    "id": 41669,
    "name": "Enghien-les-Bains",
    "state_id": 5063,
    "state_code": "95",
    "country_id": 75,
    "country_code": "FR",
    "latitude": "48.96667000",
    "longitude": "2.31667000",
    "native": null,
    "timezone": "Europe/Paris",
    "translations": {}
  },
  {
    "id": 41671,
    "name": "Ennery",
    "state_id": 5063,
    "state_code": "95",
    "country_id": 75,
    "country_code": "FR",
    "latitude": "49.07505000",
    "longitude": "2.10599000",
    "native": null,
    "timezone": "Europe/Paris",
    "translations": {}
  },
  {
    "id": 48089,
    "name": "Éragny",
    "state_id": 5063,
    "state_code": "95",
    "country_id": 75,
    "country_code": "FR",
    "latitude": "49.01667000",
    "longitude": "2.10000000",
    "native": null,
    "timezone": "Europe/Paris",
    "translations": {}
  },
  {
    "id": 41696,
    "name": "Ermont",
    "state_id": 5063,
    "state_code": "95",
    "country_id": 75,
    "country_code": "FR",
    "latitude": "48.99004000",
    "longitude": "2.25804000",
    "native": null,
    "timezone": "Europe/Paris",
    "translations": {}
  },
  {
    "id": 48126,
    "name": "Ézanville",
    "state_id": 5063,
    "state_code": "95",
    "country_id": 75,
    "country_code": "FR",
    "latitude": "49.02794000",
    "longitude": "2.36787000",
    "native": null,
    "timezone": "Europe/Paris",
    "translations": {}
  },
  {
    "id": 41897,
    "name": "Fontenay-en-Parisis",
    "state_id": 5063,
    "state_code": "95",
    "country_id": 75,
    "country_code": "FR",
    "latitude": "49.05371000",
    "longitude": "2.45156000",
    "native": null,
    "timezone": "Europe/Paris",
    "translations": {}
  },
  {
    "id": 41920,
    "name": "Fosses",
    "state_id": 5063,
    "state_code": "95",
    "country_id": 75,
    "country_code": "FR",
    "latitude": "49.09808000",
    "longitude": "2.50957000",
    "native": null,
    "timezone": "Europe/Paris",
    "translations": {}
  },
  {
    "id": 41949,
    "name": "Franconville",
    "state_id": 5063,
    "state_code": "95",
    "country_id": 75,
    "country_code": "FR",
    "latitude": "48.98333000",
    "longitude": "2.23333000",
    "native": null,
    "timezone": "Europe/Paris",
    "translations": {}
  },
  {
    "id": 41987,
    "name": "Frépillon",
    "state_id": 5063,
    "state_code": "95",
    "country_id": 75,
    "country_code": "FR",
    "latitude": "49.05216000",
    "longitude": "2.20528000",
    "native": null,
    "timezone": "Europe/Paris",
    "translations": {}
  },
  {
    "id": 42043,
    "name": "Garges-lès-Gonesse",
    "state_id": 5063,
    "state_code": "95",
    "country_id": 75,
    "country_code": "FR",
    "latitude": "48.96791000",
    "longitude": "2.39781000",
    "native": null,
    "timezone": "Europe/Paris",
    "translations": {}
  },
  {
    "id": 42129,
    "name": "Gonesse",
    "state_id": 5063,
    "state_code": "95",
    "country_id": 75,
    "country_code": "FR",
    "latitude": "48.98693000",
    "longitude": "2.44892000",
    "native": null,
    "timezone": "Europe/Paris",
    "translations": {}
  },
  {
    "id": 42154,
    "name": "Goussainville",
    "state_id": 5063,
    "state_code": "95",
    "country_id": 75,
    "country_code": "FR",
    "latitude": "49.01367000",
    "longitude": "2.46595000",
    "native": null,
    "timezone": "Europe/Paris",
    "translations": {}
  },
  {
    "id": 42226,
    "name": "Groslay",
    "state_id": 5063,
    "state_code": "95",
    "country_id": 75,
    "country_code": "FR",
    "latitude": "48.98561000",
    "longitude": "2.34736000",
    "native": null,
    "timezone": "Europe/Paris",
    "translations": {}
  },
  {
    "id": 42375,
    "name": "Herblay",
    "state_id": 5063,
    "state_code": "95",
    "country_id": 75,
    "country_code": "FR",
    "latitude": "48.98994000",
    "longitude": "2.16990000",
    "native": null,
    "timezone": "Europe/Paris",
    "translations": {}
  },
  {
    "id": 161784,
    "name": "Herblay-sur-Seine",
    "state_id": 5063,
    "state_code": "95",
    "country_id": 75,
    "country_code": "FR",
    "latitude": "49.00520000",
    "longitude": "2.15560000",
    "native": null,
    "timezone": "Europe/Paris",
    "translations": {}
  },
  {
    "id": 42576,
    "name": "Jouy-le-Moutier",
    "state_id": 5063,
    "state_code": "95",
    "country_id": 75,
    "country_code": "FR",
    "latitude": "49.01068000",
    "longitude": "2.04028000",
    "native": null,
    "timezone": "Europe/Paris",
    "translations": {}
  },
  {
    "id": 43703,
    "name": "L’Isle-Adam",
    "state_id": 5063,
    "state_code": "95",
    "country_id": 75,
    "country_code": "FR",
    "latitude": "49.10744000",
    "longitude": "2.22818000",
    "native": null,
    "timezone": "Europe/Paris",
    "translations": {}
  },
  {
    "id": 42758,
    "name": "La Frette-sur-Seine",
    "state_id": 5063,
    "state_code": "95",
    "country_id": 75,
    "country_code": "FR",
    "latitude": "48.98057000",
    "longitude": "2.17866000",
    "native": null,
    "timezone": "Europe/Paris",
    "translations": {}
  },
  {
    "id": 43264,
    "name": "Le Plessis-Bouchard",
    "state_id": 5063,
    "state_code": "95",
    "country_id": 75,
    "country_code": "FR",
    "latitude": "49.00000000",
    "longitude": "2.23333000",
    "native": null,
    "timezone": "Europe/Paris",
    "translations": {}
  },
  {
    "id": 43312,
    "name": "Le Thillay",
    "state_id": 5063,
    "state_code": "95",
    "country_id": 75,
    "country_code": "FR",
    "latitude": "49.00659000",
    "longitude": "2.47218000",
    "native": null,
    "timezone": "Europe/Paris",
    "translations": {}
  },
  {
    "id": 43618,
    "name": "Louvres",
    "state_id": 5063,
    "state_code": "95",
    "country_id": 75,
    "country_code": "FR",
    "latitude": "49.04460000",
    "longitude": "2.50479000",
    "native": null,
    "timezone": "Europe/Paris",
    "translations": {}
  },
  {
    "id": 43671,
    "name": "Luzarches",
    "state_id": 5063,
    "state_code": "95",
    "country_id": 75,
    "country_code": "FR",
    "latitude": "49.11319000",
    "longitude": "2.42230000",
    "native": null,
    "timezone": "Europe/Paris",
    "translations": {}
  },
  {
    "id": 43716,
    "name": "Maffliers",
    "state_id": 5063,
    "state_code": "95",
    "country_id": 75,
    "country_code": "FR",
    "latitude": "49.07758000",
    "longitude": "2.30768000",
    "native": null,
    "timezone": "Europe/Paris",
    "translations": {}
  },
  {
    "id": 43726,
    "name": "Magny-en-Vexin",
    "state_id": 5063,
    "state_code": "95",
    "country_id": 75,
    "country_code": "FR",
    "latitude": "49.15515000",
    "longitude": "1.78669000",
    "native": null,
    "timezone": "Europe/Paris",
    "translations": {}
  },
  {
    "id": 43834,
    "name": "Margency",
    "state_id": 5063,
    "state_code": "95",
    "country_id": 75,
    "country_code": "FR",
    "latitude": "49.00000000",
    "longitude": "2.30000000",
    "native": null,
    "timezone": "Europe/Paris",
    "translations": {}
  },
  {
    "id": 43846,
    "name": "Marines",
    "state_id": 5063,
    "state_code": "95",
    "country_id": 75,
    "country_code": "FR",
    "latitude": "49.14485000",
    "longitude": "1.98226000",
    "native": null,
    "timezone": "Europe/Paris",
    "translations": {}
  },
  {
    "id": 43855,
    "name": "Marly-la-Ville",
    "state_id": 5063,
    "state_code": "95",
    "country_id": 75,
    "country_code": "FR",
    "latitude": "49.08201000",
    "longitude": "2.50347000",
    "native": null,
    "timezone": "Europe/Paris",
    "translations": {}
  },
  {
    "id": 44008,
    "name": "Menucourt",
    "state_id": 5063,
    "state_code": "95",
    "country_id": 75,
    "country_code": "FR",
    "latitude": "49.02841000",
    "longitude": "1.98046000",
    "native": null,
    "timezone": "Europe/Paris",
    "translations": {}
  },
  {
    "id": 44472,
    "name": "Mériel",
    "state_id": 5063,
    "state_code": "95",
    "country_id": 75,
    "country_code": "FR",
    "latitude": "49.07614000",
    "longitude": "2.21054000",
    "native": null,
    "timezone": "Europe/Paris",
    "translations": {}
  },
  {
    "id": 44478,
    "name": "Méry-sur-Oise",
    "state_id": 5063,
    "state_code": "95",
    "country_id": 75,
    "country_code": "FR",
    "latitude": "49.05876000",
    "longitude": "2.19113000",
    "native": null,
    "timezone": "Europe/Paris",
    "translations": {}
  },
  {
    "id": 44119,
    "name": "Moisselles",
    "state_id": 5063,
    "state_code": "95",
    "country_id": 75,
    "country_code": "FR",
    "latitude": "49.05000000",
    "longitude": "2.33597000",
    "native": null,
    "timezone": "Europe/Paris",
    "translations": {}
  },
  {
    "id": 44261,
    "name": "Montigny-lès-Cormeilles",
    "state_id": 5063,
    "state_code": "95",
    "country_id": 75,
    "country_code": "FR",
    "latitude": "48.98201000",
    "longitude": "2.20035000",
    "native": null,
    "timezone": "Europe/Paris",
    "translations": {}
  },
  {
    "id": 44273,
    "name": "Montlignon",
    "state_id": 5063,
    "state_code": "95",
    "country_id": 75,
    "country_code": "FR",
    "latitude": "49.00636000",
    "longitude": "2.28705000",
    "native": null,
    "timezone": "Europe/Paris",
    "translations": {}
  },
  {
    "id": 44279,
    "name": "Montmagny",
    "state_id": 5063,
    "state_code": "95",
    "country_id": 75,
    "country_code": "FR",
    "latitude": "48.97338000",
    "longitude": "2.34688000",
    "native": null,
    "timezone": "Europe/Paris",
    "translations": {}
  },
  {
    "id": 44287,
    "name": "Montmorency",
    "state_id": 5063,
    "state_code": "95",
    "country_id": 75,
    "country_code": "FR",
    "latitude": "48.98826000",
    "longitude": "2.34340000",
    "native": null,
    "timezone": "Europe/Paris",
    "translations": {}
  },
  {
    "id": 44328,
    "name": "Montsoult",
    "state_id": 5063,
    "state_code": "95",
    "country_id": 75,
    "country_code": "FR",
    "latitude": "49.06942000",
    "longitude": "2.31966000",
    "native": null,
    "timezone": "Europe/Paris",
    "translations": {}
  },
  {
    "id": 44404,
    "name": "Mours",
    "state_id": 5063,
    "state_code": "95",
    "country_id": 75,
    "country_code": "FR",
    "latitude": "49.13077000",
    "longitude": "2.26761000",
    "native": null,
    "timezone": "Europe/Paris",
    "translations": {}
  },
  {
    "id": 44535,
    "name": "Nesles-la-Vallée",
    "state_id": 5063,
    "state_code": "95",
    "country_id": 75,
    "country_code": "FR",
    "latitude": "49.13202000",
    "longitude": "2.17099000",
    "native": null,
    "timezone": "Europe/Paris",
    "translations": {}
  },
  {
    "id": 44571,
    "name": "Neuville-sur-Oise",
    "state_id": 5063,
    "state_code": "95",
    "country_id": 75,
    "country_code": "FR",
    "latitude": "49.01667000",
    "longitude": "2.06667000",
    "native": null,
    "timezone": "Europe/Paris",
    "translations": {}
  },
  {
    "id": 44789,
    "name": "Osny",
    "state_id": 5063,
    "state_code": "95",
    "country_id": 75,
    "country_code": "FR",
    "latitude": "49.07010000",
    "longitude": "2.06277000",
    "native": null,
    "timezone": "Europe/Paris",
    "translations": {}
  },
  {
    "id": 44857,
    "name": "Parmain",
    "state_id": 5063,
    "state_code": "95",
    "country_id": 75,
    "country_code": "FR",
    "latitude": "49.11247000",
    "longitude": "2.21487000",
    "native": null,
    "timezone": "Europe/Paris",
    "translations": {}
  },
  {
    "id": 44909,
    "name": "Persan",
    "state_id": 5063,
    "state_code": "95",
    "country_id": 75,
    "country_code": "FR",
    "latitude": "49.15335000",
    "longitude": "2.27218000",
    "native": null,
    "timezone": "Europe/Paris",
    "translations": {}
  },
  {
    "id": 44955,
    "name": "Pierrefitte-sur-Seine",
    "state_id": 5063,
    "state_code": "95",
    "country_id": 75,
    "country_code": "FR",
    "latitude": "48.96691000",
    "longitude": "2.36104000",
    "native": null,
    "timezone": "Europe/Paris",
    "translations": {}
  },
  {
    "id": 44960,
    "name": "Pierrelaye",
    "state_id": 5063,
    "state_code": "95",
    "country_id": 75,
    "country_code": "FR",
    "latitude": "49.02110000",
    "longitude": "2.15481000",
    "native": null,
    "timezone": "Europe/Paris",
    "translations": {}
  },
  {
    "id": 45213,
    "name": "Pontoise",
    "state_id": 5063,
    "state_code": "95",
    "country_id": 75,
    "country_code": "FR",
    "latitude": "49.05000000",
    "longitude": "2.10000000",
    "native": null,
    "timezone": "Europe/Paris",
    "translations": {}
  },
  {
    "id": 161951,
    "name": "Presles",
    "state_id": 5063,
    "state_code": "95",
    "country_id": 75,
    "country_code": "FR",
    "latitude": "49.10940000",
    "longitude": "2.28760000",
    "native": null,
    "timezone": "Europe/Paris",
    "translations": {}
  },
  {
    "id": 45321,
    "name": "Puiseux-en-France",
    "state_id": 5063,
    "state_code": "95",
    "country_id": 75,
    "country_code": "FR",
    "latitude": "49.05552000",
    "longitude": "2.50035000",
    "native": null,
    "timezone": "Europe/Paris",
    "translations": {}
  },
  {
    "id": 45566,
    "name": "Roissy-en-France",
    "state_id": 5063,
    "state_code": "95",
    "country_id": 75,
    "country_code": "FR",
    "latitude": "49.00443000",
    "longitude": "2.51703000",
    "native": null,
    "timezone": "Europe/Paris",
    "translations": {}
  },
  {
    "id": 45712,
    "name": "Sagy",
    "state_id": 5063,
    "state_code": "95",
    "country_id": 75,
    "country_code": "FR",
    "latitude": "49.04988000",
    "longitude": "1.95216000",
    "native": null,
    "timezone": "Europe/Paris",
    "translations": {}
  },
  {
    "id": 45828,
    "name": "Saint-Brice-sous-Forêt",
    "state_id": 5063,
    "state_code": "95",
    "country_id": 75,
    "country_code": "FR",
    "latitude": "49.00132000",
    "longitude": "2.35361000",
    "native": null,
    "timezone": "Europe/Paris",
    "translations": {}
  },
  {
    "id": 46041,
    "name": "Saint-Gratien",
    "state_id": 5063,
    "state_code": "95",
    "country_id": 75,
    "country_code": "FR",
    "latitude": "48.97350000",
    "longitude": "2.28729000",
    "native": null,
    "timezone": "Europe/Paris",
    "translations": {}
  },
  {
    "id": 46193,
    "name": "Saint-Leu-la-Forêt",
    "state_id": 5063,
    "state_code": "95",
    "country_id": 75,
    "country_code": "FR",
    "latitude": "49.01667000",
    "longitude": "2.25000000",
    "native": null,
    "timezone": "Europe/Paris",
    "translations": {}
  },
  {
    "id": 46383,
    "name": "Saint-Ouen-l’Aumône",
    "state_id": 5063,
    "state_code": "95",
    "country_id": 75,
    "country_code": "FR",
    "latitude": "49.04353000",
    "longitude": "2.12134000",
    "native": null,
    "timezone": "Europe/Paris",
    "translations": {}
  },
  {
    "id": 46472,
    "name": "Saint-Prix",
    "state_id": 5063,
    "state_code": "95",
    "country_id": 75,
    "country_code": "FR",
    "latitude": "49.01667000",
    "longitude": "2.26667000",
    "native": null,
    "timezone": "Europe/Paris",
    "translations": {}
  },
  {
    "id": 46626,
    "name": "Saint-Witz",
    "state_id": 5063,
    "state_code": "95",
    "country_id": 75,
    "country_code": "FR",
    "latitude": "49.09100000",
    "longitude": "2.57122000",
    "native": null,
    "timezone": "Europe/Paris",
    "translations": {}
  },
  {
    "id": 46790,
    "name": "Sannois",
    "state_id": 5063,
    "state_code": "95",
    "country_id": 75,
    "country_code": "FR",
    "latitude": "48.96667000",
    "longitude": "2.25000000",
    "native": null,
    "timezone": "Europe/Paris",
    "translations": {}
  },
  {
    "id": 46803,
    "name": "Sarcelles",
    "state_id": 5063,
    "state_code": "95",
    "country_id": 75,
    "country_code": "FR",
    "latitude": "48.99739000",
    "longitude": "2.37821000",
    "native": null,
    "timezone": "Europe/Paris",
    "translations": {}
  },
  {
    "id": 46953,
    "name": "Seraincourt",
    "state_id": 5063,
    "state_code": "95",
    "country_id": 75,
    "country_code": "FR",
    "latitude": "49.03573000",
    "longitude": "1.86703000",
    "native": null,
    "timezone": "Europe/Paris",
    "translations": {}
  },
  {
    "id": 46977,
    "name": "Seugy",
    "state_id": 5063,
    "state_code": "95",
    "country_id": 75,
    "country_code": "FR",
    "latitude": "49.12182000",
    "longitude": "2.39377000",
    "native": null,
    "timezone": "Europe/Paris",
    "translations": {}
  },
  {
    "id": 47019,
    "name": "Soisy-sous-Montmorency",
    "state_id": 5063,
    "state_code": "95",
    "country_id": 75,
    "country_code": "FR",
    "latitude": "48.98813000",
    "longitude": "2.30156000",
    "native": null,
    "timezone": "Europe/Paris",
    "translations": {}
  },
  {
    "id": 47123,
    "name": "Survilliers",
    "state_id": 5063,
    "state_code": "95",
    "country_id": 75,
    "country_code": "FR",
    "latitude": "49.09712000",
    "longitude": "2.54449000",
    "native": null,
    "timezone": "Europe/Paris",
    "translations": {}
  },
  {
    "id": 47192,
    "name": "Taverny",
    "state_id": 5063,
    "state_code": "95",
    "country_id": 75,
    "country_code": "FR",
    "latitude": "49.02542000",
    "longitude": "2.21691000",
    "native": null,
    "timezone": "Europe/Paris",
    "translations": {}
  },
  {
    "id": 47437,
    "name": "Us",
    "state_id": 5063,
    "state_code": "95",
    "country_id": 75,
    "country_code": "FR",
    "latitude": "49.10000000",
    "longitude": "1.96667000",
    "native": null,
    "timezone": "Europe/Paris",
    "translations": {}
  },
  {
    "id": 47495,
    "name": "Valmondois",
    "state_id": 5063,
    "state_code": "95",
    "country_id": 75,
    "country_code": "FR",
    "latitude": "49.09730000",
    "longitude": "2.18996000",
    "native": null,
    "timezone": "Europe/Paris",
    "translations": {}
  },
  {
    "id": 47543,
    "name": "Vauréal",
    "state_id": 5063,
    "state_code": "95",
    "country_id": 75,
    "country_code": "FR",
    "latitude": "49.03333000",
    "longitude": "2.03333000",
    "native": null,
    "timezone": "Europe/Paris",
    "translations": {}
  },
  {
    "id": 47925,
    "name": "Vémars",
    "state_id": 5063,
    "state_code": "95",
    "country_id": 75,
    "country_code": "FR",
    "latitude": "49.06942000",
    "longitude": "2.56643000",
    "native": null,
    "timezone": "Europe/Paris",
    "translations": {}
  },
  {
    "id": 47660,
    "name": "Viarmes",
    "state_id": 5063,
    "state_code": "95",
    "country_id": 75,
    "country_code": "FR",
    "latitude": "49.13082000",
    "longitude": "2.37074000",
    "native": null,
    "timezone": "Europe/Paris",
    "translations": {}
  },
  {
    "id": 47701,
    "name": "Vigny",
    "state_id": 5063,
    "state_code": "95",
    "country_id": 75,
    "country_code": "FR",
    "latitude": "49.07902000",
    "longitude": "1.92806000",
    "native": null,
    "timezone": "Europe/Paris",
    "translations": {}
  },
  {
    "id": 47829,
    "name": "Villiers-le-Bel",
    "state_id": 5063,
    "state_code": "95",
    "country_id": 75,
    "country_code": "FR",
    "latitude": "49.00875000",
    "longitude": "2.39819000",
    "native": null,
    "timezone": "Europe/Paris",
    "translations": {}
  }
]