[
  {
    "id": 48174,
    "name": "Aberford",
    "state_id": 2503,
    "state_code": "LDS",
    "country_id": 232,
    "country_code": "GB",
    "latitude": "53.82604000",
    "longitude": "-1.34231000",
    "native": null,
    "timezone": "Europe/London",
    "translations": {}
  },
  {
    "id": 48382,
    "name": "Bardsey",
    "state_id": 2503,
    "state_code": "LDS",
    "country_id": 232,
    "country_code": "GB",
    "latitude": "53.88492000",
    "longitude": "-1.44539000",
    "native": null,
    "timezone": "Europe/London",
    "translations": {}
  },
  {
    "id": 48616,
    "name": "Boston Spa",
    "state_id": 2503,
    "state_code": "LDS",
    "country_id": 232,
    "country_code": "GB",
    "latitude": "53.90419000",
    "longitude": "-1.34523000",
    "native": null,
    "timezone": "Europe/London",
    "translations": {}
  },
  {
    "id": 48656,
    "name": "Bramham",
    "state_id": 2503,
    "state_code": "LDS",
    "country_id": 232,
    "country_code": "GB",
    "latitude": "53.88118000",
    "longitude": "-1.35452000",
    "native": null,
    "timezone": "Europe/London",
    "translations": {}
  },
  {
    "id": 48657,
    "name": "Bramhope",
    "state_id": 2503,
    "state_code": "LDS",
    "country_id": 232,
    "country_code": "GB",
    "latitude": "53.88489000",
    "longitude": "-1.61641000",
    "native": null,
    "timezone": "Europe/London",
    "translations": {}
  },
  {
    "id": 48914,
    "name": "Chapel Allerton",
    "state_id": 2503,
    "state_code": "LDS",
    "country_id": 232,
    "country_code": "GB",
    "latitude": "53.82901000",
    "longitude": "-1.53834000",
    "native": null,
    "timezone": "Europe/London",
    "translations": {}
  },
  {
    "id": 49002,
    "name": "City and Borough of Leeds",
    "state_id": 2503,
    "state_code": "LDS",
    "country_id": 232,
    "country_code": "GB",
    "latitude": "53.79644000",
    "longitude": "-1.54770000",
    "native": null,
    "timezone": "Europe/London",
    "translations": {}
  },
  {
    "id": 49072,
    "name": "Collingham",
    "state_id": 2503,
    "state_code": "LDS",
    "country_id": 232,
    "country_code": "GB",
    "latitude": "53.91167000",
    "longitude": "-1.41174000",
    "native": null,
    "timezone": "Europe/London",
    "translations": {}
  },
  {
    "id": 49400,
    "name": "East Keswick",
    "state_id": 2503,
    "state_code": "LDS",
    "country_id": 232,
    "country_code": "GB",
    "latitude": "53.89430000",
    "longitude": "-1.45221000",
    "native": null,
    "timezone": "Europe/London",
    "translations": {}
  },
  {
    "id": 49627,
    "name": "Garforth",
    "state_id": 2503,
    "state_code": "LDS",
    "country_id": 232,
    "country_code": "GB",
    "latitude": "53.79173000",
    "longitude": "-1.38067000",
    "native": null,
    "timezone": "Europe/London",
    "translations": {}
  },
  {
    "id": 49959,
    "name": "Holbeck",
    "state_id": 2503,
    "state_code": "LDS",
    "country_id": 232,
    "country_code": "GB",
    "latitude": "53.78359000",
    "longitude": "-1.56791000",
    "native": null,
    "timezone": "Europe/London",
    "translations": {}
  },
  {
    "id": 49997,
    "name": "Horsforth",
    "state_id": 2503,
    "state_code": "LDS",
    "country_id": 232,
    "country_code": "GB",
    "latitude": "53.84260000",
    "longitude": "-1.63754000",
    "native": null,
    "timezone": "Europe/London",
    "translations": {}
  },
  {
    "id": 50191,
    "name": "Kippax",
    "state_id": 2503,
    "state_code": "LDS",
    "country_id": 232,
    "country_code": "GB",
    "latitude": "53.76687000",
    "longitude": "-1.37099000",
    "native": null,
    "timezone": "Europe/London",
    "translations": {}
  },
  {
    "id": 50270,
    "name": "Leeds",
    "state_id": 2503,
    "state_code": "LDS",
    "country_id": 232,
    "country_code": "GB",
    "latitude": "53.79648000",
    "longitude": "-1.54785000",
    "native": null,
    "timezone": "Europe/London",
    "translations": {}
  },
  {
    "id": 50631,
    "name": "Morley",
    "state_id": 2503,
    "state_code": "LDS",
    "country_id": 232,
    "country_code": "GB",
    "latitude": "53.74013000",
    "longitude": "-1.59877000",
    "native": null,
    "timezone": "Europe/London",
    "translations": {}
  },
  {
    "id": 50948,
    "name": "Pool",
    "state_id": 2503,
    "state_code": "LDS",
    "country_id": 232,
    "country_code": "GB",
    "latitude": "53.90000000",
    "longitude": "-1.61667000",
    "native": null,
    "timezone": "Europe/London",
    "translations": {}
  },
  {
    "id": 51211,
    "name": "Scarcroft",
    "state_id": 2503,
    "state_code": "LDS",
    "country_id": 232,
    "country_code": "GB",
    "latitude": "53.86667000",
    "longitude": "-1.45000000",
    "native": null,
    "timezone": "Europe/London",
    "translations": {}
  },
  {
    "id": 51213,
    "name": "Scholes",
    "state_id": 2503,
    "state_code": "LDS",
    "country_id": 232,
    "country_code": "GB",
    "latitude": "53.82346000",
    "longitude": "-1.42805000",
    "native": null,
    "timezone": "Europe/London",
    "translations": {}
  },
  {
    "id": 51243,
    "name": "Shadwell",
    "state_id": 2503,
    "state_code": "LDS",
    "country_id": 232,
    "country_code": "GB",
    "latitude": "53.85460000",
    "longitude": "-1.47260000",
    "native": null,
    "timezone": "Europe/London",
    "translations": {}
  },
  {
    "id": 51269,
    "name": "Sherburn in Elmet",
    "state_id": 2503,
    "state_code": "LDS",
    "country_id": 232,
    "country_code": "GB",
    "latitude": "53.79519000",
    "longitude": "-1.24660000",
    "native": null,
    "timezone": "Europe/London",
    "translations": {}
  },
  {
    "id": 51408,
    "name": "Stainburn",
    "state_id": 2503,
    "state_code": "LDS",
    "country_id": 232,
    "country_code": "GB",
    "latitude": "53.93333000",
    "longitude": "-1.61667000",
    "native": null,
    "timezone": "Europe/London",
    "translations": {}
  },
  {
    "id": 51536,
    "name": "Swillington",
    "state_id": 2503,
    "state_code": "LDS",
    "country_id": 232,
    "country_code": "GB",
    "latitude": "53.76846000",
    "longitude": "-1.41750000",
    "native": null,
    "timezone": "Europe/London",
    "translations": {}
  },
  {
    "id": 51597,
    "name": "Thorner",
    "state_id": 2503,
    "state_code": "LDS",
    "country_id": 232,
    "country_code": "GB",
    "latitude": "53.86093000",
    "longitude": "-1.42676000",
    "native": null,
    "timezone": "Europe/London",
    "translations": {}
  },
  {
    "id": 51853,
    "name": "Wetherby",
    "state_id": 2503,
    "state_code": "LDS",
    "country_id": 232,
    "country_code": "GB",
    "latitude": "53.92836000",
    "longitude": "-1.38672000",
    "native": null,
    "timezone": "Europe/London",
    "translations": {}
  }
]