[
  {
    "id": 48297,
    "name": "Ashton-under-Lyne",
    "state_id": 2367,
    "state_code": "TAM",
    "country_id": 232,
    "country_code": "GB",
    "latitude": "53.48876000",
    "longitude": "-2.09890000",
    "native": null,
    "timezone": "Europe/London",
    "translations": {}
  },
  {
    "id": 48607,
    "name": "Borough of Tameside",
    "state_id": 2367,
    "state_code": "TAM",
    "country_id": 232,
    "country_code": "GB",
    "latitude": "53.50000000",
    "longitude": "-2.08333000",
    "native": null,
    "timezone": "Europe/London",
    "translations": {}
  },
  {
    "id": 49267,
    "name": "Denton",
    "state_id": 2367,
    "state_code": "TAM",
    "country_id": 232,
    "country_code": "GB",
    "latitude": "53.45678000",
    "longitude": "-2.11822000",
    "native": null,
    "timezone": "Europe/London",
    "translations": {}
  },
  {
    "id": 49331,
    "name": "Droylsden",
    "state_id": 2367,
    "state_code": "TAM",
    "country_id": 232,
    "country_code": "GB",
    "latitude": "53.48005000",
    "longitude": "-2.14543000",
    "native": null,
    "timezone": "Europe/London",
    "translations": {}
  },
  {
    "id": 49338,
    "name": "Dukinfield",
    "state_id": 2367,
    "state_code": "TAM",
    "country_id": 232,
    "country_code": "GB",
    "latitude": "53.47497000",
    "longitude": "-2.08809000",
    "native": null,
    "timezone": "Europe/London",
    "translations": {}
  },
  {
    "id": 49662,
    "name": "Glossop",
    "state_id": 2367,
    "state_code": "TAM",
    "country_id": 232,
    "country_code": "GB",
    "latitude": "53.44325000",
    "longitude": "-1.94900000",
    "native": null,
    "timezone": "Europe/London",
    "translations": {}
  },
  {
    "id": 49845,
    "name": "Haughton Green",
    "state_id": 2367,
    "state_code": "TAM",
    "country_id": 232,
    "country_code": "GB",
    "latitude": "53.44118000",
    "longitude": "-2.09827000",
    "native": null,
    "timezone": "Europe/London",
    "translations": {}
  },
  {
    "id": 49862,
    "name": "Hayfield",
    "state_id": 2367,
    "state_code": "TAM",
    "country_id": 232,
    "country_code": "GB",
    "latitude": "53.37893000",
    "longitude": "-1.94544000",
    "native": null,
    "timezone": "Europe/London",
    "translations": {}
  },
  {
    "id": 49930,
    "name": "High Peak",
    "state_id": 2367,
    "state_code": "TAM",
    "country_id": 232,
    "country_code": "GB",
    "latitude": "53.36797000",
    "longitude": "-1.84536000",
    "native": null,
    "timezone": "Europe/London",
    "translations": {}
  },
  {
    "id": 49961,
    "name": "Hollingworth",
    "state_id": 2367,
    "state_code": "TAM",
    "country_id": 232,
    "country_code": "GB",
    "latitude": "53.46300000",
    "longitude": "-1.99100000",
    "native": null,
    "timezone": "Europe/London",
    "translations": {}
  },
  {
    "id": 50036,
    "name": "Hyde",
    "state_id": 2367,
    "state_code": "TAM",
    "country_id": 232,
    "country_code": "GB",
    "latitude": "53.45131000",
    "longitude": "-2.07943000",
    "native": null,
    "timezone": "Europe/London",
    "translations": {}
  },
  {
    "id": 50402,
    "name": "Longdendale",
    "state_id": 2367,
    "state_code": "TAM",
    "country_id": 232,
    "country_code": "GB",
    "latitude": "53.46667000",
    "longitude": "-2.00000000",
    "native": null,
    "timezone": "Europe/London",
    "translations": {}
  },
  {
    "id": 50635,
    "name": "Mossley",
    "state_id": 2367,
    "state_code": "TAM",
    "country_id": 232,
    "country_code": "GB",
    "latitude": "53.51454000",
    "longitude": "-2.03462000",
    "native": null,
    "timezone": "Europe/London",
    "translations": {}
  },
  {
    "id": 51416,
    "name": "Stalybridge",
    "state_id": 2367,
    "state_code": "TAM",
    "country_id": 232,
    "country_code": "GB",
    "latitude": "53.48414000",
    "longitude": "-2.05908000",
    "native": null,
    "timezone": "Europe/London",
    "translations": {}
  }
]