[
  {
    "id": 48244,
    "name": "Amesbury",
    "state_id": 2391,
    "state_code": "WIL",
    "country_id": 232,
    "country_code": "GB",
    "latitude": "51.17509000",
    "longitude": "-1.78064000",
    "native": null,
    "timezone": "Europe/London",
    "translations": {}
  },
  {
    "id": 48664,
    "name": "Bratton",
    "state_id": 2391,
    "state_code": "WIL",
    "country_id": 232,
    "country_code": "GB",
    "latitude": "51.27056000",
    "longitude": "-2.12444000",
    "native": null,
    "timezone": "Europe/London",
    "translations": {}
  },
  {
    "id": 48757,
    "name": "Bulford",
    "state_id": 2391,
    "state_code": "WIL",
    "country_id": 232,
    "country_code": "GB",
    "latitude": "51.18930000",
    "longitude": "-1.76009000",
    "native": null,
    "timezone": "Europe/London",
    "translations": {}
  },
  {
    "id": 48758,
    "name": "Bulkington",
    "state_id": 2391,
    "state_code": "WIL",
    "country_id": 232,
    "country_code": "GB",
    "latitude": "51.32361000",
    "longitude": "-2.08361000",
    "native": null,
    "timezone": "Europe/London",
    "translations": {}
  },
  {
    "id": 48763,
    "name": "Burbage",
    "state_id": 2391,
    "state_code": "WIL",
    "country_id": 232,
    "country_code": "GB",
    "latitude": "51.35184000",
    "longitude": "-1.67087000",
    "native": null,
    "timezone": "Europe/London",
    "translations": {}
  },
  {
    "id": 48827,
    "name": "Calne",
    "state_id": 2391,
    "state_code": "WIL",
    "country_id": 232,
    "country_code": "GB",
    "latitude": "51.43879000",
    "longitude": "-2.00571000",
    "native": null,
    "timezone": "Europe/London",
    "translations": {}
  },
  {
    "id": 48971,
    "name": "Chippenham",
    "state_id": 2391,
    "state_code": "WIL",
    "country_id": 232,
    "country_code": "GB",
    "latitude": "51.46000000",
    "longitude": "-2.12472000",
    "native": null,
    "timezone": "Europe/London",
    "translations": {}
  },
  {
    "id": 49071,
    "name": "Collingbourne Kingston",
    "state_id": 2391,
    "state_code": "WIL",
    "country_id": 232,
    "country_code": "GB",
    "latitude": "51.30105000",
    "longitude": "-1.65876000",
    "native": null,
    "timezone": "Europe/London",
    "translations": {}
  },
  {
    "id": 49277,
    "name": "Devizes",
    "state_id": 2391,
    "state_code": "WIL",
    "country_id": 232,
    "country_code": "GB",
    "latitude": "51.35084000",
    "longitude": "-1.99421000",
    "native": null,
    "timezone": "Europe/London",
    "translations": {}
  },
  {
    "id": 49288,
    "name": "Dinton",
    "state_id": 2391,
    "state_code": "WIL",
    "country_id": 232,
    "country_code": "GB",
    "latitude": "51.08333000",
    "longitude": "-1.98333000",
    "native": null,
    "timezone": "Europe/London",
    "translations": {}
  },
  {
    "id": 49442,
    "name": "Edington",
    "state_id": 2391,
    "state_code": "WIL",
    "country_id": 232,
    "country_code": "GB",
    "latitude": "51.27583000",
    "longitude": "-2.10639000",
    "native": null,
    "timezone": "Europe/London",
    "translations": {}
  },
  {
    "id": 49711,
    "name": "Great Bedwyn",
    "state_id": 2391,
    "state_code": "WIL",
    "country_id": 232,
    "country_code": "GB",
    "latitude": "51.37950000",
    "longitude": "-1.60151000",
    "native": null,
    "timezone": "Europe/London",
    "translations": {}
  },
  {
    "id": 49947,
    "name": "Hindon",
    "state_id": 2391,
    "state_code": "WIL",
    "country_id": 232,
    "country_code": "GB",
    "latitude": "51.09222000",
    "longitude": "-2.12583000",
    "native": null,
    "timezone": "Europe/London",
    "translations": {}
  },
  {
    "id": 50225,
    "name": "Lacock",
    "state_id": 2391,
    "state_code": "WIL",
    "country_id": 232,
    "country_code": "GB",
    "latitude": "51.41528000",
    "longitude": "-2.12194000",
    "native": null,
    "timezone": "Europe/London",
    "translations": {}
  },
  {
    "id": 50250,
    "name": "Lark Hill",
    "state_id": 2391,
    "state_code": "WIL",
    "country_id": 232,
    "country_code": "GB",
    "latitude": "51.20000000",
    "longitude": "-1.81667000",
    "native": null,
    "timezone": "Europe/London",
    "translations": {}
  },
  {
    "id": 50433,
    "name": "Ludgershall",
    "state_id": 2391,
    "state_code": "WIL",
    "country_id": 232,
    "country_code": "GB",
    "latitude": "51.25558000",
    "longitude": "-1.62220000",
    "native": null,
    "timezone": "Europe/London",
    "translations": {}
  },
  {
    "id": 50501,
    "name": "Market Lavington",
    "state_id": 2391,
    "state_code": "WIL",
    "country_id": 232,
    "country_code": "GB",
    "latitude": "51.28756000",
    "longitude": "-1.97729000",
    "native": null,
    "timezone": "Europe/London",
    "translations": {}
  },
  {
    "id": 50540,
    "name": "Melksham",
    "state_id": 2391,
    "state_code": "WIL",
    "country_id": 232,
    "country_code": "GB",
    "latitude": "51.37281000",
    "longitude": "-2.14002000",
    "native": null,
    "timezone": "Europe/London",
    "translations": {}
  },
  {
    "id": 50680,
    "name": "Netheravon",
    "state_id": 2391,
    "state_code": "WIL",
    "country_id": 232,
    "country_code": "GB",
    "latitude": "51.23613000",
    "longitude": "-1.79083000",
    "native": null,
    "timezone": "Europe/London",
    "translations": {}
  },
  {
    "id": 50908,
    "name": "Pewsey",
    "state_id": 2391,
    "state_code": "WIL",
    "country_id": 232,
    "country_code": "GB",
    "latitude": "51.33855000",
    "longitude": "-1.76545000",
    "native": null,
    "timezone": "Europe/London",
    "translations": {}
  },
  {
    "id": 50974,
    "name": "Potterne",
    "state_id": 2391,
    "state_code": "WIL",
    "country_id": 232,
    "country_code": "GB",
    "latitude": "51.32917000",
    "longitude": "-2.00519000",
    "native": null,
    "timezone": "Europe/London",
    "translations": {}
  },
  {
    "id": 51124,
    "name": "Rowde",
    "state_id": 2391,
    "state_code": "WIL",
    "country_id": 232,
    "country_code": "GB",
    "latitude": "51.36325000",
    "longitude": "-2.03098000",
    "native": null,
    "timezone": "Europe/London",
    "translations": {}
  },
  {
    "id": 51184,
    "name": "Salisbury",
    "state_id": 2391,
    "state_code": "WIL",
    "country_id": 232,
    "country_code": "GB",
    "latitude": "51.06931000",
    "longitude": "-1.79569000",
    "native": null,
    "timezone": "Europe/London",
    "translations": {}
  },
  {
    "id": 51230,
    "name": "Seend",
    "state_id": 2391,
    "state_code": "WIL",
    "country_id": 232,
    "country_code": "GB",
    "latitude": "51.34806000",
    "longitude": "-2.08472000",
    "native": null,
    "timezone": "Europe/London",
    "translations": {}
  },
  {
    "id": 51296,
    "name": "Shrewton",
    "state_id": 2391,
    "state_code": "WIL",
    "country_id": 232,
    "country_code": "GB",
    "latitude": "51.19194000",
    "longitude": "-1.90264000",
    "native": null,
    "timezone": "Europe/London",
    "translations": {}
  },
  {
    "id": 51622,
    "name": "Tidworth",
    "state_id": 2391,
    "state_code": "WIL",
    "country_id": 232,
    "country_code": "GB",
    "latitude": "51.23142000",
    "longitude": "-1.66324000",
    "native": null,
    "timezone": "Europe/London",
    "translations": {}
  },
  {
    "id": 51632,
    "name": "Tisbury",
    "state_id": 2391,
    "state_code": "WIL",
    "country_id": 232,
    "country_code": "GB",
    "latitude": "51.06283000",
    "longitude": "-2.08058000",
    "native": null,
    "timezone": "Europe/London",
    "translations": {}
  },
  {
    "id": 51705,
    "name": "Upton Scudamore",
    "state_id": 2391,
    "state_code": "WIL",
    "country_id": 232,
    "country_code": "GB",
    "latitude": "51.23000000",
    "longitude": "-2.19333000",
    "native": null,
    "timezone": "Europe/London",
    "translations": {}
  },
  {
    "id": 51754,
    "name": "Warminster",
    "state_id": 2391,
    "state_code": "WIL",
    "country_id": 232,
    "country_code": "GB",
    "latitude": "51.20434000",
    "longitude": "-2.17873000",
    "native": null,
    "timezone": "Europe/London",
    "translations": {}
  },
  {
    "id": 51836,
    "name": "Westbury",
    "state_id": 2391,
    "state_code": "WIL",
    "country_id": 232,
    "country_code": "GB",
    "latitude": "51.26000000",
    "longitude": "-2.18750000",
    "native": null,
    "timezone": "Europe/London",
    "translations": {}
  },
  {
    "id": 51878,
    "name": "Whitley",
    "state_id": 2391,
    "state_code": "WIL",
    "country_id": 232,
    "country_code": "GB",
    "latitude": "51.39528000",
    "longitude": "-2.16444000",
    "native": null,
    "timezone": "Europe/London",
    "translations": {}
  },
  {
    "id": 51914,
    "name": "Wilton",
    "state_id": 2391,
    "state_code": "WIL",
    "country_id": 232,
    "country_code": "GB",
    "latitude": "51.07926000",
    "longitude": "-1.86210000",
    "native": null,
    "timezone": "Europe/London",
    "translations": {}
  },
  {
    "id": 51915,
    "name": "Wiltshire",
    "state_id": 2391,
    "state_code": "WIL",
    "country_id": 232,
    "country_code": "GB",
    "latitude": "51.25000000",
    "longitude": "-1.91667000",
    "native": null,
    "timezone": "Europe/London",
    "translations": {}
  },
  {
    "id": 51968,
    "name": "Woodborough",
    "state_id": 2391,
    "state_code": "WIL",
    "country_id": 232,
    "country_code": "GB",
    "latitude": "51.33852000",
    "longitude": "-1.83976000",
    "native": null,
    "timezone": "Europe/London",
    "translations": {}
  },
  {
    "id": 51992,
    "name": "Worton",
    "state_id": 2391,
    "state_code": "WIL",
    "country_id": 232,
    "country_code": "GB",
    "latitude": "51.31611000",
    "longitude": "-2.04111000",
    "native": null,
    "timezone": "Europe/London",
    "translations": {}
  }
]