[
  {
    "id": 135318,
    "name": "Agrigento",
    "state_id": 1727,
    "state_code": "AG",
    "country_id": 107,
    "country_code": "IT",
    "latitude": "37.45000000",
    "longitude": "13.50000000",
    "native": null,
    "timezone": "Europe/Rome",
    "translations": {}
  },
  {
    "id": 135396,
    "name": "Alessandria della Rocca",
    "state_id": 1727,
    "state_code": "AG",
    "country_id": 107,
    "country_code": "IT",
    "latitude": "37.56767000",
    "longitude": "13.45343000",
    "native": null,
    "timezone": "Europe/Rome",
    "translations": {}
  },
  {
    "id": 135550,
    "name": "Aragona",
    "state_id": 1727,
    "state_code": "AG",
    "country_id": 107,
    "country_code": "IT",
    "latitude": "37.39904000",
    "longitude": "13.61974000",
    "native": null,
    "timezone": "Europe/Rome",
    "translations": {}
  },
  {
    "id": 136075,
    "name": "Bivona",
    "state_id": 1727,
    "state_code": "AG",
    "country_id": 107,
    "country_code": "IT",
    "latitude": "37.61797000",
    "longitude": "13.43895000",
    "native": null,
    "timezone": "Europe/Rome",
    "translations": {}
  },
  {
    "id": 136412,
    "name": "Burgio",
    "state_id": 1727,
    "state_code": "AG",
    "country_id": 107,
    "country_code": "IT",
    "latitude": "37.60094000",
    "longitude": "13.28826000",
    "native": null,
    "timezone": "Europe/Rome",
    "translations": {}
  },
  {
    "id": 136489,
    "name": "Calamonaci",
    "state_id": 1727,
    "state_code": "AG",
    "country_id": 107,
    "country_code": "IT",
    "latitude": "37.52566000",
    "longitude": "13.29053000",
    "native": null,
    "timezone": "Europe/Rome",
    "translations": {}
  },
  {
    "id": 136540,
    "name": "Caltabellotta",
    "state_id": 1727,
    "state_code": "AG",
    "country_id": 107,
    "country_code": "IT",
    "latitude": "37.57543000",
    "longitude": "13.21632000",
    "native": null,
    "timezone": "Europe/Rome",
    "translations": {}
  },
  {
    "id": 136571,
    "name": "Camastra",
    "state_id": 1727,
    "state_code": "AG",
    "country_id": 107,
    "country_code": "IT",
    "latitude": "37.25380000",
    "longitude": "13.79211000",
    "native": null,
    "timezone": "Europe/Rome",
    "translations": {}
  },
  {
    "id": 136594,
    "name": "Cammarata",
    "state_id": 1727,
    "state_code": "AG",
    "country_id": 107,
    "country_code": "IT",
    "latitude": "37.63361000",
    "longitude": "13.62722000",
    "native": null,
    "timezone": "Europe/Rome",
    "translations": {}
  },
  {
    "id": 136639,
    "name": "Campobello di Licata",
    "state_id": 1727,
    "state_code": "AG",
    "country_id": 107,
    "country_code": "IT",
    "latitude": "37.25759000",
    "longitude": "13.91811000",
    "native": null,
    "timezone": "Europe/Rome",
    "translations": {}
  },
  {
    "id": 136712,
    "name": "Canicattì",
    "state_id": 1727,
    "state_code": "AG",
    "country_id": 107,
    "country_code": "IT",
    "latitude": "37.35842000",
    "longitude": "13.84786000",
    "native": null,
    "timezone": "Europe/Rome",
    "translations": {}
  },
  {
    "id": 137318,
    "name": "Casteltermini",
    "state_id": 1727,
    "state_code": "AG",
    "country_id": 107,
    "country_code": "IT",
    "latitude": "37.53874000",
    "longitude": "13.64601000",
    "native": null,
    "timezone": "Europe/Rome",
    "translations": {}
  },
  {
    "id": 137380,
    "name": "Castrofilippo",
    "state_id": 1727,
    "state_code": "AG",
    "country_id": 107,
    "country_code": "IT",
    "latitude": "37.35046000",
    "longitude": "13.75001000",
    "native": null,
    "timezone": "Europe/Rome",
    "translations": {}
  },
  {
    "id": 137385,
    "name": "Castronuovo di Sicilia",
    "state_id": 1727,
    "state_code": "AG",
    "country_id": 107,
    "country_code": "IT",
    "latitude": "37.67894000",
    "longitude": "13.60346000",
    "native": null,
    "timezone": "Europe/Rome",
    "translations": {}
  },
  {
    "id": 137397,
    "name": "Cattolica Eraclea",
    "state_id": 1727,
    "state_code": "AG",
    "country_id": 107,
    "country_code": "IT",
    "latitude": "37.44069000",
    "longitude": "13.39265000",
    "native": null,
    "timezone": "Europe/Rome",
    "translations": {}
  },
  {
    "id": 137702,
    "name": "Cianciana",
    "state_id": 1727,
    "state_code": "AG",
    "country_id": 107,
    "country_code": "IT",
    "latitude": "37.51896000",
    "longitude": "13.43349000",
    "native": null,
    "timezone": "Europe/Rome",
    "translations": {}
  },
  {
    "id": 137943,
    "name": "Comitini",
    "state_id": 1727,
    "state_code": "AG",
    "country_id": 107,
    "country_code": "IT",
    "latitude": "37.40735000",
    "longitude": "13.64530000",
    "native": null,
    "timezone": "Europe/Rome",
    "translations": {}
  },
  {
    "id": 138459,
    "name": "Favara",
    "state_id": 1727,
    "state_code": "AG",
    "country_id": 107,
    "country_code": "IT",
    "latitude": "37.31754000",
    "longitude": "13.66226000",
    "native": null,
    "timezone": "Europe/Rome",
    "translations": {}
  },
  {
    "id": 138944,
    "name": "Giardina Gallotti",
    "state_id": 1727,
    "state_code": "AG",
    "country_id": 107,
    "country_code": "IT",
    "latitude": "37.35073000",
    "longitude": "13.52272000",
    "native": null,
    "timezone": "Europe/Rome",
    "translations": {}
  },
  {
    "id": 139125,
    "name": "Grotte",
    "state_id": 1727,
    "state_code": "AG",
    "country_id": 107,
    "country_code": "IT",
    "latitude": "37.40346000",
    "longitude": "13.69889000",
    "native": null,
    "timezone": "Europe/Rome",
    "translations": {}
  },
  {
    "id": 139282,
    "name": "Joppolo Giancaxio",
    "state_id": 1727,
    "state_code": "AG",
    "country_id": 107,
    "country_code": "IT",
    "latitude": "37.38681000",
    "longitude": "13.55586000",
    "native": null,
    "timezone": "Europe/Rome",
    "translations": {}
  },
  {
    "id": 139349,
    "name": "Lampedusa",
    "state_id": 1727,
    "state_code": "AG",
    "country_id": 107,
    "country_code": "IT",
    "latitude": "35.50142000",
    "longitude": "12.60964000",
    "native": null,
    "timezone": "Europe/Rome",
    "translations": {}
  },
  {
    "id": 139494,
    "name": "Licata",
    "state_id": 1727,
    "state_code": "AG",
    "country_id": 107,
    "country_code": "IT",
    "latitude": "37.10267000",
    "longitude": "13.93972000",
    "native": null,
    "timezone": "Europe/Rome",
    "translations": {}
  },
  {
    "id": 139630,
    "name": "Lucca Sicula",
    "state_id": 1727,
    "state_code": "AG",
    "country_id": 107,
    "country_code": "IT",
    "latitude": "37.57783000",
    "longitude": "13.30579000",
    "native": null,
    "timezone": "Europe/Rome",
    "translations": {}
  },
  {
    "id": 140064,
    "name": "Menfi",
    "state_id": 1727,
    "state_code": "AG",
    "country_id": 107,
    "country_code": "IT",
    "latitude": "37.60409000",
    "longitude": "12.96889000",
    "native": null,
    "timezone": "Europe/Rome",
    "translations": {}
  },
  {
    "id": 140329,
    "name": "Montallegro",
    "state_id": 1727,
    "state_code": "AG",
    "country_id": 107,
    "country_code": "IT",
    "latitude": "37.39121000",
    "longitude": "13.35179000",
    "native": null,
    "timezone": "Europe/Rome",
    "translations": {}
  },
  {
    "id": 140546,
    "name": "Montevago",
    "state_id": 1727,
    "state_code": "AG",
    "country_id": 107,
    "country_code": "IT",
    "latitude": "37.70224000",
    "longitude": "12.98584000",
    "native": null,
    "timezone": "Europe/Rome",
    "translations": {}
  },
  {
    "id": 140721,
    "name": "Naro",
    "state_id": 1727,
    "state_code": "AG",
    "country_id": 107,
    "country_code": "IT",
    "latitude": "37.29248000",
    "longitude": "13.79337000",
    "native": null,
    "timezone": "Europe/Rome",
    "translations": {}
  },
  {
    "id": 58254,
    "name": "Palma di Montechiaro",
    "state_id": 1727,
    "state_code": "AG",
    "country_id": 107,
    "country_code": "IT",
    "latitude": "37.19066000",
    "longitude": "13.76603000",
    "native": null,
    "timezone": "Europe/Rome",
    "translations": {}
  },
  {
    "id": 58928,
    "name": "Porto Empedocle",
    "state_id": 1727,
    "state_code": "AG",
    "country_id": 107,
    "country_code": "IT",
    "latitude": "37.28942000",
    "longitude": "13.52494000",
    "native": null,
    "timezone": "Europe/Rome",
    "translations": {}
  },
  {
    "id": 59256,
    "name": "Racalmuto",
    "state_id": 1727,
    "state_code": "AG",
    "country_id": 107,
    "country_code": "IT",
    "latitude": "37.40498000",
    "longitude": "13.72995000",
    "native": null,
    "timezone": "Europe/Rome",
    "translations": {}
  },
  {
    "id": 59266,
    "name": "Raffadali",
    "state_id": 1727,
    "state_code": "AG",
    "country_id": 107,
    "country_code": "IT",
    "latitude": "37.40214000",
    "longitude": "13.53175000",
    "native": null,
    "timezone": "Europe/Rome",
    "translations": {}
  },
  {
    "id": 59295,
    "name": "Ravanusa",
    "state_id": 1727,
    "state_code": "AG",
    "country_id": 107,
    "country_code": "IT",
    "latitude": "37.26659000",
    "longitude": "13.96834000",
    "native": null,
    "timezone": "Europe/Rome",
    "translations": {}
  },
  {
    "id": 59305,
    "name": "Realmonte",
    "state_id": 1727,
    "state_code": "AG",
    "country_id": 107,
    "country_code": "IT",
    "latitude": "37.30847000",
    "longitude": "13.46429000",
    "native": null,
    "timezone": "Europe/Rome",
    "translations": {}
  },
  {
    "id": 59359,
    "name": "Ribera",
    "state_id": 1727,
    "state_code": "AG",
    "country_id": 107,
    "country_code": "IT",
    "latitude": "37.49773000",
    "longitude": "13.26676000",
    "native": null,
    "timezone": "Europe/Rome",
    "translations": {}
  },
  {
    "id": 59805,
    "name": "Sambuca di Sicilia",
    "state_id": 1727,
    "state_code": "AG",
    "country_id": 107,
    "country_code": "IT",
    "latitude": "37.65294000",
    "longitude": "13.11462000",
    "native": null,
    "timezone": "Europe/Rome",
    "translations": {}
  },
  {
    "id": 59841,
    "name": "San Biagio Platani",
    "state_id": 1727,
    "state_code": "AG",
    "country_id": 107,
    "country_code": "IT",
    "latitude": "37.50927000",
    "longitude": "13.52844000",
    "native": null,
    "timezone": "Europe/Rome",
    "translations": {}
  },
  {
    "id": 59983,
    "name": "San Giovanni Gemini",
    "state_id": 1727,
    "state_code": "AG",
    "country_id": 107,
    "country_code": "IT",
    "latitude": "37.62785000",
    "longitude": "13.64357000",
    "native": null,
    "timezone": "Europe/Rome",
    "translations": {}
  },
  {
    "id": 60032,
    "name": "San Leone Mosè",
    "state_id": 1727,
    "state_code": "AG",
    "country_id": 107,
    "country_code": "IT",
    "latitude": "37.26497000",
    "longitude": "13.58434000",
    "native": null,
    "timezone": "Europe/Rome",
    "translations": {}
  },
  {
    "id": 60360,
    "name": "Sant'Angelo Muxaro",
    "state_id": 1727,
    "state_code": "AG",
    "country_id": 107,
    "country_code": "IT",
    "latitude": "37.48014000",
    "longitude": "13.54554000",
    "native": null,
    "timezone": "Europe/Rome",
    "translations": {}
  },
  {
    "id": 60434,
    "name": "Santa Elisabetta",
    "state_id": 1727,
    "state_code": "AG",
    "country_id": 107,
    "country_code": "IT",
    "latitude": "37.43171000",
    "longitude": "13.55386000",
    "native": null,
    "timezone": "Europe/Rome",
    "translations": {}
  },
  {
    "id": 60453,
    "name": "Santa Margherita di Belice",
    "state_id": 1727,
    "state_code": "AG",
    "country_id": 107,
    "country_code": "IT",
    "latitude": "37.69281000",
    "longitude": "13.01584000",
    "native": null,
    "timezone": "Europe/Rome",
    "translations": {}
  },
  {
    "id": 60514,
    "name": "Santo Stefano Quisquina",
    "state_id": 1727,
    "state_code": "AG",
    "country_id": 107,
    "country_code": "IT",
    "latitude": "37.62606000",
    "longitude": "13.48976000",
    "native": null,
    "timezone": "Europe/Rome",
    "translations": {}
  },
  {
    "id": 60649,
    "name": "Sciacca",
    "state_id": 1727,
    "state_code": "AG",
    "country_id": 107,
    "country_code": "IT",
    "latitude": "37.50693000",
    "longitude": "13.08399000",
    "native": null,
    "timezone": "Europe/Rome",
    "translations": {}
  },
  {
    "id": 60840,
    "name": "Siculiana",
    "state_id": 1727,
    "state_code": "AG",
    "country_id": 107,
    "country_code": "IT",
    "latitude": "37.33515000",
    "longitude": "13.42432000",
    "native": null,
    "timezone": "Europe/Rome",
    "translations": {}
  },
  {
    "id": 62058,
    "name": "Villafranca Sicula",
    "state_id": 1727,
    "state_code": "AG",
    "country_id": 107,
    "country_code": "IT",
    "latitude": "37.58761000",
    "longitude": "13.29048000",
    "native": null,
    "timezone": "Europe/Rome",
    "translations": {}
  },
  {
    "id": 62135,
    "name": "Villaseta",
    "state_id": 1727,
    "state_code": "AG",
    "country_id": 107,
    "country_code": "IT",
    "latitude": "37.29877000",
    "longitude": "13.55919000",
    "native": null,
    "timezone": "Europe/Rome",
    "translations": {}
  }
]