[
  {
    "id": 135335,
    "name": "Airole",
    "state_id": 1788,
    "state_code": "IM",
    "country_id": 107,
    "country_code": "IT",
    "latitude": "43.87092000",
    "longitude": "7.55414000",
    "native": null,
    "timezone": "Europe/Rome",
    "translations": {}
  },
  {
    "id": 135539,
    "name": "Apricale",
    "state_id": 1788,
    "state_code": "IM",
    "country_id": 107,
    "country_code": "IT",
    "latitude": "43.88033000",
    "longitude": "7.65993000",
    "native": null,
    "timezone": "Europe/Rome",
    "translations": {}
  },
  {
    "id": 135616,
    "name": "Armo",
    "state_id": 1788,
    "state_code": "IM",
    "country_id": 107,
    "country_code": "IT",
    "latitude": "44.08773000",
    "longitude": "7.91545000",
    "native": null,
    "timezone": "Europe/Rome",
    "translations": {}
  },
  {
    "id": 135690,
    "name": "Aurigo",
    "state_id": 1788,
    "state_code": "IM",
    "country_id": 107,
    "country_code": "IT",
    "latitude": "43.98281000",
    "longitude": "7.92342000",
    "native": null,
    "timezone": "Europe/Rome",
    "translations": {}
  },
  {
    "id": 135732,
    "name": "Badalucco",
    "state_id": 1788,
    "state_code": "IM",
    "country_id": 107,
    "country_code": "IT",
    "latitude": "43.91683000",
    "longitude": "7.84584000",
    "native": null,
    "timezone": "Europe/Rome",
    "translations": {}
  },
  {
    "id": 135781,
    "name": "Bajardo",
    "state_id": 1788,
    "state_code": "IM",
    "country_id": 107,
    "country_code": "IT",
    "latitude": "43.90402000",
    "longitude": "7.72534000",
    "native": null,
    "timezone": "Europe/Rome",
    "translations": {}
  },
  {
    "id": 136148,
    "name": "Bordighera",
    "state_id": 1788,
    "state_code": "IM",
    "country_id": 107,
    "country_code": "IT",
    "latitude": "43.78064000",
    "longitude": "7.66451000",
    "native": null,
    "timezone": "Europe/Rome",
    "translations": {}
  },
  {
    "id": 136161,
    "name": "Borghetto d'Arroscia",
    "state_id": 1788,
    "state_code": "IM",
    "country_id": 107,
    "country_code": "IT",
    "latitude": "44.05672000",
    "longitude": "7.98076000",
    "native": null,
    "timezone": "Europe/Rome",
    "translations": {}
  },
  {
    "id": 136208,
    "name": "Borgomaro",
    "state_id": 1788,
    "state_code": "IM",
    "country_id": 107,
    "country_code": "IT",
    "latitude": "43.97530000",
    "longitude": "7.94408000",
    "native": null,
    "timezone": "Europe/Rome",
    "translations": {}
  },
  {
    "id": 136676,
    "name": "Camporosso",
    "state_id": 1788,
    "state_code": "IM",
    "country_id": 107,
    "country_code": "IT",
    "latitude": "43.81310000",
    "longitude": "7.62829000",
    "native": null,
    "timezone": "Europe/Rome",
    "translations": {}
  },
  {
    "id": 136843,
    "name": "Caravonica",
    "state_id": 1788,
    "state_code": "IM",
    "country_id": 107,
    "country_code": "IT",
    "latitude": "43.99303000",
    "longitude": "7.95805000",
    "native": null,
    "timezone": "Europe/Rome",
    "translations": {}
  },
  {
    "id": 136908,
    "name": "Carpasio",
    "state_id": 1788,
    "state_code": "IM",
    "country_id": 107,
    "country_code": "IT",
    "latitude": "43.96024000",
    "longitude": "7.86631000",
    "native": null,
    "timezone": "Europe/Rome",
    "translations": {}
  },
  {
    "id": 137160,
    "name": "Castel Vittorio",
    "state_id": 1788,
    "state_code": "IM",
    "country_id": 107,
    "country_code": "IT",
    "latitude": "43.92752000",
    "longitude": "7.67471000",
    "native": null,
    "timezone": "Europe/Rome",
    "translations": {}
  },
  {
    "id": 137223,
    "name": "Castellaro",
    "state_id": 1788,
    "state_code": "IM",
    "country_id": 107,
    "country_code": "IT",
    "latitude": "43.86436000",
    "longitude": "7.86881000",
    "native": null,
    "timezone": "Europe/Rome",
    "translations": {}
  },
  {
    "id": 137547,
    "name": "Ceriana",
    "state_id": 1788,
    "state_code": "IM",
    "country_id": 107,
    "country_code": "IT",
    "latitude": "43.88091000",
    "longitude": "7.77476000",
    "native": null,
    "timezone": "Europe/Rome",
    "translations": {}
  },
  {
    "id": 137597,
    "name": "Cervo",
    "state_id": 1788,
    "state_code": "IM",
    "country_id": 107,
    "country_code": "IT",
    "latitude": "43.92572000",
    "longitude": "8.11529000",
    "native": null,
    "timezone": "Europe/Rome",
    "translations": {}
  },
  {
    "id": 137614,
    "name": "Cesio",
    "state_id": 1788,
    "state_code": "IM",
    "country_id": 107,
    "country_code": "IT",
    "latitude": "44.00803000",
    "longitude": "7.97515000",
    "native": null,
    "timezone": "Europe/Rome",
    "translations": {}
  },
  {
    "id": 137691,
    "name": "Chiusanico",
    "state_id": 1788,
    "state_code": "IM",
    "country_id": 107,
    "country_code": "IT",
    "latitude": "43.97303000",
    "longitude": "7.99185000",
    "native": null,
    "timezone": "Europe/Rome",
    "translations": {}
  },
  {
    "id": 137694,
    "name": "Chiusavecchia",
    "state_id": 1788,
    "state_code": "IM",
    "country_id": 107,
    "country_code": "IT",
    "latitude": "43.96726000",
    "longitude": "7.98443000",
    "native": null,
    "timezone": "Europe/Rome",
    "translations": {}
  },
  {
    "id": 137745,
    "name": "Cipressa",
    "state_id": 1788,
    "state_code": "IM",
    "country_id": 107,
    "country_code": "IT",
    "latitude": "43.85205000",
    "longitude": "7.93144000",
    "native": null,
    "timezone": "Europe/Rome",
    "translations": {}
  },
  {
    "id": 137779,
    "name": "Civezza",
    "state_id": 1788,
    "state_code": "IM",
    "country_id": 107,
    "country_code": "IT",
    "latitude": "43.87982000",
    "longitude": "7.95165000",
    "native": null,
    "timezone": "Europe/Rome",
    "translations": {}
  },
  {
    "id": 138080,
    "name": "Cosio di Arroscia",
    "state_id": 1788,
    "state_code": "IM",
    "country_id": 107,
    "country_code": "IT",
    "latitude": "44.07743000",
    "longitude": "7.83244000",
    "native": null,
    "timezone": "Europe/Rome",
    "translations": {}
  },
  {
    "id": 138106,
    "name": "Costarainera",
    "state_id": 1788,
    "state_code": "IM",
    "country_id": 107,
    "country_code": "IT",
    "latitude": "43.85477000",
    "longitude": "7.94106000",
    "native": null,
    "timezone": "Europe/Rome",
    "translations": {}
  },
  {
    "id": 138260,
    "name": "Diano Arentino",
    "state_id": 1788,
    "state_code": "IM",
    "country_id": 107,
    "country_code": "IT",
    "latitude": "43.94962000",
    "longitude": "8.04155000",
    "native": null,
    "timezone": "Europe/Rome",
    "translations": {}
  },
  {
    "id": 138261,
    "name": "Diano Castello",
    "state_id": 1788,
    "state_code": "IM",
    "country_id": 107,
    "country_code": "IT",
    "latitude": "43.92423000",
    "longitude": "8.06602000",
    "native": null,
    "timezone": "Europe/Rome",
    "translations": {}
  },
  {
    "id": 138262,
    "name": "Diano Marina",
    "state_id": 1788,
    "state_code": "IM",
    "country_id": 107,
    "country_code": "IT",
    "latitude": "43.91088000",
    "longitude": "8.08029000",
    "native": null,
    "timezone": "Europe/Rome",
    "translations": {}
  },
  {
    "id": 138263,
    "name": "Diano San Pietro",
    "state_id": 1788,
    "state_code": "IM",
    "country_id": 107,
    "country_code": "IT",
    "latitude": "43.92953000",
    "longitude": "8.07249000",
    "native": null,
    "timezone": "Europe/Rome",
    "translations": {}
  },
  {
    "id": 138279,
    "name": "Dolceacqua",
    "state_id": 1788,
    "state_code": "IM",
    "country_id": 107,
    "country_code": "IT",
    "latitude": "43.84975000",
    "longitude": "7.62373000",
    "native": null,
    "timezone": "Europe/Rome",
    "translations": {}
  },
  {
    "id": 138280,
    "name": "Dolcedo",
    "state_id": 1788,
    "state_code": "IM",
    "country_id": 107,
    "country_code": "IT",
    "latitude": "43.90735000",
    "longitude": "7.94943000",
    "native": null,
    "timezone": "Europe/Rome",
    "translations": {}
  },
  {
    "id": 139200,
    "name": "Imperia",
    "state_id": 1788,
    "state_code": "IM",
    "country_id": 107,
    "country_code": "IT",
    "latitude": "43.88917000",
    "longitude": "8.03933000",
    "native": null,
    "timezone": "Europe/Rome",
    "translations": {}
  },
  {
    "id": 139253,
    "name": "Isolabona",
    "state_id": 1788,
    "state_code": "IM",
    "country_id": 107,
    "country_code": "IT",
    "latitude": "43.88076000",
    "longitude": "7.63993000",
    "native": null,
    "timezone": "Europe/Rome",
    "translations": {}
  },
  {
    "id": 139633,
    "name": "Lucinasco",
    "state_id": 1788,
    "state_code": "IM",
    "country_id": 107,
    "country_code": "IT",
    "latitude": "43.96602000",
    "longitude": "7.96005000",
    "native": null,
    "timezone": "Europe/Rome",
    "translations": {}
  },
  {
    "id": 140062,
    "name": "Mendatica",
    "state_id": 1788,
    "state_code": "IM",
    "country_id": 107,
    "country_code": "IT",
    "latitude": "44.07713000",
    "longitude": "7.80564000",
    "native": null,
    "timezone": "Europe/Rome",
    "translations": {}
  },
  {
    "id": 140219,
    "name": "Molini",
    "state_id": 1788,
    "state_code": "IM",
    "country_id": 107,
    "country_code": "IT",
    "latitude": "43.92594000",
    "longitude": "7.93835000",
    "native": null,
    "timezone": "Europe/Rome",
    "translations": {}
  },
  {
    "id": 140220,
    "name": "Molini di Triora",
    "state_id": 1788,
    "state_code": "IM",
    "country_id": 107,
    "country_code": "IT",
    "latitude": "43.98905000",
    "longitude": "7.77463000",
    "native": null,
    "timezone": "Europe/Rome",
    "translations": {}
  },
  {
    "id": 140332,
    "name": "Montalto Ligure",
    "state_id": 1788,
    "state_code": "IM",
    "country_id": 107,
    "country_code": "IT",
    "latitude": "43.92868000",
    "longitude": "7.84491000",
    "native": null,
    "timezone": "Europe/Rome",
    "translations": {}
  },
  {
    "id": 140460,
    "name": "Montegrosso Pian Latte",
    "state_id": 1788,
    "state_code": "IM",
    "country_id": 107,
    "country_code": "IT",
    "latitude": "44.06631000",
    "longitude": "7.81602000",
    "native": null,
    "timezone": "Europe/Rome",
    "translations": {}
  },
  {
    "id": 140903,
    "name": "Olivetta San Michele",
    "state_id": 1788,
    "state_code": "IM",
    "country_id": 107,
    "country_code": "IT",
    "latitude": "43.87872000",
    "longitude": "7.51504000",
    "native": null,
    "timezone": "Europe/Rome",
    "translations": {}
  },
  {
    "id": 141014,
    "name": "Ospedaletti",
    "state_id": 1788,
    "state_code": "IM",
    "country_id": 107,
    "country_code": "IT",
    "latitude": "43.80221000",
    "longitude": "7.71830000",
    "native": null,
    "timezone": "Europe/Rome",
    "translations": {}
  },
  {
    "id": 58425,
    "name": "Perinaldo",
    "state_id": 1788,
    "state_code": "IM",
    "country_id": 107,
    "country_code": "IT",
    "latitude": "43.86689000",
    "longitude": "7.67194000",
    "native": null,
    "timezone": "Europe/Rome",
    "translations": {}
  },
  {
    "id": 58606,
    "name": "Pietrabruna",
    "state_id": 1788,
    "state_code": "IM",
    "country_id": 107,
    "country_code": "IT",
    "latitude": "43.88927000",
    "longitude": "7.90319000",
    "native": null,
    "timezone": "Europe/Rome",
    "translations": {}
  },
  {
    "id": 58654,
    "name": "Pieve di Teco",
    "state_id": 1788,
    "state_code": "IM",
    "country_id": 107,
    "country_code": "IT",
    "latitude": "44.04706000",
    "longitude": "7.91564000",
    "native": null,
    "timezone": "Europe/Rome",
    "translations": {}
  },
  {
    "id": 58660,
    "name": "Pigna",
    "state_id": 1788,
    "state_code": "IM",
    "country_id": 107,
    "country_code": "IT",
    "latitude": "43.93205000",
    "longitude": "7.66123000",
    "native": null,
    "timezone": "Europe/Rome",
    "translations": {}
  },
  {
    "id": 58818,
    "name": "Pompeiana",
    "state_id": 1788,
    "state_code": "IM",
    "country_id": 107,
    "country_code": "IT",
    "latitude": "43.85297000",
    "longitude": "7.88836000",
    "native": null,
    "timezone": "Europe/Rome",
    "translations": {}
  },
  {
    "id": 58868,
    "name": "Pontedassio",
    "state_id": 1788,
    "state_code": "IM",
    "country_id": 107,
    "country_code": "IT",
    "latitude": "43.93830000",
    "longitude": "8.01464000",
    "native": null,
    "timezone": "Europe/Rome",
    "translations": {}
  },
  {
    "id": 58908,
    "name": "Pornassio",
    "state_id": 1788,
    "state_code": "IM",
    "country_id": 107,
    "country_code": "IT",
    "latitude": "44.07053000",
    "longitude": "7.86954000",
    "native": null,
    "timezone": "Europe/Rome",
    "translations": {}
  },
  {
    "id": 59051,
    "name": "Prelà Castello",
    "state_id": 1788,
    "state_code": "IM",
    "country_id": 107,
    "country_code": "IT",
    "latitude": "43.94006000",
    "longitude": "7.94409000",
    "native": null,
    "timezone": "Europe/Rome",
    "translations": {}
  },
  {
    "id": 59348,
    "name": "Rezzo",
    "state_id": 1788,
    "state_code": "IM",
    "country_id": 107,
    "country_code": "IT",
    "latitude": "44.02101000",
    "longitude": "7.87199000",
    "native": null,
    "timezone": "Europe/Rome",
    "translations": {}
  },
  {
    "id": 59416,
    "name": "Riva Ligure",
    "state_id": 1788,
    "state_code": "IM",
    "country_id": 107,
    "country_code": "IT",
    "latitude": "43.83883000",
    "longitude": "7.87935000",
    "native": null,
    "timezone": "Europe/Rome",
    "translations": {}
  },
  {
    "id": 59538,
    "name": "Rocchetta Nervina",
    "state_id": 1788,
    "state_code": "IM",
    "country_id": 107,
    "country_code": "IT",
    "latitude": "43.88988000",
    "longitude": "7.60071000",
    "native": null,
    "timezone": "Europe/Rome",
    "translations": {}
  },
  {
    "id": 59821,
    "name": "San Bartolomeo al Mare",
    "state_id": 1788,
    "state_code": "IM",
    "country_id": 107,
    "country_code": "IT",
    "latitude": "43.92312000",
    "longitude": "8.10482000",
    "native": null,
    "timezone": "Europe/Rome",
    "translations": {}
  },
  {
    "id": 59843,
    "name": "San Biagio della Cima",
    "state_id": 1788,
    "state_code": "IM",
    "country_id": 107,
    "country_code": "IT",
    "latitude": "43.81784000",
    "longitude": "7.65133000",
    "native": null,
    "timezone": "Europe/Rome",
    "translations": {}
  },
  {
    "id": 60044,
    "name": "San Lorenzo al Mare",
    "state_id": 1788,
    "state_code": "IM",
    "country_id": 107,
    "country_code": "IT",
    "latitude": "43.85378000",
    "longitude": "7.96406000",
    "native": null,
    "timezone": "Europe/Rome",
    "translations": {}
  },
  {
    "id": 60220,
    "name": "San Remo",
    "state_id": 1788,
    "state_code": "IM",
    "country_id": 107,
    "country_code": "IT",
    "latitude": "43.81725000",
    "longitude": "7.77720000",
    "native": null,
    "timezone": "Europe/Rome",
    "translations": {}
  },
  {
    "id": 60517,
    "name": "Santo Stefano al Mare",
    "state_id": 1788,
    "state_code": "IM",
    "country_id": 107,
    "country_code": "IT",
    "latitude": "43.83855000",
    "longitude": "7.89728000",
    "native": null,
    "timezone": "Europe/Rome",
    "translations": {}
  },
  {
    "id": 60674,
    "name": "Seborga",
    "state_id": 1788,
    "state_code": "IM",
    "country_id": 107,
    "country_code": "IT",
    "latitude": "43.82730000",
    "longitude": "7.69585000",
    "native": null,
    "timezone": "Europe/Rome",
    "translations": {}
  },
  {
    "id": 60912,
    "name": "Soldano",
    "state_id": 1788,
    "state_code": "IM",
    "country_id": 107,
    "country_code": "IT",
    "latitude": "43.82954000",
    "longitude": "7.65627000",
    "native": null,
    "timezone": "Europe/Rome",
    "translations": {}
  },
  {
    "id": 61140,
    "name": "Taggia",
    "state_id": 1788,
    "state_code": "IM",
    "country_id": 107,
    "country_code": "IT",
    "latitude": "43.84612000",
    "longitude": "7.85223000",
    "native": null,
    "timezone": "Europe/Rome",
    "translations": {}
  },
  {
    "id": 61259,
    "name": "Terzorio",
    "state_id": 1788,
    "state_code": "IM",
    "country_id": 107,
    "country_code": "IT",
    "latitude": "43.85232000",
    "longitude": "7.89835000",
    "native": null,
    "timezone": "Europe/Rome",
    "translations": {}
  },
  {
    "id": 61533,
    "name": "Triora",
    "state_id": 1788,
    "state_code": "IM",
    "country_id": 107,
    "country_code": "IT",
    "latitude": "43.99309000",
    "longitude": "7.76369000",
    "native": null,
    "timezone": "Europe/Rome",
    "translations": {}
  },
  {
    "id": 61701,
    "name": "Vallebona",
    "state_id": 1788,
    "state_code": "IM",
    "country_id": 107,
    "country_code": "IT",
    "latitude": "43.81220000",
    "longitude": "7.66535000",
    "native": null,
    "timezone": "Europe/Rome",
    "translations": {}
  },
  {
    "id": 61703,
    "name": "Vallecrosia",
    "state_id": 1788,
    "state_code": "IM",
    "country_id": 107,
    "country_code": "IT",
    "latitude": "43.78671000",
    "longitude": "7.63902000",
    "native": null,
    "timezone": "Europe/Rome",
    "translations": {}
  },
  {
    "id": 61779,
    "name": "Vasia",
    "state_id": 1788,
    "state_code": "IM",
    "country_id": 107,
    "country_code": "IT",
    "latitude": "43.93268000",
    "longitude": "7.95389000",
    "native": null,
    "timezone": "Europe/Rome",
    "translations": {}
  },
  {
    "id": 61825,
    "name": "Ventimiglia",
    "state_id": 1788,
    "state_code": "IM",
    "country_id": 107,
    "country_code": "IT",
    "latitude": "43.78956000",
    "longitude": "7.60872000",
    "native": null,
    "timezone": "Europe/Rome",
    "translations": {}
  },
  {
    "id": 61884,
    "name": "Vessalico",
    "state_id": 1788,
    "state_code": "IM",
    "country_id": 107,
    "country_code": "IT",
    "latitude": "44.04559000",
    "longitude": "7.96013000",
    "native": null,
    "timezone": "Europe/Rome",
    "translations": {}
  },
  {
    "id": 61997,
    "name": "Villa Faraldi",
    "state_id": 1788,
    "state_code": "IM",
    "country_id": 107,
    "country_code": "IT",
    "latitude": "43.96843000",
    "longitude": "8.08965000",
    "native": null,
    "timezone": "Europe/Rome",
    "translations": {}
  }
]