[
  {
    "id": 135249,
    "name": "Accettura",
    "state_id": 1760,
    "state_code": "MT",
    "country_id": 107,
    "country_code": "IT",
    "latitude": "40.49102000",
    "longitude": "16.15798000",
    "native": null,
    "timezone": "Europe/Rome",
    "translations": {}
  },
  {
    "id": 135407,
    "name": "Aliano",
    "state_id": 1760,
    "state_code": "MT",
    "country_id": 107,
    "country_code": "IT",
    "latitude": "40.31359000",
    "longitude": "16.22984000",
    "native": null,
    "timezone": "Europe/Rome",
    "translations": {}
  },
  {
    "id": 135992,
    "name": "Bernalda",
    "state_id": 1760,
    "state_code": "MT",
    "country_id": 107,
    "country_code": "IT",
    "latitude": "40.41261000",
    "longitude": "16.68919000",
    "native": null,
    "timezone": "Europe/Rome",
    "translations": {}
  },
  {
    "id": 136504,
    "name": "Calciano",
    "state_id": 1760,
    "state_code": "MT",
    "country_id": 107,
    "country_code": "IT",
    "latitude": "40.58802000",
    "longitude": "16.19238000",
    "native": null,
    "timezone": "Europe/Rome",
    "translations": {}
  },
  {
    "id": 137747,
    "name": "Cirigliano",
    "state_id": 1760,
    "state_code": "MT",
    "country_id": 107,
    "country_code": "IT",
    "latitude": "40.39376000",
    "longitude": "16.17194000",
    "native": null,
    "timezone": "Europe/Rome",
    "translations": {}
  },
  {
    "id": 137910,
    "name": "Colobraro",
    "state_id": 1760,
    "state_code": "MT",
    "country_id": 107,
    "country_code": "IT",
    "latitude": "40.18841000",
    "longitude": "16.42480000",
    "native": null,
    "timezone": "Europe/Rome",
    "translations": {}
  },
  {
    "id": 138121,
    "name": "Craco-Sant'Angelo",
    "state_id": 1760,
    "state_code": "MT",
    "country_id": 107,
    "country_code": "IT",
    "latitude": "40.37992000",
    "longitude": "16.43708000",
    "native": null,
    "timezone": "Europe/Rome",
    "translations": {}
  },
  {
    "id": 138488,
    "name": "Ferrandina",
    "state_id": 1760,
    "state_code": "MT",
    "country_id": 107,
    "country_code": "IT",
    "latitude": "40.50084000",
    "longitude": "16.45258000",
    "native": null,
    "timezone": "Europe/Rome",
    "translations": {}
  },
  {
    "id": 138843,
    "name": "Garaguso",
    "state_id": 1760,
    "state_code": "MT",
    "country_id": 107,
    "country_code": "IT",
    "latitude": "40.54866000",
    "longitude": "16.22827000",
    "native": null,
    "timezone": "Europe/Rome",
    "translations": {}
  },
  {
    "id": 139029,
    "name": "Gorgoglione",
    "state_id": 1760,
    "state_code": "MT",
    "country_id": 107,
    "country_code": "IT",
    "latitude": "40.39532000",
    "longitude": "16.14456000",
    "native": null,
    "timezone": "Europe/Rome",
    "translations": {}
  },
  {
    "id": 139072,
    "name": "Grassano",
    "state_id": 1760,
    "state_code": "MT",
    "country_id": 107,
    "country_code": "IT",
    "latitude": "40.63457000",
    "longitude": "16.27792000",
    "native": null,
    "timezone": "Europe/Rome",
    "translations": {}
  },
  {
    "id": 139130,
    "name": "Grottole",
    "state_id": 1760,
    "state_code": "MT",
    "country_id": 107,
    "country_code": "IT",
    "latitude": "40.60333000",
    "longitude": "16.37831000",
    "native": null,
    "timezone": "Europe/Rome",
    "translations": {}
  },
  {
    "id": 139223,
    "name": "Irsina",
    "state_id": 1760,
    "state_code": "MT",
    "country_id": 107,
    "country_code": "IT",
    "latitude": "40.75015000",
    "longitude": "16.23816000",
    "native": null,
    "timezone": "Europe/Rome",
    "translations": {}
  },
  {
    "id": 139295,
    "name": "La Martella",
    "state_id": 1760,
    "state_code": "MT",
    "country_id": 107,
    "country_code": "IT",
    "latitude": "40.66251000",
    "longitude": "16.53551000",
    "native": null,
    "timezone": "Europe/Rome",
    "translations": {}
  },
  {
    "id": 139501,
    "name": "Lido",
    "state_id": 1760,
    "state_code": "MT",
    "country_id": 107,
    "country_code": "IT",
    "latitude": "40.19128000",
    "longitude": "16.70692000",
    "native": null,
    "timezone": "Europe/Rome",
    "translations": {}
  },
  {
    "id": 139855,
    "name": "Marconia",
    "state_id": 1760,
    "state_code": "MT",
    "country_id": 107,
    "country_code": "IT",
    "latitude": "40.36355000",
    "longitude": "16.68823000",
    "native": null,
    "timezone": "Europe/Rome",
    "translations": {}
  },
  {
    "id": 139993,
    "name": "Matera",
    "state_id": 1760,
    "state_code": "MT",
    "country_id": 107,
    "country_code": "IT",
    "latitude": "40.66599000",
    "longitude": "16.60463000",
    "native": null,
    "timezone": "Europe/Rome",
    "translations": {}
  },
  {
    "id": 140138,
    "name": "Miglionico",
    "state_id": 1760,
    "state_code": "MT",
    "country_id": 107,
    "country_code": "IT",
    "latitude": "40.56763000",
    "longitude": "16.49964000",
    "native": null,
    "timezone": "Europe/Rome",
    "translations": {}
  },
  {
    "id": 140318,
    "name": "Montalbano Jonico",
    "state_id": 1760,
    "state_code": "MT",
    "country_id": 107,
    "country_code": "IT",
    "latitude": "40.28591000",
    "longitude": "16.56960000",
    "native": null,
    "timezone": "Europe/Rome",
    "translations": {}
  },
  {
    "id": 140534,
    "name": "Montescaglioso",
    "state_id": 1760,
    "state_code": "MT",
    "country_id": 107,
    "country_code": "IT",
    "latitude": "40.55024000",
    "longitude": "16.66541000",
    "native": null,
    "timezone": "Europe/Rome",
    "translations": {}
  },
  {
    "id": 140816,
    "name": "Nova Siri",
    "state_id": 1760,
    "state_code": "MT",
    "country_id": 107,
    "country_code": "IT",
    "latitude": "40.14823000",
    "longitude": "16.53976000",
    "native": null,
    "timezone": "Europe/Rome",
    "translations": {}
  },
  {
    "id": 140817,
    "name": "Nova Siri Scalo",
    "state_id": 1760,
    "state_code": "MT",
    "country_id": 107,
    "country_code": "IT",
    "latitude": "40.13177000",
    "longitude": "16.63593000",
    "native": null,
    "timezone": "Europe/Rome",
    "translations": {}
  },
  {
    "id": 140902,
    "name": "Oliveto Lucano",
    "state_id": 1760,
    "state_code": "MT",
    "country_id": 107,
    "country_code": "IT",
    "latitude": "40.53554000",
    "longitude": "16.18547000",
    "native": null,
    "timezone": "Europe/Rome",
    "translations": {}
  },
  {
    "id": 58713,
    "name": "Pisticci",
    "state_id": 1760,
    "state_code": "MT",
    "country_id": 107,
    "country_code": "IT",
    "latitude": "40.39017000",
    "longitude": "16.55919000",
    "native": null,
    "timezone": "Europe/Rome",
    "translations": {}
  },
  {
    "id": 58789,
    "name": "Policoro",
    "state_id": 1760,
    "state_code": "MT",
    "country_id": 107,
    "country_code": "IT",
    "latitude": "40.21280000",
    "longitude": "16.67795000",
    "native": null,
    "timezone": "Europe/Rome",
    "translations": {}
  },
  {
    "id": 58810,
    "name": "Pomarico",
    "state_id": 1760,
    "state_code": "MT",
    "country_id": 107,
    "country_code": "IT",
    "latitude": "40.52804000",
    "longitude": "16.52708000",
    "native": null,
    "timezone": "Europe/Rome",
    "translations": {}
  },
  {
    "id": 59660,
    "name": "Rotondella",
    "state_id": 1760,
    "state_code": "MT",
    "country_id": 107,
    "country_code": "IT",
    "latitude": "40.17136000",
    "longitude": "16.52491000",
    "native": null,
    "timezone": "Europe/Rome",
    "translations": {}
  },
  {
    "id": 59746,
    "name": "Salandra",
    "state_id": 1760,
    "state_code": "MT",
    "country_id": 107,
    "country_code": "IT",
    "latitude": "40.52668000",
    "longitude": "16.32037000",
    "native": null,
    "timezone": "Europe/Rome",
    "translations": {}
  },
  {
    "id": 59957,
    "name": "San Giorgio Lucano",
    "state_id": 1760,
    "state_code": "MT",
    "country_id": 107,
    "country_code": "IT",
    "latitude": "40.11132000",
    "longitude": "16.38930000",
    "native": null,
    "timezone": "Europe/Rome",
    "translations": {}
  },
  {
    "id": 60107,
    "name": "San Mauro Forte",
    "state_id": 1760,
    "state_code": "MT",
    "country_id": 107,
    "country_code": "IT",
    "latitude": "40.48333000",
    "longitude": "16.25155000",
    "native": null,
    "timezone": "Europe/Rome",
    "translations": {}
  },
  {
    "id": 60626,
    "name": "Scanzano Jonico",
    "state_id": 1760,
    "state_code": "MT",
    "country_id": 107,
    "country_code": "IT",
    "latitude": "40.25085000",
    "longitude": "16.69824000",
    "native": null,
    "timezone": "Europe/Rome",
    "translations": {}
  },
  {
    "id": 61072,
    "name": "Stigliano",
    "state_id": 1760,
    "state_code": "MT",
    "country_id": 107,
    "country_code": "IT",
    "latitude": "40.40237000",
    "longitude": "16.22983000",
    "native": null,
    "timezone": "Europe/Rome",
    "translations": {}
  },
  {
    "id": 61518,
    "name": "Tricarico",
    "state_id": 1760,
    "state_code": "MT",
    "country_id": 107,
    "country_code": "IT",
    "latitude": "40.61458000",
    "longitude": "16.14259000",
    "native": null,
    "timezone": "Europe/Rome",
    "translations": {}
  },
  {
    "id": 61579,
    "name": "Tursi",
    "state_id": 1760,
    "state_code": "MT",
    "country_id": 107,
    "country_code": "IT",
    "latitude": "40.24651000",
    "longitude": "16.47140000",
    "native": null,
    "timezone": "Europe/Rome",
    "translations": {}
  },
  {
    "id": 61739,
    "name": "Valsinni",
    "state_id": 1760,
    "state_code": "MT",
    "country_id": 107,
    "country_code": "IT",
    "latitude": "40.17098000",
    "longitude": "16.44388000",
    "native": null,
    "timezone": "Europe/Rome",
    "translations": {}
  }
]