[
  {
    "id": 135243,
    "name": "Abbiategrasso",
    "state_id": 5633,
    "state_code": "MI",
    "country_id": 107,
    "country_code": "IT",
    "latitude": "45.39821000",
    "longitude": "8.91678000",
    "native": null,
    "timezone": "Europe/Rome",
    "translations": {}
  },
  {
    "id": 135349,
    "name": "Albairate",
    "state_id": 5633,
    "state_code": "MI",
    "country_id": 107,
    "country_code": "IT",
    "latitude": "45.41957000",
    "longitude": "8.93744000",
    "native": null,
    "timezone": "Europe/Rome",
    "translations": {}
  },
  {
    "id": 135375,
    "name": "Albignano",
    "state_id": 5633,
    "state_code": "MI",
    "country_id": 107,
    "country_code": "IT",
    "latitude": "45.50054000",
    "longitude": "9.49299000",
    "native": null,
    "timezone": "Europe/Rome",
    "translations": {}
  },
  {
    "id": 135573,
    "name": "Arconate",
    "state_id": 5633,
    "state_code": "MI",
    "country_id": 107,
    "country_code": "IT",
    "latitude": "45.54134000",
    "longitude": "8.84891000",
    "native": null,
    "timezone": "Europe/Rome",
    "translations": {}
  },
  {
    "id": 135589,
    "name": "Arese",
    "state_id": 5633,
    "state_code": "MI",
    "country_id": 107,
    "country_code": "IT",
    "latitude": "45.55048000",
    "longitude": "9.07741000",
    "native": null,
    "timezone": "Europe/Rome",
    "translations": {}
  },
  {
    "id": 135612,
    "name": "Arluno",
    "state_id": 5633,
    "state_code": "MI",
    "country_id": 107,
    "country_code": "IT",
    "latitude": "45.50344000",
    "longitude": "8.94222000",
    "native": null,
    "timezone": "Europe/Rome",
    "translations": {}
  },
  {
    "id": 135664,
    "name": "Assago",
    "state_id": 5633,
    "state_code": "MI",
    "country_id": 107,
    "country_code": "IT",
    "latitude": "45.40887000",
    "longitude": "9.12565000",
    "native": null,
    "timezone": "Europe/Rome",
    "translations": {}
  },
  {
    "id": 135740,
    "name": "Badile",
    "state_id": 5633,
    "state_code": "MI",
    "country_id": 107,
    "country_code": "IT",
    "latitude": "45.35061000",
    "longitude": "9.12705000",
    "native": null,
    "timezone": "Europe/Rome",
    "translations": {}
  },
  {
    "id": 135813,
    "name": "Baranzate",
    "state_id": 5633,
    "state_code": "MI",
    "country_id": 107,
    "country_code": "IT",
    "latitude": "45.52717000",
    "longitude": "9.11724000",
    "native": null,
    "timezone": "Europe/Rome",
    "translations": {}
  },
  {
    "id": 135844,
    "name": "Bareggio",
    "state_id": 5633,
    "state_code": "MI",
    "country_id": 107,
    "country_code": "IT",
    "latitude": "45.47927000",
    "longitude": "8.99789000",
    "native": null,
    "timezone": "Europe/Rome",
    "translations": {}
  },
  {
    "id": 135884,
    "name": "Basiano",
    "state_id": 5633,
    "state_code": "MI",
    "country_id": 107,
    "country_code": "IT",
    "latitude": "45.58248000",
    "longitude": "9.46325000",
    "native": null,
    "timezone": "Europe/Rome",
    "translations": {}
  },
  {
    "id": 135886,
    "name": "Basiglio",
    "state_id": 5633,
    "state_code": "MI",
    "country_id": 107,
    "country_code": "IT",
    "latitude": "45.35917000",
    "longitude": "9.15855000",
    "native": null,
    "timezone": "Europe/Rome",
    "translations": {}
  },
  {
    "id": 135943,
    "name": "Bellinzago Lombardo",
    "state_id": 5633,
    "state_code": "MI",
    "country_id": 107,
    "country_code": "IT",
    "latitude": "45.54207000",
    "longitude": "9.44595000",
    "native": null,
    "timezone": "Europe/Rome",
    "translations": {}
  },
  {
    "id": 135994,
    "name": "Bernate Ticino",
    "state_id": 5633,
    "state_code": "MI",
    "country_id": 107,
    "country_code": "IT",
    "latitude": "45.47873000",
    "longitude": "8.81834000",
    "native": null,
    "timezone": "Europe/Rome",
    "translations": {}
  },
  {
    "id": 136012,
    "name": "Besate",
    "state_id": 5633,
    "state_code": "MI",
    "country_id": 107,
    "country_code": "IT",
    "latitude": "45.31296000",
    "longitude": "8.96964000",
    "native": null,
    "timezone": "Europe/Rome",
    "translations": {}
  },
  {
    "id": 136019,
    "name": "Bettola",
    "state_id": 5633,
    "state_code": "MI",
    "country_id": 107,
    "country_code": "IT",
    "latitude": "45.33173000",
    "longitude": "9.02080000",
    "native": null,
    "timezone": "Europe/Rome",
    "translations": {}
  },
  {
    "id": 136020,
    "name": "Bettola-Zeloforomagno",
    "state_id": 5633,
    "state_code": "MI",
    "country_id": 107,
    "country_code": "IT",
    "latitude": "45.43080000",
    "longitude": "9.30870000",
    "native": null,
    "timezone": "Europe/Rome",
    "translations": {}
  },
  {
    "id": 136052,
    "name": "Binasco",
    "state_id": 5633,
    "state_code": "MI",
    "country_id": 107,
    "country_code": "IT",
    "latitude": "45.33102000",
    "longitude": "9.09440000",
    "native": null,
    "timezone": "Europe/Rome",
    "translations": {}
  },
  {
    "id": 136094,
    "name": "Boffalora Sopra Ticino",
    "state_id": 5633,
    "state_code": "MI",
    "country_id": 107,
    "country_code": "IT",
    "latitude": "45.46735000",
    "longitude": "8.83095000",
    "native": null,
    "timezone": "Europe/Rome",
    "translations": {}
  },
  {
    "id": 136105,
    "name": "Bollate",
    "state_id": 5633,
    "state_code": "MI",
    "country_id": 107,
    "country_code": "IT",
    "latitude": "45.54647000",
    "longitude": "9.12054000",
    "native": null,
    "timezone": "Europe/Rome",
    "translations": {}
  },
  {
    "id": 136320,
    "name": "Bresso",
    "state_id": 5633,
    "state_code": "MI",
    "country_id": 107,
    "country_code": "IT",
    "latitude": "45.53792000",
    "longitude": "9.18921000",
    "native": null,
    "timezone": "Europe/Rome",
    "translations": {}
  },
  {
    "id": 136382,
    "name": "Bubbiano",
    "state_id": 5633,
    "state_code": "MI",
    "country_id": 107,
    "country_code": "IT",
    "latitude": "45.32727000",
    "longitude": "9.01455000",
    "native": null,
    "timezone": "Europe/Rome",
    "translations": {}
  },
  {
    "id": 136387,
    "name": "Buccinasco",
    "state_id": 5633,
    "state_code": "MI",
    "country_id": 107,
    "country_code": "IT",
    "latitude": "45.40703000",
    "longitude": "9.10830000",
    "native": null,
    "timezone": "Europe/Rome",
    "translations": {}
  },
  {
    "id": 136422,
    "name": "Buscate",
    "state_id": 5633,
    "state_code": "MI",
    "country_id": 107,
    "country_code": "IT",
    "latitude": "45.54353000",
    "longitude": "8.81297000",
    "native": null,
    "timezone": "Europe/Rome",
    "translations": {}
  },
  {
    "id": 136428,
    "name": "Bussero",
    "state_id": 5633,
    "state_code": "MI",
    "country_id": 107,
    "country_code": "IT",
    "latitude": "45.53407000",
    "longitude": "9.37205000",
    "native": null,
    "timezone": "Europe/Rome",
    "translations": {}
  },
  {
    "id": 136435,
    "name": "Busto Garolfo",
    "state_id": 5633,
    "state_code": "MI",
    "country_id": 107,
    "country_code": "IT",
    "latitude": "45.54809000",
    "longitude": "8.88298000",
    "native": null,
    "timezone": "Europe/Rome",
    "translations": {}
  },
  {
    "id": 136523,
    "name": "Caleppio",
    "state_id": 5633,
    "state_code": "MI",
    "country_id": 107,
    "country_code": "IT",
    "latitude": "45.43436000",
    "longitude": "9.38250000",
    "native": null,
    "timezone": "Europe/Rome",
    "translations": {}
  },
  {
    "id": 136561,
    "name": "Calvignasco",
    "state_id": 5633,
    "state_code": "MI",
    "country_id": 107,
    "country_code": "IT",
    "latitude": "45.32597000",
    "longitude": "9.02775000",
    "native": null,
    "timezone": "Europe/Rome",
    "translations": {}
  },
  {
    "id": 136572,
    "name": "Cambiago",
    "state_id": 5633,
    "state_code": "MI",
    "country_id": 107,
    "country_code": "IT",
    "latitude": "45.58035000",
    "longitude": "9.43528000",
    "native": null,
    "timezone": "Europe/Rome",
    "translations": {}
  },
  {
    "id": 136707,
    "name": "Canegrate",
    "state_id": 5633,
    "state_code": "MI",
    "country_id": 107,
    "country_code": "IT",
    "latitude": "45.56825000",
    "longitude": "8.92689000",
    "native": null,
    "timezone": "Europe/Rome",
    "translations": {}
  },
  {
    "id": 136741,
    "name": "Cantalupo",
    "state_id": 5633,
    "state_code": "MI",
    "country_id": 107,
    "country_code": "IT",
    "latitude": "45.57813000",
    "longitude": "8.98261000",
    "native": null,
    "timezone": "Europe/Rome",
    "translations": {}
  },
  {
    "id": 136914,
    "name": "Carpiano",
    "state_id": 5633,
    "state_code": "MI",
    "country_id": 107,
    "country_code": "IT",
    "latitude": "45.34027000",
    "longitude": "9.27401000",
    "native": null,
    "timezone": "Europe/Rome",
    "translations": {}
  },
  {
    "id": 136943,
    "name": "Carugate",
    "state_id": 5633,
    "state_code": "MI",
    "country_id": 107,
    "country_code": "IT",
    "latitude": "45.54983000",
    "longitude": "9.34044000",
    "native": null,
    "timezone": "Europe/Rome",
    "translations": {}
  },
  {
    "id": 136949,
    "name": "Casa Ponte",
    "state_id": 5633,
    "state_code": "MI",
    "country_id": 107,
    "country_code": "IT",
    "latitude": "44.87777000",
    "longitude": "9.16509000",
    "native": null,
    "timezone": "Europe/Rome",
    "translations": {}
  },
  {
    "id": 137033,
    "name": "Casarile",
    "state_id": 5633,
    "state_code": "MI",
    "country_id": 107,
    "country_code": "IT",
    "latitude": "45.31683000",
    "longitude": "9.10383000",
    "native": null,
    "timezone": "Europe/Rome",
    "translations": {}
  },
  {
    "id": 137038,
    "name": "Casate",
    "state_id": 5633,
    "state_code": "MI",
    "country_id": 107,
    "country_code": "IT",
    "latitude": "45.49203000",
    "longitude": "8.82776000",
    "native": null,
    "timezone": "Europe/Rome",
    "translations": {}
  },
  {
    "id": 137084,
    "name": "Casone",
    "state_id": 5633,
    "state_code": "MI",
    "country_id": 107,
    "country_code": "IT",
    "latitude": "45.49818000",
    "longitude": "8.87635000",
    "native": null,
    "timezone": "Europe/Rome",
    "translations": {}
  },
  {
    "id": 137088,
    "name": "Casorezzo",
    "state_id": 5633,
    "state_code": "MI",
    "country_id": 107,
    "country_code": "IT",
    "latitude": "45.52265000",
    "longitude": "8.90186000",
    "native": null,
    "timezone": "Europe/Rome",
    "translations": {}
  },
  {
    "id": 137100,
    "name": "Cassano d'Adda",
    "state_id": 5633,
    "state_code": "MI",
    "country_id": 107,
    "country_code": "IT",
    "latitude": "45.52637000",
    "longitude": "9.51528000",
    "native": null,
    "timezone": "Europe/Rome",
    "translations": {}
  },
  {
    "id": 137107,
    "name": "Cassina de' Pecchi",
    "state_id": 5633,
    "state_code": "MI",
    "country_id": 107,
    "country_code": "IT",
    "latitude": "45.51637000",
    "longitude": "9.35975000",
    "native": null,
    "timezone": "Europe/Rome",
    "translations": {}
  },
  {
    "id": 137111,
    "name": "Cassinetta di Lugagnano",
    "state_id": 5633,
    "state_code": "MI",
    "country_id": 107,
    "country_code": "IT",
    "latitude": "45.42247000",
    "longitude": "8.90604000",
    "native": null,
    "timezone": "Europe/Rome",
    "translations": {}
  },
  {
    "id": 137113,
    "name": "Cassino d'Alberi",
    "state_id": 5633,
    "state_code": "MI",
    "country_id": 107,
    "country_code": "IT",
    "latitude": "45.39208000",
    "longitude": "9.39090000",
    "native": null,
    "timezone": "Europe/Rome",
    "translations": {}
  },
  {
    "id": 137126,
    "name": "Castano Primo",
    "state_id": 5633,
    "state_code": "MI",
    "country_id": 107,
    "country_code": "IT",
    "latitude": "45.55175000",
    "longitude": "8.77562000",
    "native": null,
    "timezone": "Europe/Rome",
    "translations": {}
  },
  {
    "id": 137533,
    "name": "Cerello-Battuello",
    "state_id": 5633,
    "state_code": "MI",
    "country_id": 107,
    "country_code": "IT",
    "latitude": "45.44716000",
    "longitude": "8.93105000",
    "native": null,
    "timezone": "Europe/Rome",
    "translations": {}
  },
  {
    "id": 137558,
    "name": "Cernusco sul Naviglio",
    "state_id": 5633,
    "state_code": "MI",
    "country_id": 107,
    "country_code": "IT",
    "latitude": "45.52526000",
    "longitude": "9.33297000",
    "native": null,
    "timezone": "Europe/Rome",
    "translations": {}
  },
  {
    "id": 137575,
    "name": "Cerro al Lambro",
    "state_id": 5633,
    "state_code": "MI",
    "country_id": 107,
    "country_code": "IT",
    "latitude": "45.32997000",
    "longitude": "9.33905000",
    "native": null,
    "timezone": "Europe/Rome",
    "translations": {}
  },
  {
    "id": 137572,
    "name": "Cerro Maggiore",
    "state_id": 5633,
    "state_code": "MI",
    "country_id": 107,
    "country_code": "IT",
    "latitude": "45.59366000",
    "longitude": "8.95428000",
    "native": null,
    "timezone": "Europe/Rome",
    "translations": {}
  },
  {
    "id": 137605,
    "name": "Cesano Boscone",
    "state_id": 5633,
    "state_code": "MI",
    "country_id": 107,
    "country_code": "IT",
    "latitude": "45.44207000",
    "longitude": "9.09445000",
    "native": null,
    "timezone": "Europe/Rome",
    "translations": {}
  },
  {
    "id": 137610,
    "name": "Cesate",
    "state_id": 5633,
    "state_code": "MI",
    "country_id": 107,
    "country_code": "IT",
    "latitude": "45.59587000",
    "longitude": "9.07574000",
    "native": null,
    "timezone": "Europe/Rome",
    "translations": {}
  },
  {
    "id": 137652,
    "name": "Chiaravalle",
    "state_id": 5633,
    "state_code": "MI",
    "country_id": 107,
    "country_code": "IT",
    "latitude": "45.41731000",
    "longitude": "9.23985000",
    "native": null,
    "timezone": "Europe/Rome",
    "translations": {}
  },
  {
    "id": 137734,
    "name": "Cinisello Balsamo",
    "state_id": 5633,
    "state_code": "MI",
    "country_id": 107,
    "country_code": "IT",
    "latitude": "45.55823000",
    "longitude": "9.21495000",
    "native": null,
    "timezone": "Europe/Rome",
    "translations": {}
  },
  {
    "id": 137757,
    "name": "Cisliano",
    "state_id": 5633,
    "state_code": "MI",
    "country_id": 107,
    "country_code": "IT",
    "latitude": "45.44371000",
    "longitude": "8.98695000",
    "native": null,
    "timezone": "Europe/Rome",
    "translations": {}
  },
  {
    "id": 137778,
    "name": "Civesio",
    "state_id": 5633,
    "state_code": "MI",
    "country_id": 107,
    "country_code": "IT",
    "latitude": "45.39556000",
    "longitude": "9.26680000",
    "native": null,
    "timezone": "Europe/Rome",
    "translations": {}
  },
  {
    "id": 137915,
    "name": "Cologno Monzese",
    "state_id": 5633,
    "state_code": "MI",
    "country_id": 107,
    "country_code": "IT",
    "latitude": "45.53004000",
    "longitude": "9.27795000",
    "native": null,
    "timezone": "Europe/Rome",
    "translations": {}
  },
  {
    "id": 137928,
    "name": "Colturano",
    "state_id": 5633,
    "state_code": "MI",
    "country_id": 107,
    "country_code": "IT",
    "latitude": "45.38151000",
    "longitude": "9.33443000",
    "native": null,
    "timezone": "Europe/Rome",
    "translations": {}
  },
  {
    "id": 137994,
    "name": "Corbetta",
    "state_id": 5633,
    "state_code": "MI",
    "country_id": 107,
    "country_code": "IT",
    "latitude": "45.46723000",
    "longitude": "8.91867000",
    "native": null,
    "timezone": "Europe/Rome",
    "translations": {}
  },
  {
    "id": 138020,
    "name": "Cormano",
    "state_id": 5633,
    "state_code": "MI",
    "country_id": 107,
    "country_code": "IT",
    "latitude": "45.54917000",
    "longitude": "9.15964000",
    "native": null,
    "timezone": "Europe/Rome",
    "translations": {}
  },
  {
    "id": 138026,
    "name": "Cornaredo",
    "state_id": 5633,
    "state_code": "MI",
    "country_id": 107,
    "country_code": "IT",
    "latitude": "45.50128000",
    "longitude": "9.02681000",
    "native": null,
    "timezone": "Europe/Rome",
    "translations": {}
  },
  {
    "id": 138048,
    "name": "Corsico",
    "state_id": 5633,
    "state_code": "MI",
    "country_id": 107,
    "country_code": "IT",
    "latitude": "45.43099000",
    "longitude": "9.11093000",
    "native": null,
    "timezone": "Europe/Rome",
    "translations": {}
  },
  {
    "id": 138183,
    "name": "Cuggiono",
    "state_id": 5633,
    "state_code": "MI",
    "country_id": 107,
    "country_code": "IT",
    "latitude": "45.50683000",
    "longitude": "8.81550000",
    "native": null,
    "timezone": "Europe/Rome",
    "translations": {}
  },
  {
    "id": 138210,
    "name": "Cusago",
    "state_id": 5633,
    "state_code": "MI",
    "country_id": 107,
    "country_code": "IT",
    "latitude": "45.44997000",
    "longitude": "9.03744000",
    "native": null,
    "timezone": "Europe/Rome",
    "translations": {}
  },
  {
    "id": 138211,
    "name": "Cusano",
    "state_id": 5633,
    "state_code": "MI",
    "country_id": 107,
    "country_code": "IT",
    "latitude": "45.55187000",
    "longitude": "9.18373000",
    "native": null,
    "timezone": "Europe/Rome",
    "translations": {}
  },
  {
    "id": 138224,
    "name": "Dairago",
    "state_id": 5633,
    "state_code": "MI",
    "country_id": 107,
    "country_code": "IT",
    "latitude": "45.56580000",
    "longitude": "8.86265000",
    "native": null,
    "timezone": "Europe/Rome",
    "translations": {}
  },
  {
    "id": 138329,
    "name": "Dresano",
    "state_id": 5633,
    "state_code": "MI",
    "country_id": 107,
    "country_code": "IT",
    "latitude": "45.37297000",
    "longitude": "9.35785000",
    "native": null,
    "timezone": "Europe/Rome",
    "translations": {}
  },
  {
    "id": 138516,
    "name": "Figino",
    "state_id": 5633,
    "state_code": "MI",
    "country_id": 107,
    "country_code": "IT",
    "latitude": "45.49261000",
    "longitude": "9.07779000",
    "native": null,
    "timezone": "Europe/Rome",
    "translations": {}
  },
  {
    "id": 138557,
    "name": "Fizzonasco",
    "state_id": 5633,
    "state_code": "MI",
    "country_id": 107,
    "country_code": "IT",
    "latitude": "45.37241000",
    "longitude": "9.19066000",
    "native": null,
    "timezone": "Europe/Rome",
    "translations": {}
  },
  {
    "id": 138754,
    "name": "Furato",
    "state_id": 5633,
    "state_code": "MI",
    "country_id": 107,
    "country_code": "IT",
    "latitude": "45.51468000",
    "longitude": "8.88063000",
    "native": null,
    "timezone": "Europe/Rome",
    "translations": {}
  },
  {
    "id": 138776,
    "name": "Gaggiano",
    "state_id": 5633,
    "state_code": "MI",
    "country_id": 107,
    "country_code": "IT",
    "latitude": "45.40484000",
    "longitude": "9.03488000",
    "native": null,
    "timezone": "Europe/Rome",
    "translations": {}
  },
  {
    "id": 138847,
    "name": "Garbagnate Milanese",
    "state_id": 5633,
    "state_code": "MI",
    "country_id": 107,
    "country_code": "IT",
    "latitude": "45.57438000",
    "longitude": "9.07537000",
    "native": null,
    "timezone": "Europe/Rome",
    "translations": {}
  },
  {
    "id": 138925,
    "name": "Gessate",
    "state_id": 5633,
    "state_code": "MI",
    "country_id": 107,
    "country_code": "IT",
    "latitude": "45.54838000",
    "longitude": "9.43775000",
    "native": null,
    "timezone": "Europe/Rome",
    "translations": {}
  },
  {
    "id": 139030,
    "name": "Gorgonzola",
    "state_id": 5633,
    "state_code": "MI",
    "country_id": 107,
    "country_code": "IT",
    "latitude": "45.53069000",
    "longitude": "9.40531000",
    "native": null,
    "timezone": "Europe/Rome",
    "translations": {}
  },
  {
    "id": 139093,
    "name": "Grezzago",
    "state_id": 5633,
    "state_code": "MI",
    "country_id": 107,
    "country_code": "IT",
    "latitude": "45.59108000",
    "longitude": "9.49725000",
    "native": null,
    "timezone": "Europe/Rome",
    "translations": {}
  },
  {
    "id": 139174,
    "name": "Gudo Visconti",
    "state_id": 5633,
    "state_code": "MI",
    "country_id": 107,
    "country_code": "IT",
    "latitude": "45.37407000",
    "longitude": "9.00014000",
    "native": null,
    "timezone": "Europe/Rome",
    "translations": {}
  },
  {
    "id": 139218,
    "name": "Inveruno",
    "state_id": 5633,
    "state_code": "MI",
    "country_id": 107,
    "country_code": "IT",
    "latitude": "45.51399000",
    "longitude": "8.84954000",
    "native": null,
    "timezone": "Europe/Rome",
    "translations": {}
  },
  {
    "id": 139220,
    "name": "Inzago",
    "state_id": 5633,
    "state_code": "MI",
    "country_id": 107,
    "country_code": "IT",
    "latitude": "45.53991000",
    "longitude": "9.48343000",
    "native": null,
    "timezone": "Europe/Rome",
    "translations": {}
  },
  {
    "id": 139312,
    "name": "Lacchiarella",
    "state_id": 5633,
    "state_code": "MI",
    "country_id": 107,
    "country_code": "IT",
    "latitude": "45.32290000",
    "longitude": "9.13777000",
    "native": null,
    "timezone": "Europe/Rome",
    "translations": {}
  },
  {
    "id": 139331,
    "name": "Lainate",
    "state_id": 5633,
    "state_code": "MI",
    "country_id": 107,
    "country_code": "IT",
    "latitude": "45.57176000",
    "longitude": "9.02681000",
    "native": null,
    "timezone": "Europe/Rome",
    "translations": {}
  },
  {
    "id": 139436,
    "name": "Legnano",
    "state_id": 5633,
    "state_code": "MI",
    "country_id": 107,
    "country_code": "IT",
    "latitude": "45.59788000",
    "longitude": "8.91506000",
    "native": null,
    "timezone": "Europe/Rome",
    "translations": {}
  },
  {
    "id": 139529,
    "name": "Linate",
    "state_id": 5633,
    "state_code": "MI",
    "country_id": 107,
    "country_code": "IT",
    "latitude": "45.44701000",
    "longitude": "9.27229000",
    "native": null,
    "timezone": "Europe/Rome",
    "translations": {}
  },
  {
    "id": 139537,
    "name": "Liscate",
    "state_id": 5633,
    "state_code": "MI",
    "country_id": 107,
    "country_code": "IT",
    "latitude": "45.48316000",
    "longitude": "9.41030000",
    "native": null,
    "timezone": "Europe/Rome",
    "translations": {}
  },
  {
    "id": 139562,
    "name": "Locate di Triulzi",
    "state_id": 5633,
    "state_code": "MI",
    "country_id": 107,
    "country_code": "IT",
    "latitude": "45.35691000",
    "longitude": "9.22516000",
    "native": null,
    "timezone": "Europe/Rome",
    "translations": {}
  },
  {
    "id": 139635,
    "name": "Lucino-Rodano",
    "state_id": 5633,
    "state_code": "MI",
    "country_id": 107,
    "country_code": "IT",
    "latitude": "45.47607000",
    "longitude": "9.35315000",
    "native": null,
    "timezone": "Europe/Rome",
    "translations": {}
  },
  {
    "id": 139717,
    "name": "Magenta",
    "state_id": 5633,
    "state_code": "MI",
    "country_id": 107,
    "country_code": "IT",
    "latitude": "45.46456000",
    "longitude": "8.88453000",
    "native": null,
    "timezone": "Europe/Rome",
    "translations": {}
  },
  {
    "id": 139736,
    "name": "Magnago",
    "state_id": 5633,
    "state_code": "MI",
    "country_id": 107,
    "country_code": "IT",
    "latitude": "45.57920000",
    "longitude": "8.80245000",
    "native": null,
    "timezone": "Europe/Rome",
    "translations": {}
  },
  {
    "id": 139806,
    "name": "Mantegazza",
    "state_id": 5633,
    "state_code": "MI",
    "country_id": 107,
    "country_code": "IT",
    "latitude": "45.50946000",
    "longitude": "8.97321000",
    "native": null,
    "timezone": "Europe/Rome",
    "translations": {}
  },
  {
    "id": 139834,
    "name": "Marcallo",
    "state_id": 5633,
    "state_code": "MI",
    "country_id": 107,
    "country_code": "IT",
    "latitude": "45.48327000",
    "longitude": "8.87194000",
    "native": null,
    "timezone": "Europe/Rome",
    "translations": {}
  },
  {
    "id": 139951,
    "name": "Masate",
    "state_id": 5633,
    "state_code": "MI",
    "country_id": 107,
    "country_code": "IT",
    "latitude": "45.56708000",
    "longitude": "9.46415000",
    "native": null,
    "timezone": "Europe/Rome",
    "translations": {}
  },
  {
    "id": 140021,
    "name": "Mediglia",
    "state_id": 5633,
    "state_code": "MI",
    "country_id": 107,
    "country_code": "IT",
    "latitude": "45.39537000",
    "longitude": "9.33165000",
    "native": null,
    "timezone": "Europe/Rome",
    "translations": {}
  },
  {
    "id": 140040,
    "name": "Melegnano",
    "state_id": 5633,
    "state_code": "MI",
    "country_id": 107,
    "country_code": "IT",
    "latitude": "45.35781000",
    "longitude": "9.32360000",
    "native": null,
    "timezone": "Europe/Rome",
    "translations": {}
  },
  {
    "id": 140058,
    "name": "Melzo",
    "state_id": 5633,
    "state_code": "MI",
    "country_id": 107,
    "country_code": "IT",
    "latitude": "45.49810000",
    "longitude": "9.42043000",
    "native": null,
    "timezone": "Europe/Rome",
    "translations": {}
  },
  {
    "id": 140094,
    "name": "Mesero",
    "state_id": 5633,
    "state_code": "MI",
    "country_id": 107,
    "country_code": "IT",
    "latitude": "45.50227000",
    "longitude": "8.85544000",
    "native": null,
    "timezone": "Europe/Rome",
    "translations": {}
  },
  {
    "id": 137775,
    "name": "Metropolitan City of Milan",
    "state_id": 5633,
    "state_code": "MI",
    "country_id": 107,
    "country_code": "IT",
    "latitude": "45.45186000",
    "longitude": "9.14586000",
    "native": null,
    "timezone": "Europe/Rome",
    "translations": {}
  },
  {
    "id": 140115,
    "name": "Mezzate",
    "state_id": 5633,
    "state_code": "MI",
    "country_id": 107,
    "country_code": "IT",
    "latitude": "45.44385000",
    "longitude": "9.29452000",
    "native": null,
    "timezone": "Europe/Rome",
    "translations": {}
  },
  {
    "id": 140142,
    "name": "Milan",
    "state_id": 5633,
    "state_code": "MI",
    "country_id": 107,
    "country_code": "IT",
    "latitude": "45.46427000",
    "longitude": "9.18951000",
    "native": null,
    "timezone": "Europe/Rome",
    "translations": {}
  },
  {
    "id": 140151,
    "name": "Millepini",
    "state_id": 5633,
    "state_code": "MI",
    "country_id": 107,
    "country_code": "IT",
    "latitude": "45.46967000",
    "longitude": "9.33763000",
    "native": null,
    "timezone": "Europe/Rome",
    "translations": {}
  },
  {
    "id": 140243,
    "name": "Mombretto",
    "state_id": 5633,
    "state_code": "MI",
    "country_id": 107,
    "country_code": "IT",
    "latitude": "45.42390000",
    "longitude": "9.36506000",
    "native": null,
    "timezone": "Europe/Rome",
    "translations": {}
  },
  {
    "id": 140270,
    "name": "Moncucco",
    "state_id": 5633,
    "state_code": "MI",
    "country_id": 107,
    "country_code": "IT",
    "latitude": "45.31032000",
    "longitude": "9.03920000",
    "native": null,
    "timezone": "Europe/Rome",
    "translations": {}
  },
  {
    "id": 140619,
    "name": "Morimondo",
    "state_id": 5633,
    "state_code": "MI",
    "country_id": 107,
    "country_code": "IT",
    "latitude": "45.35381000",
    "longitude": "8.95626000",
    "native": null,
    "timezone": "Europe/Rome",
    "translations": {}
  },
  {
    "id": 140663,
    "name": "Motta Visconti",
    "state_id": 5633,
    "state_code": "MI",
    "country_id": 107,
    "country_code": "IT",
    "latitude": "45.28774000",
    "longitude": "8.99254000",
    "native": null,
    "timezone": "Europe/Rome",
    "translations": {}
  },
  {
    "id": 140749,
    "name": "Nerviano",
    "state_id": 5633,
    "state_code": "MI",
    "country_id": 107,
    "country_code": "IT",
    "latitude": "45.55343000",
    "longitude": "8.97920000",
    "native": null,
    "timezone": "Europe/Rome",
    "translations": {}
  },
  {
    "id": 140810,
    "name": "Nosate",
    "state_id": 5633,
    "state_code": "MI",
    "country_id": 107,
    "country_code": "IT",
    "latitude": "45.55074000",
    "longitude": "8.72509000",
    "native": null,
    "timezone": "Europe/Rome",
    "translations": {}
  },
  {
    "id": 140825,
    "name": "Novate Milanese",
    "state_id": 5633,
    "state_code": "MI",
    "country_id": 107,
    "country_code": "IT",
    "latitude": "45.53050000",
    "longitude": "9.13954000",
    "native": null,
    "timezone": "Europe/Rome",
    "translations": {}
  },
  {
    "id": 140828,
    "name": "Novegro-Tregarezzo-San Felice",
    "state_id": 5633,
    "state_code": "MI",
    "country_id": 107,
    "country_code": "IT",
    "latitude": "45.46778000",
    "longitude": "9.28122000",
    "native": null,
    "timezone": "Europe/Rome",
    "translations": {}
  },
  {
    "id": 140834,
    "name": "Noverasco-Sporting Mirasole",
    "state_id": 5633,
    "state_code": "MI",
    "country_id": 107,
    "country_code": "IT",
    "latitude": "45.39544000",
    "longitude": "9.21427000",
    "native": null,
    "timezone": "Europe/Rome",
    "translations": {}
  },
  {
    "id": 140838,
    "name": "Noviglio",
    "state_id": 5633,
    "state_code": "MI",
    "country_id": 107,
    "country_code": "IT",
    "latitude": "45.35907000",
    "longitude": "9.05215000",
    "native": null,
    "timezone": "Europe/Rome",
    "translations": {}
  },
  {
    "id": 140931,
    "name": "Opera",
    "state_id": 5633,
    "state_code": "MI",
    "country_id": 107,
    "country_code": "IT",
    "latitude": "45.37355000",
    "longitude": "9.21084000",
    "native": null,
    "timezone": "Europe/Rome",
    "translations": {}
  },
  {
    "id": 141028,
    "name": "Ossona",
    "state_id": 5633,
    "state_code": "MI",
    "country_id": 107,
    "country_code": "IT",
    "latitude": "45.50708000",
    "longitude": "8.89314000",
    "native": null,
    "timezone": "Europe/Rome",
    "translations": {}
  },
  {
    "id": 141066,
    "name": "Ozzero",
    "state_id": 5633,
    "state_code": "MI",
    "country_id": 107,
    "country_code": "IT",
    "latitude": "45.36775000",
    "longitude": "8.92440000",
    "native": null,
    "timezone": "Europe/Rome",
    "translations": {}
  },
  {
    "id": 141078,
    "name": "Paderno Dugnano",
    "state_id": 5633,
    "state_code": "MI",
    "country_id": 107,
    "country_code": "IT",
    "latitude": "45.56899000",
    "longitude": "9.16483000",
    "native": null,
    "timezone": "Europe/Rome",
    "translations": {}
  },
  {
    "id": 58285,
    "name": "Pantigliate",
    "state_id": 5633,
    "state_code": "MI",
    "country_id": 107,
    "country_code": "IT",
    "latitude": "45.43526000",
    "longitude": "9.35220000",
    "native": null,
    "timezone": "Europe/Rome",
    "translations": {}
  },
  {
    "id": 58294,
    "name": "Parabiago",
    "state_id": 5633,
    "state_code": "MI",
    "country_id": 107,
    "country_code": "IT",
    "latitude": "45.56034000",
    "longitude": "8.94545000",
    "native": null,
    "timezone": "Europe/Rome",
    "translations": {}
  },
  {
    "id": 58329,
    "name": "Passirana",
    "state_id": 5633,
    "state_code": "MI",
    "country_id": 107,
    "country_code": "IT",
    "latitude": "45.54792000",
    "longitude": "9.04412000",
    "native": null,
    "timezone": "Europe/Rome",
    "translations": {}
  },
  {
    "id": 58356,
    "name": "Paullo",
    "state_id": 5633,
    "state_code": "MI",
    "country_id": 107,
    "country_code": "IT",
    "latitude": "45.41834000",
    "longitude": "9.40042000",
    "native": null,
    "timezone": "Europe/Rome",
    "translations": {}
  },
  {
    "id": 58435,
    "name": "Pero",
    "state_id": 5633,
    "state_code": "MI",
    "country_id": 107,
    "country_code": "IT",
    "latitude": "45.51017000",
    "longitude": "9.08704000",
    "native": null,
    "timezone": "Europe/Rome",
    "translations": {}
  },
  {
    "id": 58469,
    "name": "Pessano Con Bornago",
    "state_id": 5633,
    "state_code": "MI",
    "country_id": 107,
    "country_code": "IT",
    "latitude": "45.54937000",
    "longitude": "9.38145000",
    "native": null,
    "timezone": "Europe/Rome",
    "translations": {}
  },
  {
    "id": 58633,
    "name": "Pieve Emanuele",
    "state_id": 5633,
    "state_code": "MI",
    "country_id": 107,
    "country_code": "IT",
    "latitude": "45.35052000",
    "longitude": "9.20268000",
    "native": null,
    "timezone": "Europe/Rome",
    "translations": {}
  },
  {
    "id": 58688,
    "name": "Pioltello",
    "state_id": 5633,
    "state_code": "MI",
    "country_id": 107,
    "country_code": "IT",
    "latitude": "45.50147000",
    "longitude": "9.33053000",
    "native": null,
    "timezone": "Europe/Rome",
    "translations": {}
  },
  {
    "id": 58741,
    "name": "Poasco-Sorigherio",
    "state_id": 5633,
    "state_code": "MI",
    "country_id": 107,
    "country_code": "IT",
    "latitude": "45.40310000",
    "longitude": "9.23092000",
    "native": null,
    "timezone": "Europe/Rome",
    "translations": {}
  },
  {
    "id": 58774,
    "name": "Pogliano Milanese",
    "state_id": 5633,
    "state_code": "MI",
    "country_id": 107,
    "country_code": "IT",
    "latitude": "45.53786000",
    "longitude": "8.99403000",
    "native": null,
    "timezone": "Europe/Rome",
    "translations": {}
  },
  {
    "id": 58982,
    "name": "Pozzo d'Adda",
    "state_id": 5633,
    "state_code": "MI",
    "country_id": 107,
    "country_code": "IT",
    "latitude": "45.57258000",
    "longitude": "9.50295000",
    "native": null,
    "timezone": "Europe/Rome",
    "translations": {}
  },
  {
    "id": 58991,
    "name": "Pozzuolo Martesana",
    "state_id": 5633,
    "state_code": "MI",
    "country_id": 107,
    "country_code": "IT",
    "latitude": "45.51398000",
    "longitude": "9.45625000",
    "native": null,
    "timezone": "Europe/Rome",
    "translations": {}
  },
  {
    "id": 59049,
    "name": "Pregnana Milanese",
    "state_id": 5633,
    "state_code": "MI",
    "country_id": 107,
    "country_code": "IT",
    "latitude": "45.51597000",
    "longitude": "9.00704000",
    "native": null,
    "timezone": "Europe/Rome",
    "translations": {}
  },
  {
    "id": 59055,
    "name": "Premenugo",
    "state_id": 5633,
    "state_code": "MI",
    "country_id": 107,
    "country_code": "IT",
    "latitude": "45.46790000",
    "longitude": "9.38458000",
    "native": null,
    "timezone": "Europe/Rome",
    "translations": {}
  },
  {
    "id": 59335,
    "name": "Rescaldina",
    "state_id": 5633,
    "state_code": "MI",
    "country_id": 107,
    "country_code": "IT",
    "latitude": "45.62002000",
    "longitude": "8.94878000",
    "native": null,
    "timezone": "Europe/Rome",
    "translations": {}
  },
  {
    "id": 59352,
    "name": "Rho",
    "state_id": 5633,
    "state_code": "MI",
    "country_id": 107,
    "country_code": "IT",
    "latitude": "45.53245000",
    "longitude": "9.04020000",
    "native": null,
    "timezone": "Europe/Rome",
    "translations": {}
  },
  {
    "id": 59398,
    "name": "Riozzo",
    "state_id": 5633,
    "state_code": "MI",
    "country_id": 107,
    "country_code": "IT",
    "latitude": "45.34622000",
    "longitude": "9.32168000",
    "native": null,
    "timezone": "Europe/Rome",
    "translations": {}
  },
  {
    "id": 59457,
    "name": "Robecchetto Con Induno",
    "state_id": 5633,
    "state_code": "MI",
    "country_id": 107,
    "country_code": "IT",
    "latitude": "45.52848000",
    "longitude": "8.77068000",
    "native": null,
    "timezone": "Europe/Rome",
    "translations": {}
  },
  {
    "id": 59460,
    "name": "Robecco sul Naviglio",
    "state_id": 5633,
    "state_code": "MI",
    "country_id": 107,
    "country_code": "IT",
    "latitude": "45.43662000",
    "longitude": "8.88573000",
    "native": null,
    "timezone": "Europe/Rome",
    "translations": {}
  },
  {
    "id": 59576,
    "name": "Romano Banco",
    "state_id": 5633,
    "state_code": "MI",
    "country_id": 107,
    "country_code": "IT",
    "latitude": "45.42309000",
    "longitude": "9.10707000",
    "native": null,
    "timezone": "Europe/Rome",
    "translations": {}
  },
  {
    "id": 59600,
    "name": "Ronco",
    "state_id": 5633,
    "state_code": "MI",
    "country_id": 107,
    "country_code": "IT",
    "latitude": "45.52668000",
    "longitude": "9.35921000",
    "native": null,
    "timezone": "Europe/Rome",
    "translations": {}
  },
  {
    "id": 59627,
    "name": "Rosate",
    "state_id": 5633,
    "state_code": "MI",
    "country_id": 107,
    "country_code": "IT",
    "latitude": "45.34965000",
    "longitude": "9.01659000",
    "native": null,
    "timezone": "Europe/Rome",
    "translations": {}
  },
  {
    "id": 59687,
    "name": "Rozzano",
    "state_id": 5633,
    "state_code": "MI",
    "country_id": 107,
    "country_code": "IT",
    "latitude": "45.38193000",
    "longitude": "9.15590000",
    "native": null,
    "timezone": "Europe/Rome",
    "translations": {}
  },
  {
    "id": 59847,
    "name": "San Bovio-San Felice",
    "state_id": 5633,
    "state_code": "MI",
    "country_id": 107,
    "country_code": "IT",
    "latitude": "45.46282000",
    "longitude": "9.31263000",
    "native": null,
    "timezone": "Europe/Rome",
    "translations": {}
  },
  {
    "id": 59877,
    "name": "San Colombano al Lambro",
    "state_id": 5633,
    "state_code": "MI",
    "country_id": 107,
    "country_code": "IT",
    "latitude": "45.18322000",
    "longitude": "9.49028000",
    "native": null,
    "timezone": "Europe/Rome",
    "translations": {}
  },
  {
    "id": 59896,
    "name": "San Donato Milanese",
    "state_id": 5633,
    "state_code": "MI",
    "country_id": 107,
    "country_code": "IT",
    "latitude": "45.41047000",
    "longitude": "9.26838000",
    "native": null,
    "timezone": "Europe/Rome",
    "translations": {}
  },
  {
    "id": 59962,
    "name": "San Giorgio Su Legnano",
    "state_id": 5633,
    "state_code": "MI",
    "country_id": 107,
    "country_code": "IT",
    "latitude": "45.57377000",
    "longitude": "8.91374000",
    "native": null,
    "timezone": "Europe/Rome",
    "translations": {}
  },
  {
    "id": 60004,
    "name": "San Giuliano Milanese",
    "state_id": 5633,
    "state_code": "MI",
    "country_id": 107,
    "country_code": "IT",
    "latitude": "45.39402000",
    "longitude": "9.29109000",
    "native": null,
    "timezone": "Europe/Rome",
    "translations": {}
  },
  {
    "id": 60287,
    "name": "San Vittore Olona",
    "state_id": 5633,
    "state_code": "MI",
    "country_id": 107,
    "country_code": "IT",
    "latitude": "45.58577000",
    "longitude": "8.94134000",
    "native": null,
    "timezone": "Europe/Rome",
    "translations": {}
  },
  {
    "id": 60295,
    "name": "San Zenone al Lambro",
    "state_id": 5633,
    "state_code": "MI",
    "country_id": 107,
    "country_code": "IT",
    "latitude": "45.32681000",
    "longitude": "9.35598000",
    "native": null,
    "timezone": "Europe/Rome",
    "translations": {}
  },
  {
    "id": 60319,
    "name": "Sant'Agata Martesana",
    "state_id": 5633,
    "state_code": "MI",
    "country_id": 107,
    "country_code": "IT",
    "latitude": "45.52220000",
    "longitude": "9.38382000",
    "native": null,
    "timezone": "Europe/Rome",
    "translations": {}
  },
  {
    "id": 60419,
    "name": "Santa Corinna",
    "state_id": 5633,
    "state_code": "MI",
    "country_id": 107,
    "country_code": "IT",
    "latitude": "45.34018000",
    "longitude": "9.08878000",
    "native": null,
    "timezone": "Europe/Rome",
    "translations": {}
  },
  {
    "id": 60516,
    "name": "Santo Stefano Ticino",
    "state_id": 5633,
    "state_code": "MI",
    "country_id": 107,
    "country_code": "IT",
    "latitude": "45.48635000",
    "longitude": "8.91582000",
    "native": null,
    "timezone": "Europe/Rome",
    "translations": {}
  },
  {
    "id": 60684,
    "name": "Sedriano",
    "state_id": 5633,
    "state_code": "MI",
    "country_id": 107,
    "country_code": "IT",
    "latitude": "45.49105000",
    "longitude": "8.97161000",
    "native": null,
    "timezone": "Europe/Rome",
    "translations": {}
  },
  {
    "id": 60691,
    "name": "Segrate",
    "state_id": 5633,
    "state_code": "MI",
    "country_id": 107,
    "country_code": "IT",
    "latitude": "45.49185000",
    "longitude": "9.29812000",
    "native": null,
    "timezone": "Europe/Rome",
    "translations": {}
  },
  {
    "id": 60718,
    "name": "Senago",
    "state_id": 5633,
    "state_code": "MI",
    "country_id": 107,
    "country_code": "IT",
    "latitude": "45.57562000",
    "longitude": "9.12620000",
    "native": null,
    "timezone": "Europe/Rome",
    "translations": {}
  },
  {
    "id": 60799,
    "name": "Sesto San Giovanni",
    "state_id": 5633,
    "state_code": "MI",
    "country_id": 107,
    "country_code": "IT",
    "latitude": "45.53329000",
    "longitude": "9.22585000",
    "native": null,
    "timezone": "Europe/Rome",
    "translations": {}
  },
  {
    "id": 60806,
    "name": "Settala",
    "state_id": 5633,
    "state_code": "MI",
    "country_id": 107,
    "country_code": "IT",
    "latitude": "45.45357000",
    "longitude": "9.38715000",
    "native": null,
    "timezone": "Europe/Rome",
    "translations": {}
  },
  {
    "id": 60812,
    "name": "Settimo Milanese",
    "state_id": 5633,
    "state_code": "MI",
    "country_id": 107,
    "country_code": "IT",
    "latitude": "45.47771000",
    "longitude": "9.05574000",
    "native": null,
    "timezone": "Europe/Rome",
    "translations": {}
  },
  {
    "id": 60904,
    "name": "Solaro",
    "state_id": 5633,
    "state_code": "MI",
    "country_id": 107,
    "country_code": "IT",
    "latitude": "44.87990000",
    "longitude": "9.17315000",
    "native": null,
    "timezone": "Europe/Rome",
    "translations": {}
  },
  {
    "id": 61468,
    "name": "Trecella",
    "state_id": 5633,
    "state_code": "MI",
    "country_id": 107,
    "country_code": "IT",
    "latitude": "45.51498000",
    "longitude": "9.47905000",
    "native": null,
    "timezone": "Europe/Rome",
    "translations": {}
  },
  {
    "id": 61510,
    "name": "Trezzano Rosa",
    "state_id": 5633,
    "state_code": "MI",
    "country_id": 107,
    "country_code": "IT",
    "latitude": "45.58228000",
    "longitude": "9.48567000",
    "native": null,
    "timezone": "Europe/Rome",
    "translations": {}
  },
  {
    "id": 61511,
    "name": "Trezzano sul Naviglio",
    "state_id": 5633,
    "state_code": "MI",
    "country_id": 107,
    "country_code": "IT",
    "latitude": "45.42212000",
    "longitude": "9.06342000",
    "native": null,
    "timezone": "Europe/Rome",
    "translations": {}
  },
  {
    "id": 61513,
    "name": "Trezzo sull'Adda",
    "state_id": 5633,
    "state_code": "MI",
    "country_id": 107,
    "country_code": "IT",
    "latitude": "45.60523000",
    "longitude": "9.51417000",
    "native": null,
    "timezone": "Europe/Rome",
    "translations": {}
  },
  {
    "id": 61516,
    "name": "Tribiano",
    "state_id": 5633,
    "state_code": "MI",
    "country_id": 107,
    "country_code": "IT",
    "latitude": "45.41323000",
    "longitude": "9.37693000",
    "native": null,
    "timezone": "Europe/Rome",
    "translations": {}
  },
  {
    "id": 61526,
    "name": "Triginto",
    "state_id": 5633,
    "state_code": "MI",
    "country_id": 107,
    "country_code": "IT",
    "latitude": "45.40223000",
    "longitude": "9.32512000",
    "native": null,
    "timezone": "Europe/Rome",
    "translations": {}
  },
  {
    "id": 61559,
    "name": "Truccazzano",
    "state_id": 5633,
    "state_code": "MI",
    "country_id": 107,
    "country_code": "IT",
    "latitude": "45.48455000",
    "longitude": "9.46950000",
    "native": null,
    "timezone": "Europe/Rome",
    "translations": {}
  },
  {
    "id": 61573,
    "name": "Turbigo",
    "state_id": 5633,
    "state_code": "MI",
    "country_id": 107,
    "country_code": "IT",
    "latitude": "45.53076000",
    "longitude": "8.73671000",
    "native": null,
    "timezone": "Europe/Rome",
    "translations": {}
  },
  {
    "id": 61753,
    "name": "Vanzaghello",
    "state_id": 5633,
    "state_code": "MI",
    "country_id": 107,
    "country_code": "IT",
    "latitude": "45.57964000",
    "longitude": "8.78234000",
    "native": null,
    "timezone": "Europe/Rome",
    "translations": {}
  },
  {
    "id": 61754,
    "name": "Vanzago",
    "state_id": 5633,
    "state_code": "MI",
    "country_id": 107,
    "country_code": "IT",
    "latitude": "45.52566000",
    "longitude": "8.99097000",
    "native": null,
    "timezone": "Europe/Rome",
    "translations": {}
  },
  {
    "id": 61757,
    "name": "Vaprio d'Adda",
    "state_id": 5633,
    "state_code": "MI",
    "country_id": 107,
    "country_code": "IT",
    "latitude": "45.57640000",
    "longitude": "9.52407000",
    "native": null,
    "timezone": "Europe/Rome",
    "translations": {}
  },
  {
    "id": 61851,
    "name": "Vermezzo",
    "state_id": 5633,
    "state_code": "MI",
    "country_id": 107,
    "country_code": "IT",
    "latitude": "45.39627000",
    "longitude": "8.97904000",
    "native": null,
    "timezone": "Europe/Rome",
    "translations": {}
  },
  {
    "id": 61855,
    "name": "Vernate",
    "state_id": 5633,
    "state_code": "MI",
    "country_id": 107,
    "country_code": "IT",
    "latitude": "45.31589000",
    "longitude": "9.06045000",
    "native": null,
    "timezone": "Europe/Rome",
    "translations": {}
  },
  {
    "id": 61948,
    "name": "Vighignolo",
    "state_id": 5633,
    "state_code": "MI",
    "country_id": 107,
    "country_code": "IT",
    "latitude": "45.49542000",
    "longitude": "9.04308000",
    "native": null,
    "timezone": "Europe/Rome",
    "translations": {}
  },
  {
    "id": 61953,
    "name": "Vigliano-Bettolino",
    "state_id": 5633,
    "state_code": "MI",
    "country_id": 107,
    "country_code": "IT",
    "latitude": "45.43272000",
    "longitude": "9.34422000",
    "native": null,
    "timezone": "Europe/Rome",
    "translations": {}
  },
  {
    "id": 61959,
    "name": "Vignate",
    "state_id": 5633,
    "state_code": "MI",
    "country_id": 107,
    "country_code": "IT",
    "latitude": "45.49939000",
    "longitude": "9.37719000",
    "native": null,
    "timezone": "Europe/Rome",
    "translations": {}
  },
  {
    "id": 61995,
    "name": "Villa Cortese",
    "state_id": 5633,
    "state_code": "MI",
    "country_id": 107,
    "country_code": "IT",
    "latitude": "45.56666000",
    "longitude": "8.88712000",
    "native": null,
    "timezone": "Europe/Rome",
    "translations": {}
  },
  {
    "id": 62067,
    "name": "Villaggio Residenziale",
    "state_id": 5633,
    "state_code": "MI",
    "country_id": 107,
    "country_code": "IT",
    "latitude": "45.52826000",
    "longitude": "9.46737000",
    "native": null,
    "timezone": "Europe/Rome",
    "translations": {}
  },
  {
    "id": 62159,
    "name": "Vimodrone",
    "state_id": 5633,
    "state_code": "MI",
    "country_id": 107,
    "country_code": "IT",
    "latitude": "45.51461000",
    "longitude": "9.28772000",
    "native": null,
    "timezone": "Europe/Rome",
    "translations": {}
  },
  {
    "id": 62187,
    "name": "Vittuone",
    "state_id": 5633,
    "state_code": "MI",
    "country_id": 107,
    "country_code": "IT",
    "latitude": "45.48792000",
    "longitude": "8.95141000",
    "native": null,
    "timezone": "Europe/Rome",
    "translations": {}
  },
  {
    "id": 62195,
    "name": "Vizzolo Predabissi",
    "state_id": 5633,
    "state_code": "MI",
    "country_id": 107,
    "country_code": "IT",
    "latitude": "45.35587000",
    "longitude": "9.34815000",
    "native": null,
    "timezone": "Europe/Rome",
    "translations": {}
  },
  {
    "id": 62244,
    "name": "Zelo Surrigone",
    "state_id": 5633,
    "state_code": "MI",
    "country_id": 107,
    "country_code": "IT",
    "latitude": "45.38767000",
    "longitude": "8.98504000",
    "native": null,
    "timezone": "Europe/Rome",
    "translations": {}
  },
  {
    "id": 62260,
    "name": "Zibido San Giacomo",
    "state_id": 5633,
    "state_code": "MI",
    "country_id": 107,
    "country_code": "IT",
    "latitude": "45.36041000",
    "longitude": "9.11119000",
    "native": null,
    "timezone": "Europe/Rome",
    "translations": {}
  }
]