[
  {
    "id": 135696,
    "name": "Avane",
    "state_id": 1685,
    "state_code": "PI",
    "country_id": 107,
    "country_code": "IT",
    "latitude": "43.79049000",
    "longitude": "10.40982000",
    "native": null,
    "timezone": "Europe/Rome",
    "translations": {}
  },
  {
    "id": 136049,
    "name": "Bientina",
    "state_id": 1685,
    "state_code": "PI",
    "country_id": 107,
    "country_code": "IT",
    "latitude": "43.70826000",
    "longitude": "10.62116000",
    "native": null,
    "timezone": "Europe/Rome",
    "translations": {}
  },
  {
    "id": 136437,
    "name": "Buti",
    "state_id": 1685,
    "state_code": "PI",
    "country_id": 107,
    "country_code": "IT",
    "latitude": "43.72857000",
    "longitude": "10.58450000",
    "native": null,
    "timezone": "Europe/Rome",
    "translations": {}
  },
  {
    "id": 136503,
    "name": "Calci",
    "state_id": 1685,
    "state_code": "PI",
    "country_id": 107,
    "country_code": "IT",
    "latitude": "43.72597000",
    "longitude": "10.51791000",
    "native": null,
    "timezone": "Europe/Rome",
    "translations": {}
  },
  {
    "id": 136505,
    "name": "Calcinaia",
    "state_id": 1685,
    "state_code": "PI",
    "country_id": 107,
    "country_code": "IT",
    "latitude": "43.68352000",
    "longitude": "10.61653000",
    "native": null,
    "timezone": "Europe/Rome",
    "translations": {}
  },
  {
    "id": 136626,
    "name": "Campo",
    "state_id": 1685,
    "state_code": "PI",
    "country_id": 107,
    "country_code": "IT",
    "latitude": "43.70811000",
    "longitude": "10.47703000",
    "native": null,
    "timezone": "Europe/Rome",
    "translations": {}
  },
  {
    "id": 136761,
    "name": "Capannoli",
    "state_id": 1685,
    "state_code": "PI",
    "country_id": 107,
    "country_code": "IT",
    "latitude": "43.58856000",
    "longitude": "10.67328000",
    "native": null,
    "timezone": "Europe/Rome",
    "translations": {}
  },
  {
    "id": 136977,
    "name": "Casale Marittimo",
    "state_id": 1685,
    "state_code": "PI",
    "country_id": 107,
    "country_code": "IT",
    "latitude": "43.29727000",
    "longitude": "10.61658000",
    "native": null,
    "timezone": "Europe/Rome",
    "translations": {}
  },
  {
    "id": 137047,
    "name": "Casciana Terme",
    "state_id": 1685,
    "state_code": "PI",
    "country_id": 107,
    "country_code": "IT",
    "latitude": "43.52668000",
    "longitude": "10.61812000",
    "native": null,
    "timezone": "Europe/Rome",
    "translations": {}
  },
  {
    "id": 137048,
    "name": "Cascina",
    "state_id": 1685,
    "state_code": "PI",
    "country_id": 107,
    "country_code": "IT",
    "latitude": "43.67557000",
    "longitude": "10.55494000",
    "native": null,
    "timezone": "Europe/Rome",
    "translations": {}
  },
  {
    "id": 137051,
    "name": "Cascine-La Croce",
    "state_id": 1685,
    "state_code": "PI",
    "country_id": 107,
    "country_code": "IT",
    "latitude": "43.72885000",
    "longitude": "10.61471000",
    "native": null,
    "timezone": "Europe/Rome",
    "translations": {}
  },
  {
    "id": 137200,
    "name": "Castelfranco di Sotto",
    "state_id": 1685,
    "state_code": "PI",
    "country_id": 107,
    "country_code": "IT",
    "latitude": "43.70368000",
    "longitude": "10.74630000",
    "native": null,
    "timezone": "Europe/Rome",
    "translations": {}
  },
  {
    "id": 137244,
    "name": "Castellina Marittima",
    "state_id": 1685,
    "state_code": "PI",
    "country_id": 107,
    "country_code": "IT",
    "latitude": "43.41301000",
    "longitude": "10.57594000",
    "native": null,
    "timezone": "Europe/Rome",
    "translations": {}
  },
  {
    "id": 137304,
    "name": "Castelnuovo di Val di Cecina",
    "state_id": 1685,
    "state_code": "PI",
    "country_id": 107,
    "country_code": "IT",
    "latitude": "43.21148000",
    "longitude": "10.90413000",
    "native": null,
    "timezone": "Europe/Rome",
    "translations": {}
  },
  {
    "id": 137486,
    "name": "Cenaia",
    "state_id": 1685,
    "state_code": "PI",
    "country_id": 107,
    "country_code": "IT",
    "latitude": "43.60637000",
    "longitude": "10.53571000",
    "native": null,
    "timezone": "Europe/Rome",
    "translations": {}
  },
  {
    "id": 137646,
    "name": "Chianni",
    "state_id": 1685,
    "state_code": "PI",
    "country_id": 107,
    "country_code": "IT",
    "latitude": "43.48153000",
    "longitude": "10.64133000",
    "native": null,
    "timezone": "Europe/Rome",
    "translations": {}
  },
  {
    "id": 137671,
    "name": "Chiesino-Collodi",
    "state_id": 1685,
    "state_code": "PI",
    "country_id": 107,
    "country_code": "IT",
    "latitude": "43.67954000",
    "longitude": "10.61106000",
    "native": null,
    "timezone": "Europe/Rome",
    "translations": {}
  },
  {
    "id": 138146,
    "name": "Crespina",
    "state_id": 1685,
    "state_code": "PI",
    "country_id": 107,
    "country_code": "IT",
    "latitude": "43.57304000",
    "longitude": "10.56431000",
    "native": null,
    "timezone": "Europe/Rome",
    "translations": {}
  },
  {
    "id": 138456,
    "name": "Fauglia",
    "state_id": 1685,
    "state_code": "PI",
    "country_id": 107,
    "country_code": "IT",
    "latitude": "43.57110000",
    "longitude": "10.51383000",
    "native": null,
    "timezone": "Europe/Rome",
    "translations": {}
  },
  {
    "id": 138528,
    "name": "Filettole",
    "state_id": 1685,
    "state_code": "PI",
    "country_id": 107,
    "country_code": "IT",
    "latitude": "43.81307000",
    "longitude": "10.40239000",
    "native": null,
    "timezone": "Europe/Rome",
    "translations": {}
  },
  {
    "id": 138622,
    "name": "Forcoli",
    "state_id": 1685,
    "state_code": "PI",
    "country_id": 107,
    "country_code": "IT",
    "latitude": "43.60374000",
    "longitude": "10.70514000",
    "native": null,
    "timezone": "Europe/Rome",
    "translations": {}
  },
  {
    "id": 138646,
    "name": "Fornacette",
    "state_id": 1685,
    "state_code": "PI",
    "country_id": 107,
    "country_code": "IT",
    "latitude": "43.67023000",
    "longitude": "10.58512000",
    "native": null,
    "timezone": "Europe/Rome",
    "translations": {}
  },
  {
    "id": 138768,
    "name": "Gabella",
    "state_id": 1685,
    "state_code": "PI",
    "country_id": 107,
    "country_code": "IT",
    "latitude": "43.72360000",
    "longitude": "10.49726000",
    "native": null,
    "timezone": "Europe/Rome",
    "translations": {}
  },
  {
    "id": 138890,
    "name": "Gello",
    "state_id": 1685,
    "state_code": "PI",
    "country_id": 107,
    "country_code": "IT",
    "latitude": "43.75402000",
    "longitude": "10.42386000",
    "native": null,
    "timezone": "Europe/Rome",
    "translations": {}
  },
  {
    "id": 139166,
    "name": "Guardistallo",
    "state_id": 1685,
    "state_code": "PI",
    "country_id": 107,
    "country_code": "IT",
    "latitude": "43.31408000",
    "longitude": "10.62944000",
    "native": null,
    "timezone": "Europe/Rome",
    "translations": {}
  },
  {
    "id": 139193,
    "name": "Il Romito",
    "state_id": 1685,
    "state_code": "PI",
    "country_id": 107,
    "country_code": "IT",
    "latitude": "43.64908000",
    "longitude": "10.64538000",
    "native": null,
    "timezone": "Europe/Rome",
    "translations": {}
  },
  {
    "id": 139301,
    "name": "La Rotta",
    "state_id": 1685,
    "state_code": "PI",
    "country_id": 107,
    "country_code": "IT",
    "latitude": "43.65850000",
    "longitude": "10.67837000",
    "native": null,
    "timezone": "Europe/Rome",
    "translations": {}
  },
  {
    "id": 139337,
    "name": "Lajatico",
    "state_id": 1685,
    "state_code": "PI",
    "country_id": 107,
    "country_code": "IT",
    "latitude": "43.47457000",
    "longitude": "10.72844000",
    "native": null,
    "timezone": "Europe/Rome",
    "translations": {}
  },
  {
    "id": 139374,
    "name": "Lari",
    "state_id": 1685,
    "state_code": "PI",
    "country_id": 107,
    "country_code": "IT",
    "latitude": "43.56606000",
    "longitude": "10.59211000",
    "native": null,
    "timezone": "Europe/Rome",
    "translations": {}
  },
  {
    "id": 139424,
    "name": "Le Casine-Perignano-Spinelli",
    "state_id": 1685,
    "state_code": "PI",
    "country_id": 107,
    "country_code": "IT",
    "latitude": "43.60000000",
    "longitude": "10.58333000",
    "native": null,
    "timezone": "Europe/Rome",
    "translations": {}
  },
  {
    "id": 139607,
    "name": "Lorenzana",
    "state_id": 1685,
    "state_code": "PI",
    "country_id": 107,
    "country_code": "IT",
    "latitude": "43.53533000",
    "longitude": "10.53477000",
    "native": null,
    "timezone": "Europe/Rome",
    "translations": {}
  },
  {
    "id": 139711,
    "name": "Madonna dell'Acqua",
    "state_id": 1685,
    "state_code": "PI",
    "country_id": 107,
    "country_code": "IT",
    "latitude": "43.74264000",
    "longitude": "10.37513000",
    "native": null,
    "timezone": "Europe/Rome",
    "translations": {}
  },
  {
    "id": 139891,
    "name": "Marina di Pisa",
    "state_id": 1685,
    "state_code": "PI",
    "country_id": 107,
    "country_code": "IT",
    "latitude": "43.66667000",
    "longitude": "10.26667000",
    "native": null,
    "timezone": "Europe/Rome",
    "translations": {}
  },
  {
    "id": 139892,
    "name": "Marina di Pisa-Tirrenia-Calambrone",
    "state_id": 1685,
    "state_code": "PI",
    "country_id": 107,
    "country_code": "IT",
    "latitude": "43.62719000",
    "longitude": "10.29204000",
    "native": null,
    "timezone": "Europe/Rome",
    "translations": {}
  },
  {
    "id": 139929,
    "name": "Marti",
    "state_id": 1685,
    "state_code": "PI",
    "country_id": 107,
    "country_code": "IT",
    "latitude": "43.65453000",
    "longitude": "10.74058000",
    "native": null,
    "timezone": "Europe/Rome",
    "translations": {}
  },
  {
    "id": 140102,
    "name": "Metato",
    "state_id": 1685,
    "state_code": "PI",
    "country_id": 107,
    "country_code": "IT",
    "latitude": "43.77352000",
    "longitude": "10.37106000",
    "native": null,
    "timezone": "Europe/Rome",
    "translations": {}
  },
  {
    "id": 140134,
    "name": "Migliarino",
    "state_id": 1685,
    "state_code": "PI",
    "country_id": 107,
    "country_code": "IT",
    "latitude": "43.76589000",
    "longitude": "10.33951000",
    "native": null,
    "timezone": "Europe/Rome",
    "translations": {}
  },
  {
    "id": 140399,
    "name": "Montecalvoli",
    "state_id": 1685,
    "state_code": "PI",
    "country_id": 107,
    "country_code": "IT",
    "latitude": "43.68576000",
    "longitude": "10.66508000",
    "native": null,
    "timezone": "Europe/Rome",
    "translations": {}
  },
  {
    "id": 140405,
    "name": "Montecatini Val di Cecina",
    "state_id": 1685,
    "state_code": "PI",
    "country_id": 107,
    "country_code": "IT",
    "latitude": "43.39234000",
    "longitude": "10.74904000",
    "native": null,
    "timezone": "Europe/Rome",
    "translations": {}
  },
  {
    "id": 140537,
    "name": "Montescudaio",
    "state_id": 1685,
    "state_code": "PI",
    "country_id": 107,
    "country_code": "IT",
    "latitude": "43.32603000",
    "longitude": "10.62602000",
    "native": null,
    "timezone": "Europe/Rome",
    "translations": {}
  },
  {
    "id": 140550,
    "name": "Monteverdi Marittimo",
    "state_id": 1685,
    "state_code": "PI",
    "country_id": 107,
    "country_code": "IT",
    "latitude": "43.17787000",
    "longitude": "10.71133000",
    "native": null,
    "timezone": "Europe/Rome",
    "translations": {}
  },
  {
    "id": 140580,
    "name": "Montopoli",
    "state_id": 1685,
    "state_code": "PI",
    "country_id": 107,
    "country_code": "IT",
    "latitude": "43.67354000",
    "longitude": "10.74951000",
    "native": null,
    "timezone": "Europe/Rome",
    "translations": {}
  },
  {
    "id": 140943,
    "name": "Orciano Pisano",
    "state_id": 1685,
    "state_code": "PI",
    "country_id": 107,
    "country_code": "IT",
    "latitude": "43.49444000",
    "longitude": "10.51151000",
    "native": null,
    "timezone": "Europe/Rome",
    "translations": {}
  },
  {
    "id": 140996,
    "name": "Orzignano",
    "state_id": 1685,
    "state_code": "PI",
    "country_id": 107,
    "country_code": "IT",
    "latitude": "43.77408000",
    "longitude": "10.42382000",
    "native": null,
    "timezone": "Europe/Rome",
    "translations": {}
  },
  {
    "id": 58222,
    "name": "Palaia",
    "state_id": 1685,
    "state_code": "PI",
    "country_id": 107,
    "country_code": "IT",
    "latitude": "43.60567000",
    "longitude": "10.77020000",
    "native": null,
    "timezone": "Europe/Rome",
    "translations": {}
  },
  {
    "id": 58367,
    "name": "Peccioli",
    "state_id": 1685,
    "state_code": "PI",
    "country_id": 107,
    "country_code": "IT",
    "latitude": "43.54963000",
    "longitude": "10.71720000",
    "native": null,
    "timezone": "Europe/Rome",
    "translations": {}
  },
  {
    "id": 58702,
    "name": "Pisa",
    "state_id": 1685,
    "state_code": "PI",
    "country_id": 107,
    "country_code": "IT",
    "latitude": "43.70853000",
    "longitude": "10.40360000",
    "native": null,
    "timezone": "Europe/Rome",
    "translations": {}
  },
  {
    "id": 58808,
    "name": "Pomarance",
    "state_id": 1685,
    "state_code": "PI",
    "country_id": 107,
    "country_code": "IT",
    "latitude": "43.29592000",
    "longitude": "10.87223000",
    "native": null,
    "timezone": "Europe/Rome",
    "translations": {}
  },
  {
    "id": 58825,
    "name": "Ponsacco",
    "state_id": 1685,
    "state_code": "PI",
    "country_id": 107,
    "country_code": "IT",
    "latitude": "43.62307000",
    "longitude": "10.62661000",
    "native": null,
    "timezone": "Europe/Rome",
    "translations": {}
  },
  {
    "id": 58830,
    "name": "Pontasserchio",
    "state_id": 1685,
    "state_code": "PI",
    "country_id": 107,
    "country_code": "IT",
    "latitude": "43.77953000",
    "longitude": "10.41673000",
    "native": null,
    "timezone": "Europe/Rome",
    "translations": {}
  },
  {
    "id": 58869,
    "name": "Pontedera",
    "state_id": 1685,
    "state_code": "PI",
    "country_id": 107,
    "country_code": "IT",
    "latitude": "43.66141000",
    "longitude": "10.63067000",
    "native": null,
    "timezone": "Europe/Rome",
    "translations": {}
  },
  {
    "id": 59103,
    "name": "Province of Pisa",
    "state_id": 1685,
    "state_code": "PI",
    "country_id": 107,
    "country_code": "IT",
    "latitude": "43.41667000",
    "longitude": "10.71667000",
    "native": null,
    "timezone": "Europe/Rome",
    "translations": {}
  },
  {
    "id": 59407,
    "name": "Riparbella",
    "state_id": 1685,
    "state_code": "PI",
    "country_id": 107,
    "country_code": "IT",
    "latitude": "43.36417000",
    "longitude": "10.59799000",
    "native": null,
    "timezone": "Europe/Rome",
    "translations": {}
  },
  {
    "id": 59770,
    "name": "Saline",
    "state_id": 1685,
    "state_code": "PI",
    "country_id": 107,
    "country_code": "IT",
    "latitude": "43.36185000",
    "longitude": "10.81354000",
    "native": null,
    "timezone": "Europe/Rome",
    "translations": {}
  },
  {
    "id": 59895,
    "name": "San Donato",
    "state_id": 1685,
    "state_code": "PI",
    "country_id": 107,
    "country_code": "IT",
    "latitude": "43.70298000",
    "longitude": "10.78754000",
    "native": null,
    "timezone": "Europe/Rome",
    "translations": {}
  },
  {
    "id": 60005,
    "name": "San Giuliano Terme",
    "state_id": 1685,
    "state_code": "PI",
    "country_id": 107,
    "country_code": "IT",
    "latitude": "43.76372000",
    "longitude": "10.43856000",
    "native": null,
    "timezone": "Europe/Rome",
    "translations": {}
  },
  {
    "id": 60127,
    "name": "San Miniato",
    "state_id": 1685,
    "state_code": "PI",
    "country_id": 107,
    "country_code": "IT",
    "latitude": "43.67954000",
    "longitude": "10.84975000",
    "native": null,
    "timezone": "Europe/Rome",
    "translations": {}
  },
  {
    "id": 60128,
    "name": "San Miniato Basso",
    "state_id": 1685,
    "state_code": "PI",
    "country_id": 107,
    "country_code": "IT",
    "latitude": "43.69332000",
    "longitude": "10.84119000",
    "native": null,
    "timezone": "Europe/Rome",
    "translations": {}
  },
  {
    "id": 60166,
    "name": "San Pierino",
    "state_id": 1685,
    "state_code": "PI",
    "country_id": 107,
    "country_code": "IT",
    "latitude": "43.71423000",
    "longitude": "10.81374000",
    "native": null,
    "timezone": "Europe/Rome",
    "translations": {}
  },
  {
    "id": 60175,
    "name": "San Pietro Belvedere",
    "state_id": 1685,
    "state_code": "PI",
    "country_id": 107,
    "country_code": "IT",
    "latitude": "43.57011000",
    "longitude": "10.66604000",
    "native": null,
    "timezone": "Europe/Rome",
    "translations": {}
  },
  {
    "id": 60227,
    "name": "San Romano",
    "state_id": 1685,
    "state_code": "PI",
    "country_id": 107,
    "country_code": "IT",
    "latitude": "43.68922000",
    "longitude": "10.76900000",
    "native": null,
    "timezone": "Europe/Rome",
    "translations": {}
  },
  {
    "id": 60430,
    "name": "Santa Croce sull'Arno",
    "state_id": 1685,
    "state_code": "PI",
    "country_id": 107,
    "country_code": "IT",
    "latitude": "43.71709000",
    "longitude": "10.77242000",
    "native": null,
    "timezone": "Europe/Rome",
    "translations": {}
  },
  {
    "id": 60443,
    "name": "Santa Luce",
    "state_id": 1685,
    "state_code": "PI",
    "country_id": 107,
    "country_code": "IT",
    "latitude": "43.47143000",
    "longitude": "10.56269000",
    "native": null,
    "timezone": "Europe/Rome",
    "translations": {}
  },
  {
    "id": 60470,
    "name": "Santa Maria a Monte",
    "state_id": 1685,
    "state_code": "PI",
    "country_id": 107,
    "country_code": "IT",
    "latitude": "43.70793000",
    "longitude": "10.69196000",
    "native": null,
    "timezone": "Europe/Rome",
    "translations": {}
  },
  {
    "id": 60709,
    "name": "Selvatelle",
    "state_id": 1685,
    "state_code": "PI",
    "country_id": 107,
    "country_code": "IT",
    "latitude": "43.56281000",
    "longitude": "10.69091000",
    "native": null,
    "timezone": "Europe/Rome",
    "translations": {}
  },
  {
    "id": 61251,
    "name": "Terricciola",
    "state_id": 1685,
    "state_code": "PI",
    "country_id": 107,
    "country_code": "IT",
    "latitude": "43.52505000",
    "longitude": "10.67961000",
    "native": null,
    "timezone": "Europe/Rome",
    "translations": {}
  },
  {
    "id": 61472,
    "name": "Treggiaia",
    "state_id": 1685,
    "state_code": "PI",
    "country_id": 107,
    "country_code": "IT",
    "latitude": "43.62305000",
    "longitude": "10.67325000",
    "native": null,
    "timezone": "Europe/Rome",
    "translations": {}
  },
  {
    "id": 61594,
    "name": "Uliveto Terme",
    "state_id": 1685,
    "state_code": "PI",
    "country_id": 107,
    "country_code": "IT",
    "latitude": "43.69609000",
    "longitude": "10.51728000",
    "native": null,
    "timezone": "Europe/Rome",
    "translations": {}
  },
  {
    "id": 61646,
    "name": "Val di Cava",
    "state_id": 1685,
    "state_code": "PI",
    "country_id": 107,
    "country_code": "IT",
    "latitude": "43.63832000",
    "longitude": "10.64896000",
    "native": null,
    "timezone": "Europe/Rome",
    "translations": {}
  },
  {
    "id": 61787,
    "name": "Vecchiano-Nodica",
    "state_id": 1685,
    "state_code": "PI",
    "country_id": 107,
    "country_code": "IT",
    "latitude": "43.78334000",
    "longitude": "10.38440000",
    "native": null,
    "timezone": "Europe/Rome",
    "translations": {}
  },
  {
    "id": 61910,
    "name": "Vicarello",
    "state_id": 1685,
    "state_code": "PI",
    "country_id": 107,
    "country_code": "IT",
    "latitude": "43.61238000",
    "longitude": "10.46515000",
    "native": null,
    "timezone": "Europe/Rome",
    "translations": {}
  },
  {
    "id": 61925,
    "name": "Vicopisano",
    "state_id": 1685,
    "state_code": "PI",
    "country_id": 107,
    "country_code": "IT",
    "latitude": "43.69305000",
    "longitude": "10.58359000",
    "native": null,
    "timezone": "Europe/Rome",
    "translations": {}
  },
  {
    "id": 62218,
    "name": "Volterra",
    "state_id": 1685,
    "state_code": "PI",
    "country_id": 107,
    "country_code": "IT",
    "latitude": "43.40251000",
    "longitude": "10.86152000",
    "native": null,
    "timezone": "Europe/Rome",
    "translations": {}
  }
]