[
  {
    "id": 135685,
    "name": "Augusta",
    "state_id": 1667,
    "state_code": "SR",
    "country_id": 107,
    "country_code": "IT",
    "latitude": "37.24065000",
    "longitude": "15.22121000",
    "native": null,
    "timezone": "Europe/Rome",
    "translations": {}
  },
  {
    "id": 135713,
    "name": "Avola",
    "state_id": 1667,
    "state_code": "SR",
    "country_id": 107,
    "country_code": "IT",
    "latitude": "36.90840000",
    "longitude": "15.13937000",
    "native": null,
    "timezone": "Europe/Rome",
    "translations": {}
  },
  {
    "id": 135960,
    "name": "Belvedere",
    "state_id": 1667,
    "state_code": "SR",
    "country_id": 107,
    "country_code": "IT",
    "latitude": "37.08839000",
    "longitude": "15.21314000",
    "native": null,
    "timezone": "Europe/Rome",
    "translations": {}
  },
  {
    "id": 136361,
    "name": "Brucoli",
    "state_id": 1667,
    "state_code": "SR",
    "country_id": 107,
    "country_code": "IT",
    "latitude": "37.28191000",
    "longitude": "15.18836000",
    "native": null,
    "timezone": "Europe/Rome",
    "translations": {}
  },
  {
    "id": 136384,
    "name": "Buccheri",
    "state_id": 1667,
    "state_code": "SR",
    "country_id": 107,
    "country_code": "IT",
    "latitude": "37.12494000",
    "longitude": "14.85222000",
    "native": null,
    "timezone": "Europe/Rome",
    "translations": {}
  },
  {
    "id": 136423,
    "name": "Buscemi",
    "state_id": 1667,
    "state_code": "SR",
    "country_id": 107,
    "country_code": "IT",
    "latitude": "37.08604000",
    "longitude": "14.88499000",
    "native": null,
    "timezone": "Europe/Rome",
    "translations": {}
  },
  {
    "id": 136711,
    "name": "Canicattini Bagni",
    "state_id": 1667,
    "state_code": "SR",
    "country_id": 107,
    "country_code": "IT",
    "latitude": "37.03171000",
    "longitude": "15.06388000",
    "native": null,
    "timezone": "Europe/Rome",
    "translations": {}
  },
  {
    "id": 136886,
    "name": "Carlentini",
    "state_id": 1667,
    "state_code": "SR",
    "country_id": 107,
    "country_code": "IT",
    "latitude": "37.28071000",
    "longitude": "15.01020000",
    "native": null,
    "timezone": "Europe/Rome",
    "translations": {}
  },
  {
    "id": 136931,
    "name": "Carrozziere",
    "state_id": 1667,
    "state_code": "SR",
    "country_id": 107,
    "country_code": "IT",
    "latitude": "37.03760000",
    "longitude": "15.27195000",
    "native": null,
    "timezone": "Europe/Rome",
    "translations": {}
  },
  {
    "id": 137102,
    "name": "Cassaro",
    "state_id": 1667,
    "state_code": "SR",
    "country_id": 107,
    "country_code": "IT",
    "latitude": "37.10571000",
    "longitude": "14.94697000",
    "native": null,
    "timezone": "Europe/Rome",
    "translations": {}
  },
  {
    "id": 137103,
    "name": "Cassibile",
    "state_id": 1667,
    "state_code": "SR",
    "country_id": 107,
    "country_code": "IT",
    "latitude": "36.97862000",
    "longitude": "15.20061000",
    "native": null,
    "timezone": "Europe/Rome",
    "translations": {}
  },
  {
    "id": 137771,
    "name": "Città Giardino",
    "state_id": 1667,
    "state_code": "SR",
    "country_id": 107,
    "country_code": "IT",
    "latitude": "37.10444000",
    "longitude": "15.21172000",
    "native": null,
    "timezone": "Europe/Rome",
    "translations": {}
  },
  {
    "id": 138481,
    "name": "Ferla",
    "state_id": 1667,
    "state_code": "SR",
    "country_id": 107,
    "country_code": "IT",
    "latitude": "37.11978000",
    "longitude": "14.93881000",
    "native": null,
    "timezone": "Europe/Rome",
    "translations": {}
  },
  {
    "id": 138565,
    "name": "Floridia",
    "state_id": 1667,
    "state_code": "SR",
    "country_id": 107,
    "country_code": "IT",
    "latitude": "37.08343000",
    "longitude": "15.15332000",
    "native": null,
    "timezone": "Europe/Rome",
    "translations": {}
  },
  {
    "id": 138703,
    "name": "Francofonte",
    "state_id": 1667,
    "state_code": "SR",
    "country_id": 107,
    "country_code": "IT",
    "latitude": "37.22477000",
    "longitude": "14.87488000",
    "native": null,
    "timezone": "Europe/Rome",
    "translations": {}
  },
  {
    "id": 139454,
    "name": "Lentini",
    "state_id": 1667,
    "state_code": "SR",
    "country_id": 107,
    "country_code": "IT",
    "latitude": "37.28556000",
    "longitude": "14.99737000",
    "native": null,
    "timezone": "Europe/Rome",
    "translations": {}
  },
  {
    "id": 140047,
    "name": "Melilli",
    "state_id": 1667,
    "state_code": "SR",
    "country_id": 107,
    "country_code": "IT",
    "latitude": "37.17821000",
    "longitude": "15.13020000",
    "native": null,
    "timezone": "Europe/Rome",
    "translations": {}
  },
  {
    "id": 140812,
    "name": "Noto",
    "state_id": 1667,
    "state_code": "SR",
    "country_id": 107,
    "country_code": "IT",
    "latitude": "36.89244000",
    "longitude": "15.06977000",
    "native": null,
    "timezone": "Europe/Rome",
    "translations": {}
  },
  {
    "id": 141071,
    "name": "Pachino",
    "state_id": 1667,
    "state_code": "SR",
    "country_id": 107,
    "country_code": "IT",
    "latitude": "36.71522000",
    "longitude": "15.09019000",
    "native": null,
    "timezone": "Europe/Rome",
    "translations": {}
  },
  {
    "id": 58233,
    "name": "Palazzolo Acreide",
    "state_id": 1667,
    "state_code": "SR",
    "country_id": 107,
    "country_code": "IT",
    "latitude": "37.06261000",
    "longitude": "14.90593000",
    "native": null,
    "timezone": "Europe/Rome",
    "translations": {}
  },
  {
    "id": 58373,
    "name": "Pedagaggi",
    "state_id": 1667,
    "state_code": "SR",
    "country_id": 107,
    "country_code": "IT",
    "latitude": "37.19182000",
    "longitude": "14.93654000",
    "native": null,
    "timezone": "Europe/Rome",
    "translations": {}
  },
  {
    "id": 58948,
    "name": "Portopalo di Capo Passero",
    "state_id": 1667,
    "state_code": "SR",
    "country_id": 107,
    "country_code": "IT",
    "latitude": "36.68219000",
    "longitude": "15.13378000",
    "native": null,
    "timezone": "Europe/Rome",
    "translations": {}
  },
  {
    "id": 59081,
    "name": "Priolo Gargallo",
    "state_id": 1667,
    "state_code": "SR",
    "country_id": 107,
    "country_code": "IT",
    "latitude": "37.15512000",
    "longitude": "15.18248000",
    "native": null,
    "timezone": "Europe/Rome",
    "translations": {}
  },
  {
    "id": 59643,
    "name": "Rosolini",
    "state_id": 1667,
    "state_code": "SR",
    "country_id": 107,
    "country_code": "IT",
    "latitude": "36.82145000",
    "longitude": "14.95132000",
    "native": null,
    "timezone": "Europe/Rome",
    "translations": {}
  },
  {
    "id": 60871,
    "name": "Siracusa",
    "state_id": 1667,
    "state_code": "SR",
    "country_id": 107,
    "country_code": "IT",
    "latitude": "37.07542000",
    "longitude": "15.28664000",
    "native": null,
    "timezone": "Europe/Rome",
    "translations": {}
  },
  {
    "id": 60903,
    "name": "Solarino",
    "state_id": 1667,
    "state_code": "SR",
    "country_id": 107,
    "country_code": "IT",
    "latitude": "37.10136000",
    "longitude": "15.11988000",
    "native": null,
    "timezone": "Europe/Rome",
    "translations": {}
  },
  {
    "id": 60968,
    "name": "Sortino",
    "state_id": 1667,
    "state_code": "SR",
    "country_id": 107,
    "country_code": "IT",
    "latitude": "37.15881000",
    "longitude": "15.02998000",
    "native": null,
    "timezone": "Europe/Rome",
    "translations": {}
  },
  {
    "id": 62137,
    "name": "Villasmundo",
    "state_id": 1667,
    "state_code": "SR",
    "country_id": 107,
    "country_code": "IT",
    "latitude": "37.25132000",
    "longitude": "15.09087000",
    "native": null,
    "timezone": "Europe/Rome",
    "translations": {}
  }
]