[
  {
    "id": 135389,
    "name": "Alcamo",
    "state_id": 1733,
    "state_code": "TP",
    "country_id": 107,
    "country_code": "IT",
    "latitude": "37.97790000",
    "longitude": "12.96473000",
    "native": null,
    "timezone": "Europe/Rome",
    "translations": {}
  },
  {
    "id": 136425,
    "name": "Buseto Palizzolo",
    "state_id": 1733,
    "state_code": "TP",
    "country_id": 107,
    "country_code": "IT",
    "latitude": "38.00339000",
    "longitude": "12.70911000",
    "native": null,
    "timezone": "Europe/Rome",
    "translations": {}
  },
  {
    "id": 136497,
    "name": "Calatafimi",
    "state_id": 1733,
    "state_code": "TP",
    "country_id": 107,
    "country_code": "IT",
    "latitude": "37.91440000",
    "longitude": "12.86364000",
    "native": null,
    "timezone": "Europe/Rome",
    "translations": {}
  },
  {
    "id": 136640,
    "name": "Campobello di Mazara",
    "state_id": 1733,
    "state_code": "TP",
    "country_id": 107,
    "country_code": "IT",
    "latitude": "37.63464000",
    "longitude": "12.74946000",
    "native": null,
    "timezone": "Europe/Rome",
    "translations": {}
  },
  {
    "id": 136950,
    "name": "Casa Santa",
    "state_id": 1733,
    "state_code": "TP",
    "country_id": 107,
    "country_code": "IT",
    "latitude": "38.02514000",
    "longitude": "12.54840000",
    "native": null,
    "timezone": "Europe/Rome",
    "translations": {}
  },
  {
    "id": 137212,
    "name": "Castellammare del Golfo",
    "state_id": 1733,
    "state_code": "TP",
    "country_id": 107,
    "country_code": "IT",
    "latitude": "38.02653000",
    "longitude": "12.88183000",
    "native": null,
    "timezone": "Europe/Rome",
    "translations": {}
  },
  {
    "id": 137268,
    "name": "Castelluzzo",
    "state_id": 1733,
    "state_code": "TP",
    "country_id": 107,
    "country_code": "IT",
    "latitude": "38.10096000",
    "longitude": "12.73599000",
    "native": null,
    "timezone": "Europe/Rome",
    "translations": {}
  },
  {
    "id": 137329,
    "name": "Castelvetrano",
    "state_id": 1733,
    "state_code": "TP",
    "country_id": 107,
    "country_code": "IT",
    "latitude": "37.68081000",
    "longitude": "12.79194000",
    "native": null,
    "timezone": "Europe/Rome",
    "translations": {}
  },
  {
    "id": 137705,
    "name": "Ciavolo",
    "state_id": 1733,
    "state_code": "TP",
    "country_id": 107,
    "country_code": "IT",
    "latitude": "37.77943000",
    "longitude": "12.53774000",
    "native": null,
    "timezone": "Europe/Rome",
    "translations": {}
  },
  {
    "id": 138216,
    "name": "Custonaci",
    "state_id": 1733,
    "state_code": "TP",
    "country_id": 107,
    "country_code": "IT",
    "latitude": "38.07931000",
    "longitude": "12.68571000",
    "native": null,
    "timezone": "Europe/Rome",
    "translations": {}
  },
  {
    "id": 138374,
    "name": "Erice",
    "state_id": 1733,
    "state_code": "TP",
    "country_id": 107,
    "country_code": "IT",
    "latitude": "38.03785000",
    "longitude": "12.58778000",
    "native": null,
    "timezone": "Europe/Rome",
    "translations": {}
  },
  {
    "id": 138462,
    "name": "Favignana",
    "state_id": 1733,
    "state_code": "TP",
    "country_id": 107,
    "country_code": "IT",
    "latitude": "37.92951000",
    "longitude": "12.32958000",
    "native": null,
    "timezone": "Europe/Rome",
    "translations": {}
  },
  {
    "id": 138748,
    "name": "Fulgatore-Torretta",
    "state_id": 1733,
    "state_code": "TP",
    "country_id": 107,
    "country_code": "IT",
    "latitude": "37.94977000",
    "longitude": "12.69303000",
    "native": null,
    "timezone": "Europe/Rome",
    "translations": {}
  },
  {
    "id": 139284,
    "name": "Kamma",
    "state_id": 1733,
    "state_code": "TP",
    "country_id": 107,
    "country_code": "IT",
    "latitude": "36.79701000",
    "longitude": "12.03617000",
    "native": null,
    "timezone": "Europe/Rome",
    "translations": {}
  },
  {
    "id": 139833,
    "name": "Marausa",
    "state_id": 1733,
    "state_code": "TP",
    "country_id": 107,
    "country_code": "IT",
    "latitude": "37.94166000",
    "longitude": "12.50948000",
    "native": null,
    "timezone": "Europe/Rome",
    "translations": {}
  },
  {
    "id": 139898,
    "name": "Marinella",
    "state_id": 1733,
    "state_code": "TP",
    "country_id": 107,
    "country_code": "IT",
    "latitude": "37.59475000",
    "longitude": "12.84434000",
    "native": null,
    "timezone": "Europe/Rome",
    "translations": {}
  },
  {
    "id": 139919,
    "name": "Marsala",
    "state_id": 1733,
    "state_code": "TP",
    "country_id": 107,
    "country_code": "IT",
    "latitude": "37.79920000",
    "longitude": "12.43670000",
    "native": null,
    "timezone": "Europe/Rome",
    "translations": {}
  },
  {
    "id": 140004,
    "name": "Mazara del Vallo",
    "state_id": 1733,
    "state_code": "TP",
    "country_id": 107,
    "country_code": "IT",
    "latitude": "37.65535000",
    "longitude": "12.58986000",
    "native": null,
    "timezone": "Europe/Rome",
    "translations": {}
  },
  {
    "id": 140003,
    "name": "Mazara II",
    "state_id": 1733,
    "state_code": "TP",
    "country_id": 107,
    "country_code": "IT",
    "latitude": "37.68146000",
    "longitude": "12.60074000",
    "native": null,
    "timezone": "Europe/Rome",
    "translations": {}
  },
  {
    "id": 140851,
    "name": "Nuova Gibellina",
    "state_id": 1733,
    "state_code": "TP",
    "country_id": 107,
    "country_code": "IT",
    "latitude": "37.80704000",
    "longitude": "12.86954000",
    "native": null,
    "timezone": "Europe/Rome",
    "translations": {}
  },
  {
    "id": 140852,
    "name": "Nuovo Centro Urbano Poggioreale",
    "state_id": 1733,
    "state_code": "TP",
    "country_id": 107,
    "country_code": "IT",
    "latitude": "37.76404000",
    "longitude": "13.03594000",
    "native": null,
    "timezone": "Europe/Rome",
    "translations": {}
  },
  {
    "id": 141069,
    "name": "Paceco",
    "state_id": 1733,
    "state_code": "TP",
    "country_id": 107,
    "country_code": "IT",
    "latitude": "37.98026000",
    "longitude": "12.55766000",
    "native": null,
    "timezone": "Europe/Rome",
    "translations": {}
  },
  {
    "id": 58284,
    "name": "Pantelleria",
    "state_id": 1733,
    "state_code": "TP",
    "country_id": 107,
    "country_code": "IT",
    "latitude": "36.82836000",
    "longitude": "11.94611000",
    "native": null,
    "timezone": "Europe/Rome",
    "translations": {}
  },
  {
    "id": 58316,
    "name": "Partanna",
    "state_id": 1733,
    "state_code": "TP",
    "country_id": 107,
    "country_code": "IT",
    "latitude": "37.72680000",
    "longitude": "12.88917000",
    "native": null,
    "timezone": "Europe/Rome",
    "translations": {}
  },
  {
    "id": 58487,
    "name": "Petrosino",
    "state_id": 1733,
    "state_code": "TP",
    "country_id": 107,
    "country_code": "IT",
    "latitude": "37.71271000",
    "longitude": "12.49964000",
    "native": null,
    "timezone": "Europe/Rome",
    "translations": {}
  },
  {
    "id": 59381,
    "name": "Rilievo",
    "state_id": 1733,
    "state_code": "TP",
    "country_id": 107,
    "country_code": "IT",
    "latitude": "37.91638000",
    "longitude": "12.54058000",
    "native": null,
    "timezone": "Europe/Rome",
    "translations": {}
  },
  {
    "id": 59747,
    "name": "Salaparuta",
    "state_id": 1733,
    "state_code": "TP",
    "country_id": 107,
    "country_code": "IT",
    "latitude": "37.75694000",
    "longitude": "13.00981000",
    "native": null,
    "timezone": "Europe/Rome",
    "translations": {}
  },
  {
    "id": 59758,
    "name": "Salemi",
    "state_id": 1733,
    "state_code": "TP",
    "country_id": 107,
    "country_code": "IT",
    "latitude": "37.82199000",
    "longitude": "12.80506000",
    "native": null,
    "timezone": "Europe/Rome",
    "translations": {}
  },
  {
    "id": 59873,
    "name": "San Ciro-Ulmi-Filci",
    "state_id": 1733,
    "state_code": "TP",
    "country_id": 107,
    "country_code": "IT",
    "latitude": "37.83328000",
    "longitude": "12.78229000",
    "native": null,
    "timezone": "Europe/Rome",
    "translations": {}
  },
  {
    "id": 60276,
    "name": "San Vito Lo Capo",
    "state_id": 1733,
    "state_code": "TP",
    "country_id": 107,
    "country_code": "IT",
    "latitude": "38.17395000",
    "longitude": "12.73599000",
    "native": null,
    "timezone": "Europe/Rome",
    "translations": {}
  },
  {
    "id": 60487,
    "name": "Santa Ninfa",
    "state_id": 1733,
    "state_code": "TP",
    "country_id": 107,
    "country_code": "IT",
    "latitude": "37.77042000",
    "longitude": "12.87744000",
    "native": null,
    "timezone": "Europe/Rome",
    "translations": {}
  },
  {
    "id": 60564,
    "name": "Sasi",
    "state_id": 1733,
    "state_code": "TP",
    "country_id": 107,
    "country_code": "IT",
    "latitude": "37.90217000",
    "longitude": "12.88788000",
    "native": null,
    "timezone": "Europe/Rome",
    "translations": {}
  },
  {
    "id": 61312,
    "name": "Tonnara di Bonagia",
    "state_id": 1733,
    "state_code": "TP",
    "country_id": 107,
    "country_code": "IT",
    "latitude": "38.06309000",
    "longitude": "12.59434000",
    "native": null,
    "timezone": "Europe/Rome",
    "translations": {}
  },
  {
    "id": 61440,
    "name": "Trapani",
    "state_id": 1733,
    "state_code": "TP",
    "country_id": 107,
    "country_code": "IT",
    "latitude": "37.83333000",
    "longitude": "12.66667000",
    "native": null,
    "timezone": "Europe/Rome",
    "translations": {}
  },
  {
    "id": 61457,
    "name": "Tre Fontane",
    "state_id": 1733,
    "state_code": "TP",
    "country_id": 107,
    "country_code": "IT",
    "latitude": "37.56989000",
    "longitude": "12.72423000",
    "native": null,
    "timezone": "Europe/Rome",
    "translations": {}
  },
  {
    "id": 61535,
    "name": "Triscina",
    "state_id": 1733,
    "state_code": "TP",
    "country_id": 107,
    "country_code": "IT",
    "latitude": "37.58717000",
    "longitude": "12.78912000",
    "native": null,
    "timezone": "Europe/Rome",
    "translations": {}
  },
  {
    "id": 61653,
    "name": "Valderice",
    "state_id": 1733,
    "state_code": "TP",
    "country_id": 107,
    "country_code": "IT",
    "latitude": "38.04005000",
    "longitude": "12.61505000",
    "native": null,
    "timezone": "Europe/Rome",
    "translations": {}
  },
  {
    "id": 62178,
    "name": "Vita",
    "state_id": 1733,
    "state_code": "TP",
    "country_id": 107,
    "country_code": "IT",
    "latitude": "37.86886000",
    "longitude": "12.82755000",
    "native": null,
    "timezone": "Europe/Rome",
    "translations": {}
  }
]