[
  {
    "id": 135341,
    "name": "Alagna Valsesia",
    "state_id": 1785,
    "state_code": "VC",
    "country_id": 107,
    "country_code": "IT",
    "latitude": "45.85182000",
    "longitude": "7.93752000",
    "native": null,
    "timezone": "Europe/Rome",
    "translations": {}
  },
  {
    "id": 135353,
    "name": "Albano Vercellese",
    "state_id": 1785,
    "state_code": "VC",
    "country_id": 107,
    "country_code": "IT",
    "latitude": "45.42616000",
    "longitude": "8.38093000",
    "native": null,
    "timezone": "Europe/Rome",
    "translations": {}
  },
  {
    "id": 135409,
    "name": "Alice Castello",
    "state_id": 1785,
    "state_code": "VC",
    "country_id": 107,
    "country_code": "IT",
    "latitude": "45.36860000",
    "longitude": "8.07320000",
    "native": null,
    "timezone": "Europe/Rome",
    "translations": {}
  },
  {
    "id": 135557,
    "name": "Arborio",
    "state_id": 1785,
    "state_code": "VC",
    "country_id": 107,
    "country_code": "IT",
    "latitude": "45.49586000",
    "longitude": "8.38755000",
    "native": null,
    "timezone": "Europe/Rome",
    "translations": {}
  },
  {
    "id": 135660,
    "name": "Asigliano Vercellese",
    "state_id": 1785,
    "state_code": "VC",
    "country_id": 107,
    "country_code": "IT",
    "latitude": "45.26146000",
    "longitude": "8.40853000",
    "native": null,
    "timezone": "Europe/Rome",
    "translations": {}
  },
  {
    "id": 135793,
    "name": "Balmuccia",
    "state_id": 1785,
    "state_code": "VC",
    "country_id": 107,
    "country_code": "IT",
    "latitude": "45.81878000",
    "longitude": "8.14080000",
    "native": null,
    "timezone": "Europe/Rome",
    "translations": {}
  },
  {
    "id": 135794,
    "name": "Balocco",
    "state_id": 1785,
    "state_code": "VC",
    "country_id": 107,
    "country_code": "IT",
    "latitude": "45.45589000",
    "longitude": "8.28068000",
    "native": null,
    "timezone": "Europe/Rome",
    "translations": {}
  },
  {
    "id": 136035,
    "name": "Bianzè",
    "state_id": 1785,
    "state_code": "VC",
    "country_id": 107,
    "country_code": "IT",
    "latitude": "45.30751000",
    "longitude": "8.12202000",
    "native": null,
    "timezone": "Europe/Rome",
    "translations": {}
  },
  {
    "id": 136089,
    "name": "Boccioleto",
    "state_id": 1785,
    "state_code": "VC",
    "country_id": 107,
    "country_code": "IT",
    "latitude": "45.83047000",
    "longitude": "8.11282000",
    "native": null,
    "timezone": "Europe/Rome",
    "translations": {}
  },
  {
    "id": 136199,
    "name": "Borgo d'Ale",
    "state_id": 1785,
    "state_code": "VC",
    "country_id": 107,
    "country_code": "IT",
    "latitude": "45.34958000",
    "longitude": "8.05198000",
    "native": null,
    "timezone": "Europe/Rome",
    "translations": {}
  },
  {
    "id": 136196,
    "name": "Borgo Vercelli",
    "state_id": 1785,
    "state_code": "VC",
    "country_id": 107,
    "country_code": "IT",
    "latitude": "45.35680000",
    "longitude": "8.46460000",
    "native": null,
    "timezone": "Europe/Rome",
    "translations": {}
  },
  {
    "id": 136218,
    "name": "Borgosesia",
    "state_id": 1785,
    "state_code": "VC",
    "country_id": 107,
    "country_code": "IT",
    "latitude": "45.72045000",
    "longitude": "8.27466000",
    "native": null,
    "timezone": "Europe/Rome",
    "translations": {}
  },
  {
    "id": 136297,
    "name": "Breia",
    "state_id": 1785,
    "state_code": "VC",
    "country_id": 107,
    "country_code": "IT",
    "latitude": "45.76497000",
    "longitude": "8.30552000",
    "native": null,
    "timezone": "Europe/Rome",
    "translations": {}
  },
  {
    "id": 136416,
    "name": "Buronzo",
    "state_id": 1785,
    "state_code": "VC",
    "country_id": 107,
    "country_code": "IT",
    "latitude": "45.48018000",
    "longitude": "8.26628000",
    "native": null,
    "timezone": "Europe/Rome",
    "translations": {}
  },
  {
    "id": 136613,
    "name": "Campertogno",
    "state_id": 1785,
    "state_code": "VC",
    "country_id": 107,
    "country_code": "IT",
    "latitude": "45.79877000",
    "longitude": "8.03212000",
    "native": null,
    "timezone": "Europe/Rome",
    "translations": {}
  },
  {
    "id": 136856,
    "name": "Carcoforo",
    "state_id": 1785,
    "state_code": "VC",
    "country_id": 107,
    "country_code": "IT",
    "latitude": "45.90858000",
    "longitude": "8.04967000",
    "native": null,
    "timezone": "Europe/Rome",
    "translations": {}
  },
  {
    "id": 136869,
    "name": "Caresana",
    "state_id": 1785,
    "state_code": "VC",
    "country_id": 107,
    "country_code": "IT",
    "latitude": "45.22142000",
    "longitude": "8.50480000",
    "native": null,
    "timezone": "Europe/Rome",
    "translations": {}
  },
  {
    "id": 136870,
    "name": "Caresanablot",
    "state_id": 1785,
    "state_code": "VC",
    "country_id": 107,
    "country_code": "IT",
    "latitude": "45.35736000",
    "longitude": "8.39203000",
    "native": null,
    "timezone": "Europe/Rome",
    "translations": {}
  },
  {
    "id": 136882,
    "name": "Carisio",
    "state_id": 1785,
    "state_code": "VC",
    "country_id": 107,
    "country_code": "IT",
    "latitude": "45.41017000",
    "longitude": "8.19962000",
    "native": null,
    "timezone": "Europe/Rome",
    "translations": {}
  },
  {
    "id": 137022,
    "name": "Casanova Elvo",
    "state_id": 1785,
    "state_code": "VC",
    "country_id": 107,
    "country_code": "IT",
    "latitude": "45.40020000",
    "longitude": "8.29413000",
    "native": null,
    "timezone": "Europe/Rome",
    "translations": {}
  },
  {
    "id": 137481,
    "name": "Cellio",
    "state_id": 1785,
    "state_code": "VC",
    "country_id": 107,
    "country_code": "IT",
    "latitude": "45.75505000",
    "longitude": "8.31185000",
    "native": null,
    "timezone": "Europe/Rome",
    "translations": {}
  },
  {
    "id": 137586,
    "name": "Cervatto",
    "state_id": 1785,
    "state_code": "VC",
    "country_id": 107,
    "country_code": "IT",
    "latitude": "45.88297000",
    "longitude": "8.16232000",
    "native": null,
    "timezone": "Europe/Rome",
    "translations": {}
  },
  {
    "id": 137715,
    "name": "Cigliano",
    "state_id": 1785,
    "state_code": "VC",
    "country_id": 107,
    "country_code": "IT",
    "latitude": "45.30804000",
    "longitude": "8.02316000",
    "native": null,
    "timezone": "Europe/Rome",
    "translations": {}
  },
  {
    "id": 137781,
    "name": "Civiasco",
    "state_id": 1785,
    "state_code": "VC",
    "country_id": 107,
    "country_code": "IT",
    "latitude": "45.80786000",
    "longitude": "8.29386000",
    "native": null,
    "timezone": "Europe/Rome",
    "translations": {}
  },
  {
    "id": 137905,
    "name": "Collobiano",
    "state_id": 1785,
    "state_code": "VC",
    "country_id": 107,
    "country_code": "IT",
    "latitude": "45.39665000",
    "longitude": "8.34750000",
    "native": null,
    "timezone": "Europe/Rome",
    "translations": {}
  },
  {
    "id": 138105,
    "name": "Costanzana",
    "state_id": 1785,
    "state_code": "VC",
    "country_id": 107,
    "country_code": "IT",
    "latitude": "45.23742000",
    "longitude": "8.36943000",
    "native": null,
    "timezone": "Europe/Rome",
    "translations": {}
  },
  {
    "id": 138125,
    "name": "Cravagliana",
    "state_id": 1785,
    "state_code": "VC",
    "country_id": 107,
    "country_code": "IT",
    "latitude": "45.84827000",
    "longitude": "8.20182000",
    "native": null,
    "timezone": "Europe/Rome",
    "translations": {}
  },
  {
    "id": 138141,
    "name": "Crescentino",
    "state_id": 1785,
    "state_code": "VC",
    "country_id": 107,
    "country_code": "IT",
    "latitude": "45.19941000",
    "longitude": "8.08635000",
    "native": null,
    "timezone": "Europe/Rome",
    "translations": {}
  },
  {
    "id": 138172,
    "name": "Crova",
    "state_id": 1785,
    "state_code": "VC",
    "country_id": 107,
    "country_code": "IT",
    "latitude": "45.33066000",
    "longitude": "8.21083000",
    "native": null,
    "timezone": "Europe/Rome",
    "translations": {}
  },
  {
    "id": 138254,
    "name": "Desana",
    "state_id": 1785,
    "state_code": "VC",
    "country_id": 107,
    "country_code": "IT",
    "latitude": "45.26915000",
    "longitude": "8.35777000",
    "native": null,
    "timezone": "Europe/Rome",
    "translations": {}
  },
  {
    "id": 138570,
    "name": "Fobello",
    "state_id": 1785,
    "state_code": "VC",
    "country_id": 107,
    "country_code": "IT",
    "latitude": "45.89002000",
    "longitude": "8.15799000",
    "native": null,
    "timezone": "Europe/Rome",
    "translations": {}
  },
  {
    "id": 138603,
    "name": "Fontanetto Po",
    "state_id": 1785,
    "state_code": "VC",
    "country_id": 107,
    "country_code": "IT",
    "latitude": "45.19436000",
    "longitude": "8.19206000",
    "native": null,
    "timezone": "Europe/Rome",
    "translations": {}
  },
  {
    "id": 138641,
    "name": "Formigliana",
    "state_id": 1785,
    "state_code": "VC",
    "country_id": 107,
    "country_code": "IT",
    "latitude": "45.42926000",
    "longitude": "8.29193000",
    "native": null,
    "timezone": "Europe/Rome",
    "translations": {}
  },
  {
    "id": 138869,
    "name": "Gattinara",
    "state_id": 1785,
    "state_code": "VC",
    "country_id": 107,
    "country_code": "IT",
    "latitude": "45.61309000",
    "longitude": "8.36463000",
    "native": null,
    "timezone": "Europe/Rome",
    "translations": {}
  },
  {
    "id": 138936,
    "name": "Ghislarengo",
    "state_id": 1785,
    "state_code": "VC",
    "country_id": 107,
    "country_code": "IT",
    "latitude": "45.52856000",
    "longitude": "8.38514000",
    "native": null,
    "timezone": "Europe/Rome",
    "translations": {}
  },
  {
    "id": 139087,
    "name": "Greggio",
    "state_id": 1785,
    "state_code": "VC",
    "country_id": 107,
    "country_code": "IT",
    "latitude": "45.45148000",
    "longitude": "8.38494000",
    "native": null,
    "timezone": "Europe/Rome",
    "translations": {}
  },
  {
    "id": 139154,
    "name": "Guardabosone",
    "state_id": 1785,
    "state_code": "VC",
    "country_id": 107,
    "country_code": "IT",
    "latitude": "45.70187000",
    "longitude": "8.24932000",
    "native": null,
    "timezone": "Europe/Rome",
    "translations": {}
  },
  {
    "id": 139351,
    "name": "Lamporo",
    "state_id": 1785,
    "state_code": "VC",
    "country_id": 107,
    "country_code": "IT",
    "latitude": "45.23092000",
    "longitude": "8.09846000",
    "native": null,
    "timezone": "Europe/Rome",
    "translations": {}
  },
  {
    "id": 139449,
    "name": "Lenta",
    "state_id": 1785,
    "state_code": "VC",
    "country_id": 107,
    "country_code": "IT",
    "latitude": "45.55691000",
    "longitude": "8.38402000",
    "native": null,
    "timezone": "Europe/Rome",
    "translations": {}
  },
  {
    "id": 139510,
    "name": "Lignana",
    "state_id": 1785,
    "state_code": "VC",
    "country_id": 107,
    "country_code": "IT",
    "latitude": "45.28606000",
    "longitude": "8.34393000",
    "native": null,
    "timezone": "Europe/Rome",
    "translations": {}
  },
  {
    "id": 139552,
    "name": "Livorno Ferraris",
    "state_id": 1785,
    "state_code": "VC",
    "country_id": 107,
    "country_code": "IT",
    "latitude": "45.28271000",
    "longitude": "8.07780000",
    "native": null,
    "timezone": "Europe/Rome",
    "translations": {}
  },
  {
    "id": 139625,
    "name": "Lozzolo",
    "state_id": 1785,
    "state_code": "VC",
    "country_id": 107,
    "country_code": "IT",
    "latitude": "45.61894000",
    "longitude": "8.32284000",
    "native": null,
    "timezone": "Europe/Rome",
    "translations": {}
  },
  {
    "id": 140229,
    "name": "Mollia",
    "state_id": 1785,
    "state_code": "VC",
    "country_id": 107,
    "country_code": "IT",
    "latitude": "45.81667000",
    "longitude": "8.03031000",
    "native": null,
    "timezone": "Europe/Rome",
    "translations": {}
  },
  {
    "id": 140269,
    "name": "Moncrivello",
    "state_id": 1785,
    "state_code": "VC",
    "country_id": 107,
    "country_code": "IT",
    "latitude": "45.33236000",
    "longitude": "7.99552000",
    "native": null,
    "timezone": "Europe/Rome",
    "translations": {}
  },
  {
    "id": 140658,
    "name": "Motta Dè Conti",
    "state_id": 1785,
    "state_code": "VC",
    "country_id": 107,
    "country_code": "IT",
    "latitude": "45.19356000",
    "longitude": "8.52094000",
    "native": null,
    "timezone": "Europe/Rome",
    "translations": {}
  },
  {
    "id": 140885,
    "name": "Olcenengo",
    "state_id": 1785,
    "state_code": "VC",
    "country_id": 107,
    "country_code": "IT",
    "latitude": "45.36346000",
    "longitude": "8.30983000",
    "native": null,
    "timezone": "Europe/Rome",
    "translations": {}
  },
  {
    "id": 140886,
    "name": "Oldenico",
    "state_id": 1785,
    "state_code": "VC",
    "country_id": 107,
    "country_code": "IT",
    "latitude": "45.40276000",
    "longitude": "8.38103000",
    "native": null,
    "timezone": "Europe/Rome",
    "translations": {}
  },
  {
    "id": 58234,
    "name": "Palazzolo Vercellese",
    "state_id": 1785,
    "state_code": "VC",
    "country_id": 107,
    "country_code": "IT",
    "latitude": "45.18554000",
    "longitude": "8.23302000",
    "native": null,
    "timezone": "Europe/Rome",
    "translations": {}
  },
  {
    "id": 58441,
    "name": "Pertengo",
    "state_id": 1785,
    "state_code": "VC",
    "country_id": 107,
    "country_code": "IT",
    "latitude": "45.23606000",
    "longitude": "8.41651000",
    "native": null,
    "timezone": "Europe/Rome",
    "translations": {}
  },
  {
    "id": 58497,
    "name": "Pezzana",
    "state_id": 1785,
    "state_code": "VC",
    "country_id": 107,
    "country_code": "IT",
    "latitude": "45.26152000",
    "longitude": "8.48396000",
    "native": null,
    "timezone": "Europe/Rome",
    "translations": {}
  },
  {
    "id": 58667,
    "name": "Pila",
    "state_id": 1785,
    "state_code": "VC",
    "country_id": 107,
    "country_code": "IT",
    "latitude": "45.76997000",
    "longitude": "8.08122000",
    "native": null,
    "timezone": "Europe/Rome",
    "translations": {}
  },
  {
    "id": 58687,
    "name": "Piode",
    "state_id": 1785,
    "state_code": "VC",
    "country_id": 107,
    "country_code": "IT",
    "latitude": "45.77059000",
    "longitude": "8.05265000",
    "native": null,
    "timezone": "Europe/Rome",
    "translations": {}
  },
  {
    "id": 58964,
    "name": "Postua",
    "state_id": 1785,
    "state_code": "VC",
    "country_id": 107,
    "country_code": "IT",
    "latitude": "45.71355000",
    "longitude": "8.22853000",
    "native": null,
    "timezone": "Europe/Rome",
    "translations": {}
  },
  {
    "id": 59007,
    "name": "Prarolo",
    "state_id": 1785,
    "state_code": "VC",
    "country_id": 107,
    "country_code": "IT",
    "latitude": "45.28149000",
    "longitude": "8.47784000",
    "native": null,
    "timezone": "Europe/Rome",
    "translations": {}
  },
  {
    "id": 59223,
    "name": "Quarona",
    "state_id": 1785,
    "state_code": "VC",
    "country_id": 107,
    "country_code": "IT",
    "latitude": "45.76044000",
    "longitude": "8.26749000",
    "native": null,
    "timezone": "Europe/Rome",
    "translations": {}
  },
  {
    "id": 59248,
    "name": "Quinto Vercellese",
    "state_id": 1785,
    "state_code": "VC",
    "country_id": 107,
    "country_code": "IT",
    "latitude": "45.37920000",
    "longitude": "8.36210000",
    "native": null,
    "timezone": "Europe/Rome",
    "translations": {}
  },
  {
    "id": 59289,
    "name": "Rassa",
    "state_id": 1785,
    "state_code": "VC",
    "country_id": 107,
    "country_code": "IT",
    "latitude": "45.76821000",
    "longitude": "8.01208000",
    "native": null,
    "timezone": "Europe/Rome",
    "translations": {}
  },
  {
    "id": 59382,
    "name": "Rima",
    "state_id": 1785,
    "state_code": "VC",
    "country_id": 107,
    "country_code": "IT",
    "latitude": "45.88542000",
    "longitude": "7.99864000",
    "native": null,
    "timezone": "Europe/Rome",
    "translations": {}
  },
  {
    "id": 59383,
    "name": "Rimasco",
    "state_id": 1785,
    "state_code": "VC",
    "country_id": 107,
    "country_code": "IT",
    "latitude": "45.86025000",
    "longitude": "8.06412000",
    "native": null,
    "timezone": "Europe/Rome",
    "translations": {}
  },
  {
    "id": 59384,
    "name": "Rimella",
    "state_id": 1785,
    "state_code": "VC",
    "country_id": 107,
    "country_code": "IT",
    "latitude": "45.90807000",
    "longitude": "8.18222000",
    "native": null,
    "timezone": "Europe/Rome",
    "translations": {}
  },
  {
    "id": 59418,
    "name": "Riva Valdobbia",
    "state_id": 1785,
    "state_code": "VC",
    "country_id": 107,
    "country_code": "IT",
    "latitude": "45.83097000",
    "longitude": "7.95661000",
    "native": null,
    "timezone": "Europe/Rome",
    "translations": {}
  },
  {
    "id": 59434,
    "name": "Rive",
    "state_id": 1785,
    "state_code": "VC",
    "country_id": 107,
    "country_code": "IT",
    "latitude": "45.21364000",
    "longitude": "8.41701000",
    "native": null,
    "timezone": "Europe/Rome",
    "translations": {}
  },
  {
    "id": 59451,
    "name": "Roasio",
    "state_id": 1785,
    "state_code": "VC",
    "country_id": 107,
    "country_code": "IT",
    "latitude": "45.60457000",
    "longitude": "8.28482000",
    "native": null,
    "timezone": "Europe/Rome",
    "translations": {}
  },
  {
    "id": 59616,
    "name": "Ronsecco",
    "state_id": 1785,
    "state_code": "VC",
    "country_id": 107,
    "country_code": "IT",
    "latitude": "45.25284000",
    "longitude": "8.27749000",
    "native": null,
    "timezone": "Europe/Rome",
    "translations": {}
  },
  {
    "id": 59645,
    "name": "Rossa",
    "state_id": 1785,
    "state_code": "VC",
    "country_id": 107,
    "country_code": "IT",
    "latitude": "45.83327000",
    "longitude": "8.12432000",
    "native": null,
    "timezone": "Europe/Rome",
    "translations": {}
  },
  {
    "id": 59668,
    "name": "Rovasenda",
    "state_id": 1785,
    "state_code": "VC",
    "country_id": 107,
    "country_code": "IT",
    "latitude": "45.53866000",
    "longitude": "8.31592000",
    "native": null,
    "timezone": "Europe/Rome",
    "translations": {}
  },
  {
    "id": 59712,
    "name": "Sabbia",
    "state_id": 1785,
    "state_code": "VC",
    "country_id": 107,
    "country_code": "IT",
    "latitude": "45.85720000",
    "longitude": "8.23580000",
    "native": null,
    "timezone": "Europe/Rome",
    "translations": {}
  },
  {
    "id": 59749,
    "name": "Salasco",
    "state_id": 1785,
    "state_code": "VC",
    "country_id": 107,
    "country_code": "IT",
    "latitude": "45.32556000",
    "longitude": "8.26423000",
    "native": null,
    "timezone": "Europe/Rome",
    "translations": {}
  },
  {
    "id": 59766,
    "name": "Sali Vercellese",
    "state_id": 1785,
    "state_code": "VC",
    "country_id": 107,
    "country_code": "IT",
    "latitude": "45.30986000",
    "longitude": "8.32893000",
    "native": null,
    "timezone": "Europe/Rome",
    "translations": {}
  },
  {
    "id": 59784,
    "name": "Saluggia",
    "state_id": 1785,
    "state_code": "VC",
    "country_id": 107,
    "country_code": "IT",
    "latitude": "45.23687000",
    "longitude": "8.01460000",
    "native": null,
    "timezone": "Europe/Rome",
    "translations": {}
  },
  {
    "id": 59937,
    "name": "San Germano Vercellese",
    "state_id": 1785,
    "state_code": "VC",
    "country_id": 107,
    "country_code": "IT",
    "latitude": "45.35090000",
    "longitude": "8.24717000",
    "native": null,
    "timezone": "Europe/Rome",
    "translations": {}
  },
  {
    "id": 59945,
    "name": "San Giacomo Vercellese",
    "state_id": 1785,
    "state_code": "VC",
    "country_id": 107,
    "country_code": "IT",
    "latitude": "45.49816000",
    "longitude": "8.32673000",
    "native": null,
    "timezone": "Europe/Rome",
    "translations": {}
  },
  {
    "id": 60508,
    "name": "Santhià",
    "state_id": 1785,
    "state_code": "VC",
    "country_id": 107,
    "country_code": "IT",
    "latitude": "45.36795000",
    "longitude": "8.17012000",
    "native": null,
    "timezone": "Europe/Rome",
    "translations": {}
  },
  {
    "id": 60663,
    "name": "Scopa",
    "state_id": 1785,
    "state_code": "VC",
    "country_id": 107,
    "country_code": "IT",
    "latitude": "45.79297000",
    "longitude": "8.11402000",
    "native": null,
    "timezone": "Europe/Rome",
    "translations": {}
  },
  {
    "id": 60664,
    "name": "Scopello",
    "state_id": 1785,
    "state_code": "VC",
    "country_id": 107,
    "country_code": "IT",
    "latitude": "45.77369000",
    "longitude": "8.09435000",
    "native": null,
    "timezone": "Europe/Rome",
    "translations": {}
  },
  {
    "id": 60775,
    "name": "Serravalle Sesia",
    "state_id": 1785,
    "state_code": "VC",
    "country_id": 107,
    "country_code": "IT",
    "latitude": "45.68485000",
    "longitude": "8.30850000",
    "native": null,
    "timezone": "Europe/Rome",
    "translations": {}
  },
  {
    "id": 61100,
    "name": "Stroppiana",
    "state_id": 1785,
    "state_code": "VC",
    "country_id": 107,
    "country_code": "IT",
    "latitude": "45.23037000",
    "longitude": "8.45461000",
    "native": null,
    "timezone": "Europe/Rome",
    "translations": {}
  },
  {
    "id": 61520,
    "name": "Tricerro",
    "state_id": 1785,
    "state_code": "VC",
    "country_id": 107,
    "country_code": "IT",
    "latitude": "45.23570000",
    "longitude": "8.32746000",
    "native": null,
    "timezone": "Europe/Rome",
    "translations": {}
  },
  {
    "id": 61532,
    "name": "Trino",
    "state_id": 1785,
    "state_code": "VC",
    "country_id": 107,
    "country_code": "IT",
    "latitude": "45.19538000",
    "longitude": "8.29621000",
    "native": null,
    "timezone": "Europe/Rome",
    "translations": {}
  },
  {
    "id": 61555,
    "name": "Tronzano Vercellese",
    "state_id": 1785,
    "state_code": "VC",
    "country_id": 107,
    "country_code": "IT",
    "latitude": "45.34226000",
    "longitude": "8.17368000",
    "native": null,
    "timezone": "Europe/Rome",
    "translations": {}
  },
  {
    "id": 61659,
    "name": "Valduggia",
    "state_id": 1785,
    "state_code": "VC",
    "country_id": 107,
    "country_code": "IT",
    "latitude": "45.72722000",
    "longitude": "8.32730000",
    "native": null,
    "timezone": "Europe/Rome",
    "translations": {}
  },
  {
    "id": 61759,
    "name": "Varallo",
    "state_id": 1785,
    "state_code": "VC",
    "country_id": 107,
    "country_code": "IT",
    "latitude": "45.81383000",
    "longitude": "8.25814000",
    "native": null,
    "timezone": "Europe/Rome",
    "translations": {}
  },
  {
    "id": 61838,
    "name": "Vercelli",
    "state_id": 1785,
    "state_code": "VC",
    "country_id": 107,
    "country_code": "IT",
    "latitude": "45.32163000",
    "longitude": "8.41989000",
    "native": null,
    "timezone": "Europe/Rome",
    "translations": {}
  },
  {
    "id": 62127,
    "name": "Villarboit",
    "state_id": 1785,
    "state_code": "VC",
    "country_id": 107,
    "country_code": "IT",
    "latitude": "45.43775000",
    "longitude": "8.33694000",
    "native": null,
    "timezone": "Europe/Rome",
    "translations": {}
  },
  {
    "id": 62142,
    "name": "Villata",
    "state_id": 1785,
    "state_code": "VC",
    "country_id": 107,
    "country_code": "IT",
    "latitude": "45.38650000",
    "longitude": "8.43279000",
    "native": null,
    "timezone": "Europe/Rome",
    "translations": {}
  },
  {
    "id": 62199,
    "name": "Vocca",
    "state_id": 1785,
    "state_code": "VC",
    "country_id": 107,
    "country_code": "IT",
    "latitude": "45.83269000",
    "longitude": "8.19580000",
    "native": null,
    "timezone": "Europe/Rome",
    "translations": {}
  }
]