[
  {
    "id": 89750,
    "name": "Colonia Menno",
    "state_id": 2780,
    "state_code": "19",
    "country_id": 172,
    "country_code": "PY",
    "latitude": "-22.36667000",
    "longitude": "-59.81667000",
    "native": null,
    "timezone": "America/Asuncion",
    "translations": {}
  },
  {
    "id": 89752,
    "name": "Colonia Neuland",
    "state_id": 2780,
    "state_code": "19",
    "country_id": 172,
    "country_code": "PY",
    "latitude": "-22.66667000",
    "longitude": "-60.11667000",
    "native": null,
    "timezone": "America/Asuncion",
    "translations": {}
  },
  {
    "id": 89766,
    "name": "Filadelfia",
    "state_id": 2780,
    "state_code": "19",
    "country_id": 172,
    "country_code": "PY",
    "latitude": "-22.33936000",
    "longitude": "-60.03157000",
    "native": null,
    "timezone": "America/Asuncion",
    "translations": {}
  },
  {
    "id": 161648,
    "name": "Fortín Boquerón",
    "state_id": 2780,
    "state_code": "19",
    "country_id": 172,
    "country_code": "PY",
    "latitude": "-22.78333000",
    "longitude": "-59.95000000",
    "native": null,
    "timezone": "America/Asuncion",
    "translations": {}
  },
  {
    "id": 161649,
    "name": "Fortín General Eugenio Garay",
    "state_id": 2780,
    "state_code": "19",
    "country_id": 172,
    "country_code": "PY",
    "latitude": "-20.51666670",
    "longitude": "-62.13333330",
    "native": null,
    "timezone": "America/Asuncion",
    "translations": {}
  },
  {
    "id": 161650,
    "name": "Mariscal José Félix Estigarribia",
    "state_id": 2780,
    "state_code": "19",
    "country_id": 172,
    "country_code": "PY",
    "latitude": "-22.03055556",
    "longitude": "-60.61111111",
    "native": null,
    "timezone": "America/Asuncion",
    "translations": {}
  }
]