[
  {
    "id": 105625,
    "name": "Amphoe Na Wa",
    "state_id": 3548,
    "state_code": "48",
    "country_id": 219,
    "country_code": "TH",
    "latitude": "17.49922000",
    "longitude": "104.11833000",
    "native": null,
    "timezone": "Asia/Bangkok",
    "translations": {}
  },
  {
    "id": 106303,
    "name": "Amphoe That Phanom",
    "state_id": 3548,
    "state_code": "48",
    "country_id": 219,
    "country_code": "TH",
    "latitude": "16.96457000",
    "longitude": "104.70277000",
    "native": null,
    "timezone": "Asia/Bangkok",
    "translations": {}
  },
  {
    "id": 105209,
    "name": "Ban Phaeng",
    "state_id": 3548,
    "state_code": "48",
    "country_id": 219,
    "country_code": "TH",
    "latitude": "17.86955000",
    "longitude": "104.22744000",
    "native": null,
    "timezone": "Asia/Bangkok",
    "translations": {}
  },
  {
    "id": 105555,
    "name": "Mueang Nakhon Phanom",
    "state_id": 3548,
    "state_code": "48",
    "country_id": 219,
    "country_code": "TH",
    "latitude": "17.31965000",
    "longitude": "104.68232000",
    "native": null,
    "timezone": "Asia/Bangkok",
    "translations": {}
  },
  {
    "id": 105614,
    "name": "Na Kae",
    "state_id": 3548,
    "state_code": "48",
    "country_id": 219,
    "country_code": "TH",
    "latitude": "16.95737000",
    "longitude": "104.49349000",
    "native": null,
    "timezone": "Asia/Bangkok",
    "translations": {}
  },
  {
    "id": 105624,
    "name": "Na Thom",
    "state_id": 3548,
    "state_code": "48",
    "country_id": 219,
    "country_code": "TH",
    "latitude": "17.82134000",
    "longitude": "104.10871000",
    "native": null,
    "timezone": "Asia/Bangkok",
    "translations": {}
  },
  {
    "id": 106577,
    "name": "Na Wa",
    "state_id": 3548,
    "state_code": "48",
    "country_id": 219,
    "country_code": "TH",
    "latitude": "17.48970000",
    "longitude": "104.10056000",
    "native": null,
    "timezone": "Asia/Bangkok",
    "translations": {}
  },
  {
    "id": 106582,
    "name": "Nakhon Phanom",
    "state_id": 3548,
    "state_code": "48",
    "country_id": 219,
    "country_code": "TH",
    "latitude": "17.41081000",
    "longitude": "104.77856000",
    "native": null,
    "timezone": "Asia/Bangkok",
    "translations": {}
  },
  {
    "id": 105755,
    "name": "Phon Sawan",
    "state_id": 3548,
    "state_code": "48",
    "country_id": 219,
    "country_code": "TH",
    "latitude": "17.46868000",
    "longitude": "104.42234000",
    "native": null,
    "timezone": "Asia/Bangkok",
    "translations": {}
  },
  {
    "id": 105787,
    "name": "Pla Pak",
    "state_id": 3548,
    "state_code": "48",
    "country_id": 219,
    "country_code": "TH",
    "latitude": "17.20133000",
    "longitude": "104.54674000",
    "native": null,
    "timezone": "Asia/Bangkok",
    "translations": {}
  },
  {
    "id": 105811,
    "name": "Renu Nakhon",
    "state_id": 3548,
    "state_code": "48",
    "country_id": 219,
    "country_code": "TH",
    "latitude": "17.05080000",
    "longitude": "104.65664000",
    "native": null,
    "timezone": "Asia/Bangkok",
    "translations": {}
  },
  {
    "id": 106227,
    "name": "Si Songkhram",
    "state_id": 3548,
    "state_code": "48",
    "country_id": 219,
    "country_code": "TH",
    "latitude": "17.62989000",
    "longitude": "104.24495000",
    "native": null,
    "timezone": "Asia/Bangkok",
    "translations": {}
  },
  {
    "id": 106289,
    "name": "Tha Uthen",
    "state_id": 3548,
    "state_code": "48",
    "country_id": 219,
    "country_code": "TH",
    "latitude": "17.59263000",
    "longitude": "104.49884000",
    "native": null,
    "timezone": "Asia/Bangkok",
    "translations": {}
  },
  {
    "id": 106729,
    "name": "That Phanom",
    "state_id": 3548,
    "state_code": "48",
    "country_id": 219,
    "country_code": "TH",
    "latitude": "16.93636000",
    "longitude": "104.71039000",
    "native": null,
    "timezone": "Asia/Bangkok",
    "translations": {}
  },
  {
    "id": 106350,
    "name": "Wangyang",
    "state_id": 3548,
    "state_code": "48",
    "country_id": 219,
    "country_code": "TH",
    "latitude": "17.07189000",
    "longitude": "104.45373000",
    "native": null,
    "timezone": "Asia/Bangkok",
    "translations": {}
  }
]