[
  {
    "id": 129773,
    "name": "Aceguá",
    "state_id": 3211,
    "state_code": "CL",
    "country_id": 235,
    "country_code": "UY",
    "latitude": "-31.87178000",
    "longitude": "-54.16351000",
    "native": null,
    "timezone": "America/Montevideo",
    "translations": {}
  },
  {
    "id": 163525,
    "name": "Aguirre",
    "state_id": 3211,
    "state_code": "CL",
    "country_id": 235,
    "country_code": "UY",
    "latitude": "-32.50624594",
    "longitude": "-54.55869962",
    "native": null,
    "timezone": "America/Montevideo",
    "translations": {}
  },
  {
    "id": 163517,
    "name": "Amarillo",
    "state_id": 3211,
    "state_code": "CL",
    "country_id": 235,
    "country_code": "UY",
    "latitude": "-32.52395814",
    "longitude": "-54.00987282",
    "native": null,
    "timezone": "America/Montevideo",
    "translations": {}
  },
  {
    "id": 162433,
    "name": "Arachania",
    "state_id": 3211,
    "state_code": "CL",
    "country_id": 235,
    "country_code": "UY",
    "latitude": "-32.52821630",
    "longitude": "-54.13258649",
    "native": null,
    "timezone": "America/Montevideo",
    "translations": {}
  },
  {
    "id": 162466,
    "name": "Arbolito",
    "state_id": 3211,
    "state_code": "CL",
    "country_id": 235,
    "country_code": "UY",
    "latitude": "-32.61138205",
    "longitude": "-54.21095387",
    "native": null,
    "timezone": "America/Montevideo",
    "translations": {}
  },
  {
    "id": 162540,
    "name": "Arevalo",
    "state_id": 3211,
    "state_code": "CL",
    "country_id": 235,
    "country_code": "UY",
    "latitude": "-32.63881318",
    "longitude": "-55.07865153",
    "native": null,
    "timezone": "America/Montevideo",
    "translations": {}
  },
  {
    "id": 162321,
    "name": "Arroyo Malo",
    "state_id": 3211,
    "state_code": "CL",
    "country_id": 235,
    "country_code": "UY",
    "latitude": "-32.60702872",
    "longitude": "-53.72664323",
    "native": null,
    "timezone": "America/Montevideo",
    "translations": {}
  },
  {
    "id": 163459,
    "name": "Arrozal Cesarone",
    "state_id": 3211,
    "state_code": "CL",
    "country_id": 235,
    "country_code": "UY",
    "latitude": "-32.65091363",
    "longitude": "-53.30865873",
    "native": null,
    "timezone": "America/Montevideo",
    "translations": {}
  },
  {
    "id": 163456,
    "name": "Arrozal Rosales",
    "state_id": 3211,
    "state_code": "CL",
    "country_id": 235,
    "country_code": "UY",
    "latitude": "-32.55548890",
    "longitude": "-53.53256791",
    "native": null,
    "timezone": "America/Montevideo",
    "translations": {}
  },
  {
    "id": 162320,
    "name": "Asperezas",
    "state_id": 3211,
    "state_code": "CL",
    "country_id": 235,
    "country_code": "UY",
    "latitude": "-32.36284191",
    "longitude": "-53.87921943",
    "native": null,
    "timezone": "America/Montevideo",
    "translations": {}
  },
  {
    "id": 163847,
    "name": "Bañado de las Pajas",
    "state_id": 3211,
    "state_code": "CL",
    "country_id": 235,
    "country_code": "UY",
    "latitude": "-32.51598759",
    "longitude": "-53.57520291",
    "native": null,
    "timezone": "America/Montevideo",
    "translations": {}
  },
  {
    "id": 162536,
    "name": "Bañado de Medina",
    "state_id": 3211,
    "state_code": "CL",
    "country_id": 235,
    "country_code": "UY",
    "latitude": "-32.40309588",
    "longitude": "-54.35009388",
    "native": null,
    "timezone": "America/Montevideo",
    "translations": {}
  },
  {
    "id": 163462,
    "name": "Barra del Sauce",
    "state_id": 3211,
    "state_code": "CL",
    "country_id": 235,
    "country_code": "UY",
    "latitude": "-32.72897248",
    "longitude": "-53.48044411",
    "native": null,
    "timezone": "America/Montevideo",
    "translations": {}
  },
  {
    "id": 163464,
    "name": "Barra del Tacuari",
    "state_id": 3211,
    "state_code": "CL",
    "country_id": 235,
    "country_code": "UY",
    "latitude": "-32.74993726",
    "longitude": "-53.33886360",
    "native": null,
    "timezone": "America/Montevideo",
    "translations": {}
  },
  {
    "id": 162341,
    "name": "Barrio la Vinchuca",
    "state_id": 3211,
    "state_code": "CL",
    "country_id": 235,
    "country_code": "UY",
    "latitude": "-32.35018829",
    "longitude": "-54.15546103",
    "native": null,
    "timezone": "America/Montevideo",
    "translations": {}
  },
  {
    "id": 162193,
    "name": "Barrio Lopez Benitez",
    "state_id": 3211,
    "state_code": "CL",
    "country_id": 235,
    "country_code": "UY",
    "latitude": "-32.36273526",
    "longitude": "-54.21028691",
    "native": null,
    "timezone": "America/Montevideo",
    "translations": {}
  },
  {
    "id": 163468,
    "name": "Berachi",
    "state_id": 3211,
    "state_code": "CL",
    "country_id": 235,
    "country_code": "UY",
    "latitude": "-32.14508558",
    "longitude": "-53.95703522",
    "native": null,
    "timezone": "America/Montevideo",
    "translations": {}
  },
  {
    "id": 163499,
    "name": "Buena Vista",
    "state_id": 3211,
    "state_code": "CL",
    "country_id": 235,
    "country_code": "UY",
    "latitude": "-32.14717562",
    "longitude": "-54.16387894",
    "native": null,
    "timezone": "America/Montevideo",
    "translations": {}
  },
  {
    "id": 163531,
    "name": "Calera de Recalde",
    "state_id": 3211,
    "state_code": "CL",
    "country_id": 235,
    "country_code": "UY",
    "latitude": "-32.72033824",
    "longitude": "-54.43550842",
    "native": null,
    "timezone": "America/Montevideo",
    "translations": {}
  },
  {
    "id": 163519,
    "name": "Campamento",
    "state_id": 3211,
    "state_code": "CL",
    "country_id": 235,
    "country_code": "UY",
    "latitude": "-32.63806559",
    "longitude": "-54.11569815",
    "native": null,
    "timezone": "America/Montevideo",
    "translations": {}
  },
  {
    "id": 163853,
    "name": "Cañada Brava",
    "state_id": 3211,
    "state_code": "CL",
    "country_id": 235,
    "country_code": "UY",
    "latitude": "-32.82333261",
    "longitude": "-55.27681665",
    "native": null,
    "timezone": "America/Montevideo",
    "translations": {}
  },
  {
    "id": 163461,
    "name": "Cañada de Santos",
    "state_id": 3211,
    "state_code": "CL",
    "country_id": 235,
    "country_code": "UY",
    "latitude": "-32.63503276",
    "longitude": "-53.58648038",
    "native": null,
    "timezone": "America/Montevideo",
    "translations": {}
  },
  {
    "id": 163861,
    "name": "Cañada Grande",
    "state_id": 3211,
    "state_code": "CL",
    "country_id": 235,
    "country_code": "UY",
    "latitude": "-32.66237668",
    "longitude": "-53.42070114",
    "native": null,
    "timezone": "America/Montevideo",
    "translations": {}
  },
  {
    "id": 163510,
    "name": "Cañada Sarandi",
    "state_id": 3211,
    "state_code": "CL",
    "country_id": 235,
    "country_code": "UY",
    "latitude": "-32.35146927",
    "longitude": "-54.09042869",
    "native": null,
    "timezone": "America/Montevideo",
    "translations": {}
  },
  {
    "id": 163485,
    "name": "Cañitas",
    "state_id": 3211,
    "state_code": "CL",
    "country_id": 235,
    "country_code": "UY",
    "latitude": "-32.31784770",
    "longitude": "-53.89292841",
    "native": null,
    "timezone": "America/Montevideo",
    "translations": {}
  },
  {
    "id": 162323,
    "name": "Casa de las Cronicas",
    "state_id": 3211,
    "state_code": "CL",
    "country_id": 235,
    "country_code": "UY",
    "latitude": "-32.42638969",
    "longitude": "-54.32484999",
    "native": null,
    "timezone": "America/Montevideo",
    "translations": {}
  },
  {
    "id": 162344,
    "name": "Caserio las Cañas",
    "state_id": 3211,
    "state_code": "CL",
    "country_id": 235,
    "country_code": "UY",
    "latitude": "-32.35432735",
    "longitude": "-53.82889931",
    "native": null,
    "timezone": "America/Montevideo",
    "translations": {}
  },
  {
    "id": 163470,
    "name": "Cementerio",
    "state_id": 3211,
    "state_code": "CL",
    "country_id": 235,
    "country_code": "UY",
    "latitude": "-32.13797495",
    "longitude": "-53.82856707",
    "native": null,
    "timezone": "America/Montevideo",
    "translations": {}
  },
  {
    "id": 162539,
    "name": "Centurion",
    "state_id": 3211,
    "state_code": "CL",
    "country_id": 235,
    "country_code": "UY",
    "latitude": "-32.14498286",
    "longitude": "-53.78828343",
    "native": null,
    "timezone": "America/Montevideo",
    "translations": {}
  },
  {
    "id": 162467,
    "name": "Cerro de las Cuentas",
    "state_id": 3211,
    "state_code": "CL",
    "country_id": 235,
    "country_code": "UY",
    "latitude": "-32.62344524",
    "longitude": "-54.59253544",
    "native": null,
    "timezone": "America/Montevideo",
    "translations": {}
  },
  {
    "id": 163507,
    "name": "Chacras de Melo",
    "state_id": 3211,
    "state_code": "CL",
    "country_id": 235,
    "country_code": "UY",
    "latitude": "-32.33488848",
    "longitude": "-54.12342936",
    "native": null,
    "timezone": "America/Montevideo",
    "translations": {}
  },
  {
    "id": 163532,
    "name": "Coimbra",
    "state_id": 3211,
    "state_code": "CL",
    "country_id": 235,
    "country_code": "UY",
    "latitude": "-32.61223379",
    "longitude": "-54.73301684",
    "native": null,
    "timezone": "America/Montevideo",
    "translations": {}
  },
  {
    "id": 163512,
    "name": "Colonia Ceres",
    "state_id": 3211,
    "state_code": "CL",
    "country_id": 235,
    "country_code": "UY",
    "latitude": "-32.41286485",
    "longitude": "-54.19897384",
    "native": null,
    "timezone": "America/Montevideo",
    "translations": {}
  },
  {
    "id": 163500,
    "name": "Colonia Maria Teresa",
    "state_id": 3211,
    "state_code": "CL",
    "country_id": 235,
    "country_code": "UY",
    "latitude": "-32.16607573",
    "longitude": "-54.24452445",
    "native": null,
    "timezone": "America/Montevideo",
    "translations": {}
  },
  {
    "id": 163506,
    "name": "Colonia Orozco",
    "state_id": 3211,
    "state_code": "CL",
    "country_id": 235,
    "country_code": "UY",
    "latitude": "-32.30081579",
    "longitude": "-54.12095331",
    "native": null,
    "timezone": "America/Montevideo",
    "translations": {}
  },
  {
    "id": 163508,
    "name": "Conventos",
    "state_id": 3211,
    "state_code": "CL",
    "country_id": 235,
    "country_code": "UY",
    "latitude": "-32.34482075",
    "longitude": "-54.24417612",
    "native": null,
    "timezone": "America/Montevideo",
    "translations": {}
  },
  {
    "id": 163477,
    "name": "Corral de Piedra",
    "state_id": 3211,
    "state_code": "CL",
    "country_id": 235,
    "country_code": "UY",
    "latitude": "-32.47112244",
    "longitude": "-53.80999566",
    "native": null,
    "timezone": "America/Montevideo",
    "translations": {}
  },
  {
    "id": 163498,
    "name": "Cruz de Piedra",
    "state_id": 3211,
    "state_code": "CL",
    "country_id": 235,
    "country_code": "UY",
    "latitude": "-32.05139788",
    "longitude": "-54.14733404",
    "native": null,
    "timezone": "America/Montevideo",
    "translations": {}
  },
  {
    "id": 163480,
    "name": "Cuchilla Cambota",
    "state_id": 3211,
    "state_code": "CL",
    "country_id": 235,
    "country_code": "UY",
    "latitude": "-32.52735169",
    "longitude": "-53.77535604",
    "native": null,
    "timezone": "America/Montevideo",
    "translations": {}
  },
  {
    "id": 163494,
    "name": "Cuchilla de Melo",
    "state_id": 3211,
    "state_code": "CL",
    "country_id": 235,
    "country_code": "UY",
    "latitude": "-31.98926849",
    "longitude": "-54.05336034",
    "native": null,
    "timezone": "America/Montevideo",
    "translations": {}
  },
  {
    "id": 162325,
    "name": "Cuchilla del Carmen",
    "state_id": 3211,
    "state_code": "CL",
    "country_id": 235,
    "country_code": "UY",
    "latitude": "-32.72307979",
    "longitude": "-55.03199654",
    "native": null,
    "timezone": "America/Montevideo",
    "translations": {}
  },
  {
    "id": 163481,
    "name": "Cuchilla del Paraiso",
    "state_id": 3211,
    "state_code": "CL",
    "country_id": 235,
    "country_code": "UY",
    "latitude": "-32.54137384",
    "longitude": "-53.95883946",
    "native": null,
    "timezone": "America/Montevideo",
    "translations": {}
  },
  {
    "id": 163474,
    "name": "Cuchilla Peralta",
    "state_id": 3211,
    "state_code": "CL",
    "country_id": 235,
    "country_code": "UY",
    "latitude": "-32.26128815",
    "longitude": "-53.85450400",
    "native": null,
    "timezone": "America/Montevideo",
    "translations": {}
  },
  {
    "id": 163472,
    "name": "Duraznero",
    "state_id": 3211,
    "state_code": "CL",
    "country_id": 235,
    "country_code": "UY",
    "latitude": "-32.21318268",
    "longitude": "-53.69684153",
    "native": null,
    "timezone": "America/Montevideo",
    "translations": {}
  },
  {
    "id": 162460,
    "name": "Escuela de Agronomia",
    "state_id": 3211,
    "state_code": "CL",
    "country_id": 235,
    "country_code": "UY",
    "latitude": "-32.35594423",
    "longitude": "-54.44217561",
    "native": null,
    "timezone": "America/Montevideo",
    "translations": {}
  },
  {
    "id": 162392,
    "name": "Esperanza",
    "state_id": 3211,
    "state_code": "CL",
    "country_id": 235,
    "country_code": "UY",
    "latitude": "-32.92144163",
    "longitude": "-54.97867211",
    "native": null,
    "timezone": "America/Montevideo",
    "translations": {}
  },
  {
    "id": 163469,
    "name": "Falda de Sierra de los Rios",
    "state_id": 3211,
    "state_code": "CL",
    "country_id": 235,
    "country_code": "UY",
    "latitude": "-32.19987102",
    "longitude": "-53.83226285",
    "native": null,
    "timezone": "America/Montevideo",
    "translations": {}
  },
  {
    "id": 162178,
    "name": "Fraile Muerto",
    "state_id": 3211,
    "state_code": "CL",
    "country_id": 235,
    "country_code": "UY",
    "latitude": "-32.51400139",
    "longitude": "-54.52784566",
    "native": null,
    "timezone": "America/Montevideo",
    "translations": {}
  },
  {
    "id": 163527,
    "name": "Ganen",
    "state_id": 3211,
    "state_code": "CL",
    "country_id": 235,
    "country_code": "UY",
    "latitude": "-32.64242912",
    "longitude": "-54.43276423",
    "native": null,
    "timezone": "America/Montevideo",
    "translations": {}
  },
  {
    "id": 163488,
    "name": "Garao",
    "state_id": 3211,
    "state_code": "CL",
    "country_id": 235,
    "country_code": "UY",
    "latitude": "-32.70869099",
    "longitude": "-53.67818267",
    "native": null,
    "timezone": "America/Montevideo",
    "translations": {}
  },
  {
    "id": 163495,
    "name": "Granja de Acegua",
    "state_id": 3211,
    "state_code": "CL",
    "country_id": 235,
    "country_code": "UY",
    "latitude": "-31.86727902",
    "longitude": "-54.17151042",
    "native": null,
    "timezone": "America/Montevideo",
    "translations": {}
  },
  {
    "id": 163509,
    "name": "Granja Pallero",
    "state_id": 3211,
    "state_code": "CL",
    "country_id": 235,
    "country_code": "UY",
    "latitude": "-32.39534194",
    "longitude": "-54.23729230",
    "native": null,
    "timezone": "America/Montevideo",
    "translations": {}
  },
  {
    "id": 163518,
    "name": "Guazunambi",
    "state_id": 3211,
    "state_code": "CL",
    "country_id": 235,
    "country_code": "UY",
    "latitude": "-32.61179517",
    "longitude": "-54.28960282",
    "native": null,
    "timezone": "America/Montevideo",
    "translations": {}
  },
  {
    "id": 162340,
    "name": "Hipodromo",
    "state_id": 3211,
    "state_code": "CL",
    "country_id": 235,
    "country_code": "UY",
    "latitude": "-32.37282891",
    "longitude": "-54.19330991",
    "native": null,
    "timezone": "America/Montevideo",
    "translations": {}
  },
  {
    "id": 163515,
    "name": "Infiernillo",
    "state_id": 3211,
    "state_code": "CL",
    "country_id": 235,
    "country_code": "UY",
    "latitude": "-32.54882110",
    "longitude": "-54.28919064",
    "native": null,
    "timezone": "America/Montevideo",
    "translations": {}
  },
  {
    "id": 129808,
    "name": "Isidoro Noblía",
    "state_id": 3211,
    "state_code": "CL",
    "country_id": 235,
    "country_code": "UY",
    "latitude": "-31.96218000",
    "longitude": "-54.12309000",
    "native": null,
    "timezone": "America/Montevideo",
    "translations": {}
  },
  {
    "id": 163458,
    "name": "La Coronilla",
    "state_id": 3211,
    "state_code": "CL",
    "country_id": 235,
    "country_code": "UY",
    "latitude": "-32.60428262",
    "longitude": "-53.32975077",
    "native": null,
    "timezone": "America/Montevideo",
    "translations": {}
  },
  {
    "id": 163473,
    "name": "La Gloria",
    "state_id": 3211,
    "state_code": "CL",
    "country_id": 235,
    "country_code": "UY",
    "latitude": "-32.10149537",
    "longitude": "-53.74283817",
    "native": null,
    "timezone": "America/Montevideo",
    "translations": {}
  },
  {
    "id": 163484,
    "name": "La Micaela",
    "state_id": 3211,
    "state_code": "CL",
    "country_id": 235,
    "country_code": "UY",
    "latitude": "-32.60346848",
    "longitude": "-53.89633298",
    "native": null,
    "timezone": "America/Montevideo",
    "translations": {}
  },
  {
    "id": 163493,
    "name": "La Mina",
    "state_id": 3211,
    "state_code": "CL",
    "country_id": 235,
    "country_code": "UY",
    "latitude": "-31.94383644",
    "longitude": "-54.02251961",
    "native": null,
    "timezone": "America/Montevideo",
    "translations": {}
  },
  {
    "id": 162515,
    "name": "La Pedrera",
    "state_id": 3211,
    "state_code": "CL",
    "country_id": 235,
    "country_code": "UY",
    "latitude": "-32.38717324",
    "longitude": "-54.08315913",
    "native": null,
    "timezone": "America/Montevideo",
    "translations": {}
  },
  {
    "id": 162378,
    "name": "Lago Merin",
    "state_id": 3211,
    "state_code": "CL",
    "country_id": 235,
    "country_code": "UY",
    "latitude": "-32.74157149",
    "longitude": "-53.26178380",
    "native": null,
    "timezone": "America/Montevideo",
    "translations": {}
  },
  {
    "id": 163533,
    "name": "Laguna del Junco",
    "state_id": 3211,
    "state_code": "CL",
    "country_id": 235,
    "country_code": "UY",
    "latitude": "-32.73722004",
    "longitude": "-54.90416877",
    "native": null,
    "timezone": "America/Montevideo",
    "translations": {}
  },
  {
    "id": 163530,
    "name": "Las Limas",
    "state_id": 3211,
    "state_code": "CL",
    "country_id": 235,
    "country_code": "UY",
    "latitude": "-32.70915263",
    "longitude": "-54.49901957",
    "native": null,
    "timezone": "America/Montevideo",
    "translations": {}
  },
  {
    "id": 163521,
    "name": "Los Cerros",
    "state_id": 3211,
    "state_code": "CL",
    "country_id": 235,
    "country_code": "UY",
    "latitude": "-32.38372863",
    "longitude": "-54.60038975",
    "native": null,
    "timezone": "America/Montevideo",
    "translations": {}
  },
  {
    "id": 162430,
    "name": "Mangrullo",
    "state_id": 3211,
    "state_code": "CL",
    "country_id": 235,
    "country_code": "UY",
    "latitude": "-32.09056385",
    "longitude": "-54.04636946",
    "native": null,
    "timezone": "America/Montevideo",
    "translations": {}
  },
  {
    "id": 163465,
    "name": "Maria Isabel",
    "state_id": 3211,
    "state_code": "CL",
    "country_id": 235,
    "country_code": "UY",
    "latitude": "-31.92403429",
    "longitude": "-53.98042726",
    "native": null,
    "timezone": "America/Montevideo",
    "translations": {}
  },
  {
    "id": 163520,
    "name": "Mazangano",
    "state_id": 3211,
    "state_code": "CL",
    "country_id": 235,
    "country_code": "UY",
    "latitude": "-32.12311929",
    "longitude": "-54.62988565",
    "native": null,
    "timezone": "America/Montevideo",
    "translations": {}
  },
  {
    "id": 129827,
    "name": "Melo",
    "state_id": 3211,
    "state_code": "CL",
    "country_id": 235,
    "country_code": "UY",
    "latitude": "-32.37028000",
    "longitude": "-54.16750000",
    "native": null,
    "timezone": "America/Montevideo",
    "translations": {}
  },
  {
    "id": 163490,
    "name": "Minuano de Acegua",
    "state_id": 3211,
    "state_code": "CL",
    "country_id": 235,
    "country_code": "UY",
    "latitude": "-31.83043628",
    "longitude": "-54.22028240",
    "native": null,
    "timezone": "America/Montevideo",
    "translations": {}
  },
  {
    "id": 163491,
    "name": "Misterio",
    "state_id": 3211,
    "state_code": "CL",
    "country_id": 235,
    "country_code": "UY",
    "latitude": "-31.85810922",
    "longitude": "-54.22849779",
    "native": null,
    "timezone": "America/Montevideo",
    "translations": {}
  },
  {
    "id": 163475,
    "name": "Montecito",
    "state_id": 3211,
    "state_code": "CL",
    "country_id": 235,
    "country_code": "UY",
    "latitude": "-32.34566242",
    "longitude": "-53.90816949",
    "native": null,
    "timezone": "America/Montevideo",
    "translations": {}
  },
  {
    "id": 162522,
    "name": "Nando",
    "state_id": 3211,
    "state_code": "CL",
    "country_id": 235,
    "country_code": "UY",
    "latitude": "-32.17413000",
    "longitude": "-54.08451906",
    "native": null,
    "timezone": "America/Montevideo",
    "translations": {}
  },
  {
    "id": 162541,
    "name": "Ñangapire",
    "state_id": 3211,
    "state_code": "CL",
    "country_id": 235,
    "country_code": "UY",
    "latitude": "-32.51564823",
    "longitude": "-54.13085588",
    "native": null,
    "timezone": "America/Montevideo",
    "translations": {}
  },
  {
    "id": 163496,
    "name": "Panteon",
    "state_id": 3211,
    "state_code": "CL",
    "country_id": 235,
    "country_code": "UY",
    "latitude": "-31.91151831",
    "longitude": "-54.14757928",
    "native": null,
    "timezone": "America/Montevideo",
    "translations": {}
  },
  {
    "id": 163513,
    "name": "Paso de la Cruz",
    "state_id": 3211,
    "state_code": "CL",
    "country_id": 235,
    "country_code": "UY",
    "latitude": "-32.46458407",
    "longitude": "-54.17796156",
    "native": null,
    "timezone": "America/Montevideo",
    "translations": {}
  },
  {
    "id": 163505,
    "name": "Paso de las Tropas",
    "state_id": 3211,
    "state_code": "CL",
    "country_id": 235,
    "country_code": "UY",
    "latitude": "-32.30037117",
    "longitude": "-54.17849910",
    "native": null,
    "timezone": "America/Montevideo",
    "translations": {}
  },
  {
    "id": 163489,
    "name": "Paso de las Yeguas",
    "state_id": 3211,
    "state_code": "CL",
    "country_id": 235,
    "country_code": "UY",
    "latitude": "-31.83074275",
    "longitude": "-54.32359699",
    "native": null,
    "timezone": "America/Montevideo",
    "translations": {}
  },
  {
    "id": 163524,
    "name": "Paso de los Carros",
    "state_id": 3211,
    "state_code": "CL",
    "country_id": 235,
    "country_code": "UY",
    "latitude": "-32.53317345",
    "longitude": "-54.38687856",
    "native": null,
    "timezone": "America/Montevideo",
    "translations": {}
  },
  {
    "id": 163466,
    "name": "Paso Melo",
    "state_id": 3211,
    "state_code": "CL",
    "country_id": 235,
    "country_code": "UY",
    "latitude": "-32.01482765",
    "longitude": "-53.85875494",
    "native": null,
    "timezone": "America/Montevideo",
    "translations": {}
  },
  {
    "id": 163534,
    "name": "Paso Pereira",
    "state_id": 3211,
    "state_code": "CL",
    "country_id": 235,
    "country_code": "UY",
    "latitude": "-32.46987386",
    "longitude": "-55.20489683",
    "native": null,
    "timezone": "America/Montevideo",
    "translations": {}
  },
  {
    "id": 163874,
    "name": "Peñarol",
    "state_id": 3211,
    "state_code": "CL",
    "country_id": 235,
    "country_code": "UY",
    "latitude": "-31.77992866",
    "longitude": "-54.28982035",
    "native": null,
    "timezone": "America/Montevideo",
    "translations": {}
  },
  {
    "id": 163454,
    "name": "Picada de Maya",
    "state_id": 3211,
    "state_code": "CL",
    "country_id": 235,
    "country_code": "UY",
    "latitude": "-32.48040600",
    "longitude": "-53.55461212",
    "native": null,
    "timezone": "America/Montevideo",
    "translations": {}
  },
  {
    "id": 163463,
    "name": "Picada de Salome",
    "state_id": 3211,
    "state_code": "CL",
    "country_id": 235,
    "country_code": "UY",
    "latitude": "-32.74376301",
    "longitude": "-53.56806035",
    "native": null,
    "timezone": "America/Montevideo",
    "translations": {}
  },
  {
    "id": 163535,
    "name": "Piedra Alta",
    "state_id": 3211,
    "state_code": "CL",
    "country_id": 235,
    "country_code": "UY",
    "latitude": "-32.55109254",
    "longitude": "-55.17613650",
    "native": null,
    "timezone": "America/Montevideo",
    "translations": {}
  },
  {
    "id": 163876,
    "name": "Piñeiro",
    "state_id": 3211,
    "state_code": "CL",
    "country_id": 235,
    "country_code": "UY",
    "latitude": "-32.62420866",
    "longitude": "-54.77422684",
    "native": null,
    "timezone": "America/Montevideo",
    "translations": {}
  },
  {
    "id": 162544,
    "name": "Placido Rosas",
    "state_id": 3211,
    "state_code": "CL",
    "country_id": 235,
    "country_code": "UY",
    "latitude": "-32.75605702",
    "longitude": "-53.71664911",
    "native": null,
    "timezone": "America/Montevideo",
    "translations": {}
  },
  {
    "id": 162398,
    "name": "Poblado Uruguay",
    "state_id": 3211,
    "state_code": "CL",
    "country_id": 235,
    "country_code": "UY",
    "latitude": "-32.50551362",
    "longitude": "-53.50398151",
    "native": null,
    "timezone": "America/Montevideo",
    "translations": {}
  },
  {
    "id": 162319,
    "name": "Presidente Doctor Getulio Vargas",
    "state_id": 3211,
    "state_code": "CL",
    "country_id": 235,
    "country_code": "UY",
    "latitude": "-32.67934008",
    "longitude": "-53.54868698",
    "native": null,
    "timezone": "America/Montevideo",
    "translations": {}
  },
  {
    "id": 163503,
    "name": "Puente Negro",
    "state_id": 3211,
    "state_code": "CL",
    "country_id": 235,
    "country_code": "UY",
    "latitude": "-32.25284849",
    "longitude": "-54.10741446",
    "native": null,
    "timezone": "America/Montevideo",
    "translations": {}
  },
  {
    "id": 163478,
    "name": "Puntas de Amarillo",
    "state_id": 3211,
    "state_code": "CL",
    "country_id": 235,
    "country_code": "UY",
    "latitude": "-32.45778546",
    "longitude": "-53.93805269",
    "native": null,
    "timezone": "America/Montevideo",
    "translations": {}
  },
  {
    "id": 163492,
    "name": "Puntas de la Mina",
    "state_id": 3211,
    "state_code": "CL",
    "country_id": 235,
    "country_code": "UY",
    "latitude": "-31.92825711",
    "longitude": "-54.12902291",
    "native": null,
    "timezone": "America/Montevideo",
    "translations": {}
  },
  {
    "id": 162322,
    "name": "Puntas de Molles",
    "state_id": 3211,
    "state_code": "CL",
    "country_id": 235,
    "country_code": "UY",
    "latitude": "-32.12320469",
    "longitude": "-54.31668033",
    "native": null,
    "timezone": "America/Montevideo",
    "translations": {}
  },
  {
    "id": 163501,
    "name": "Puntas de Palleros",
    "state_id": 3211,
    "state_code": "CL",
    "country_id": 235,
    "country_code": "UY",
    "latitude": "-32.24587822",
    "longitude": "-54.32450221",
    "native": null,
    "timezone": "America/Montevideo",
    "translations": {}
  },
  {
    "id": 163529,
    "name": "Puntas de Tacuari",
    "state_id": 3211,
    "state_code": "CL",
    "country_id": 235,
    "country_code": "UY",
    "latitude": "-32.69217510",
    "longitude": "-54.37596250",
    "native": null,
    "timezone": "America/Montevideo",
    "translations": {}
  },
  {
    "id": 163457,
    "name": "Puntas del Sauce",
    "state_id": 3211,
    "state_code": "CL",
    "country_id": 235,
    "country_code": "UY",
    "latitude": "-32.59542599",
    "longitude": "-53.56273064",
    "native": null,
    "timezone": "America/Montevideo",
    "translations": {}
  },
  {
    "id": 162374,
    "name": "Quebracho",
    "state_id": 3211,
    "state_code": "CL",
    "country_id": 235,
    "country_code": "UY",
    "latitude": "-32.62375814",
    "longitude": "-54.75210854",
    "native": null,
    "timezone": "America/Montevideo",
    "translations": {}
  },
  {
    "id": 162229,
    "name": "Ramon Trigo",
    "state_id": 3211,
    "state_code": "CL",
    "country_id": 235,
    "country_code": "UY",
    "latitude": "-32.34942308",
    "longitude": "-54.63712154",
    "native": null,
    "timezone": "America/Montevideo",
    "translations": {}
  },
  {
    "id": 163528,
    "name": "Rincon de Contreras",
    "state_id": 3211,
    "state_code": "CL",
    "country_id": 235,
    "country_code": "UY",
    "latitude": "-32.68669290",
    "longitude": "-54.42843119",
    "native": null,
    "timezone": "America/Montevideo",
    "translations": {}
  },
  {
    "id": 163522,
    "name": "Rincon de la Urbana",
    "state_id": 3211,
    "state_code": "CL",
    "country_id": 235,
    "country_code": "UY",
    "latitude": "-32.42199511",
    "longitude": "-54.68773639",
    "native": null,
    "timezone": "America/Montevideo",
    "translations": {}
  },
  {
    "id": 163483,
    "name": "Rincon de los Coroneles",
    "state_id": 3211,
    "state_code": "CL",
    "country_id": 235,
    "country_code": "UY",
    "latitude": "-32.59557032",
    "longitude": "-53.97205324",
    "native": null,
    "timezone": "America/Montevideo",
    "translations": {}
  },
  {
    "id": 163482,
    "name": "Rincon de los Olivera",
    "state_id": 3211,
    "state_code": "CL",
    "country_id": 235,
    "country_code": "UY",
    "latitude": "-32.54623607",
    "longitude": "-53.72023953",
    "native": null,
    "timezone": "America/Montevideo",
    "translations": {}
  },
  {
    "id": 163471,
    "name": "Rincon de Paiva",
    "state_id": 3211,
    "state_code": "CL",
    "country_id": 235,
    "country_code": "UY",
    "latitude": "-32.16465441",
    "longitude": "-53.74839307",
    "native": null,
    "timezone": "America/Montevideo",
    "translations": {}
  },
  {
    "id": 163526,
    "name": "Rincon de Py",
    "state_id": 3211,
    "state_code": "CL",
    "country_id": 235,
    "country_code": "UY",
    "latitude": "-32.56051726",
    "longitude": "-54.40360122",
    "native": null,
    "timezone": "America/Montevideo",
    "translations": {}
  },
  {
    "id": 163523,
    "name": "Rincon de Suarez",
    "state_id": 3211,
    "state_code": "CL",
    "country_id": 235,
    "country_code": "UY",
    "latitude": "-32.41587739",
    "longitude": "-54.65445766",
    "native": null,
    "timezone": "America/Montevideo",
    "translations": {}
  },
  {
    "id": 163487,
    "name": "Rincon de Tacuari",
    "state_id": 3211,
    "state_code": "CL",
    "country_id": 235,
    "country_code": "UY",
    "latitude": "-32.66916210",
    "longitude": "-53.91842268",
    "native": null,
    "timezone": "America/Montevideo",
    "translations": {}
  },
  {
    "id": 129856,
    "name": "Río Branco",
    "state_id": 3211,
    "state_code": "CL",
    "country_id": 235,
    "country_code": "UY",
    "latitude": "-32.59802000",
    "longitude": "-53.38583000",
    "native": null,
    "timezone": "America/Montevideo",
    "translations": {}
  },
  {
    "id": 163476,
    "name": "Rodriguez",
    "state_id": 3211,
    "state_code": "CL",
    "country_id": 235,
    "country_code": "UY",
    "latitude": "-32.37089415",
    "longitude": "-53.92934481",
    "native": null,
    "timezone": "America/Montevideo",
    "translations": {}
  },
  {
    "id": 163486,
    "name": "Saldañas",
    "state_id": 3211,
    "state_code": "CL",
    "country_id": 235,
    "country_code": "UY",
    "latitude": "-32.43912610",
    "longitude": "-53.78054428",
    "native": null,
    "timezone": "America/Montevideo",
    "translations": {}
  },
  {
    "id": 163467,
    "name": "San Diego",
    "state_id": 3211,
    "state_code": "CL",
    "country_id": 235,
    "country_code": "UY",
    "latitude": "-31.99686221",
    "longitude": "-53.95124714",
    "native": null,
    "timezone": "America/Montevideo",
    "translations": {}
  },
  {
    "id": 163460,
    "name": "San Servando",
    "state_id": 3211,
    "state_code": "CL",
    "country_id": 235,
    "country_code": "UY",
    "latitude": "-32.63004350",
    "longitude": "-53.34754527",
    "native": null,
    "timezone": "America/Montevideo",
    "translations": {}
  },
  {
    "id": 163516,
    "name": "Sanchez",
    "state_id": 3211,
    "state_code": "CL",
    "country_id": 235,
    "country_code": "UY",
    "latitude": "-32.56682131",
    "longitude": "-54.35000899",
    "native": null,
    "timezone": "America/Montevideo",
    "translations": {}
  },
  {
    "id": 163514,
    "name": "Santa Teresa",
    "state_id": 3211,
    "state_code": "CL",
    "country_id": 235,
    "country_code": "UY",
    "latitude": "-32.48033632",
    "longitude": "-54.29250835",
    "native": null,
    "timezone": "America/Montevideo",
    "translations": {}
  },
  {
    "id": 163497,
    "name": "Sarandi de Acegua",
    "state_id": 3211,
    "state_code": "CL",
    "country_id": 235,
    "country_code": "UY",
    "latitude": "-32.04930230",
    "longitude": "-54.19671924",
    "native": null,
    "timezone": "America/Montevideo",
    "translations": {}
  },
  {
    "id": 163479,
    "name": "Sarandi de Barcelo",
    "state_id": 3211,
    "state_code": "CL",
    "country_id": 235,
    "country_code": "UY",
    "latitude": "-32.49576173",
    "longitude": "-53.70292434",
    "native": null,
    "timezone": "America/Montevideo",
    "translations": {}
  },
  {
    "id": 163453,
    "name": "Sarandi de Yaguaron",
    "state_id": 3211,
    "state_code": "CL",
    "country_id": 235,
    "country_code": "UY",
    "latitude": "-32.43957885",
    "longitude": "-53.59615954",
    "native": null,
    "timezone": "America/Montevideo",
    "translations": {}
  },
  {
    "id": 163502,
    "name": "Sauce de Conventos",
    "state_id": 3211,
    "state_code": "CL",
    "country_id": 235,
    "country_code": "UY",
    "latitude": "-32.22869132",
    "longitude": "-54.16828583",
    "native": null,
    "timezone": "America/Montevideo",
    "translations": {}
  },
  {
    "id": 162697,
    "name": "Soto Goro",
    "state_id": 3211,
    "state_code": "CL",
    "country_id": 235,
    "country_code": "UY",
    "latitude": "-31.98886396",
    "longitude": "-54.10515033",
    "native": null,
    "timezone": "America/Montevideo",
    "translations": {}
  },
  {
    "id": 162204,
    "name": "Toledo",
    "state_id": 3211,
    "state_code": "CL",
    "country_id": 235,
    "country_code": "UY",
    "latitude": "-32.53053569",
    "longitude": "-54.52914866",
    "native": null,
    "timezone": "America/Montevideo",
    "translations": {}
  },
  {
    "id": 163504,
    "name": "Tres Boliches",
    "state_id": 3211,
    "state_code": "CL",
    "country_id": 235,
    "country_code": "UY",
    "latitude": "-32.28193211",
    "longitude": "-54.16280287",
    "native": null,
    "timezone": "America/Montevideo",
    "translations": {}
  },
  {
    "id": 162324,
    "name": "Tres Islas",
    "state_id": 3211,
    "state_code": "CL",
    "country_id": 235,
    "country_code": "UY",
    "latitude": "-32.51486530",
    "longitude": "-54.68643659",
    "native": null,
    "timezone": "America/Montevideo",
    "translations": {}
  },
  {
    "id": 129885,
    "name": "Tupambaé",
    "state_id": 3211,
    "state_code": "CL",
    "country_id": 235,
    "country_code": "UY",
    "latitude": "-32.83333000",
    "longitude": "-54.76667000",
    "native": null,
    "timezone": "America/Montevideo",
    "translations": {}
  },
  {
    "id": 163455,
    "name": "Uruguay",
    "state_id": 3211,
    "state_code": "CL",
    "country_id": 235,
    "country_code": "UY",
    "latitude": "-32.50683809",
    "longitude": "-53.50023735",
    "native": null,
    "timezone": "America/Montevideo",
    "translations": {}
  },
  {
    "id": 163511,
    "name": "Villa Viñoles",
    "state_id": 3211,
    "state_code": "CL",
    "country_id": 235,
    "country_code": "UY",
    "latitude": "-32.20458860",
    "longitude": "-54.01110186",
    "native": null,
    "timezone": "America/Montevideo",
    "translations": {}
  },
  {
    "id": 162463,
    "name": "Wenceslao Silvera",
    "state_id": 3211,
    "state_code": "CL",
    "country_id": 235,
    "country_code": "UY",
    "latitude": "-32.51747790",
    "longitude": "-54.53980100",
    "native": null,
    "timezone": "America/Montevideo",
    "translations": {}
  }
]