[
  {
    "id": 163397,
    "name": "Abrojal",
    "state_id": 3207,
    "state_code": "RV",
    "country_id": 235,
    "country_code": "UY",
    "latitude": "-31.80806627",
    "longitude": "-55.03014238",
    "native": null,
    "timezone": "America/Montevideo",
    "translations": {}
  },
  {
    "id": 163400,
    "name": "Alborada",
    "state_id": 3207,
    "state_code": "RV",
    "country_id": 235,
    "country_code": "UY",
    "latitude": "-31.81751385",
    "longitude": "-54.74525481",
    "native": null,
    "timezone": "America/Montevideo",
    "translations": {}
  },
  {
    "id": 162646,
    "name": "Amarillo",
    "state_id": 3207,
    "state_code": "RV",
    "country_id": 235,
    "country_code": "UY",
    "latitude": "-31.60508388",
    "longitude": "-55.10370941",
    "native": null,
    "timezone": "America/Montevideo",
    "translations": {}
  },
  {
    "id": 162636,
    "name": "Arroyo Blanco",
    "state_id": 3207,
    "state_code": "RV",
    "country_id": 235,
    "country_code": "UY",
    "latitude": "-31.63134935",
    "longitude": "-54.79211648",
    "native": null,
    "timezone": "America/Montevideo",
    "translations": {}
  },
  {
    "id": 162447,
    "name": "Arroyo Sauzal",
    "state_id": 3207,
    "state_code": "RV",
    "country_id": 235,
    "country_code": "UY",
    "latitude": "-30.91000943",
    "longitude": "-55.58716333",
    "native": null,
    "timezone": "America/Montevideo",
    "translations": {}
  },
  {
    "id": 163418,
    "name": "Ataques",
    "state_id": 3207,
    "state_code": "RV",
    "country_id": 235,
    "country_code": "UY",
    "latitude": "-31.20470981",
    "longitude": "-55.35965267",
    "native": null,
    "timezone": "America/Montevideo",
    "translations": {}
  },
  {
    "id": 163848,
    "name": "Bañado del Chaja",
    "state_id": 3207,
    "state_code": "RV",
    "country_id": 235,
    "country_code": "UY",
    "latitude": "-31.05872827",
    "longitude": "-55.52725555",
    "native": null,
    "timezone": "America/Montevideo",
    "translations": {}
  },
  {
    "id": 163447,
    "name": "Barra de Ataques",
    "state_id": 3207,
    "state_code": "RV",
    "country_id": 235,
    "country_code": "UY",
    "latitude": "-31.22205919",
    "longitude": "-55.45925730",
    "native": null,
    "timezone": "America/Montevideo",
    "translations": {}
  },
  {
    "id": 163914,
    "name": "Barrio Recreo",
    "state_id": 3207,
    "state_code": "RV",
    "country_id": 235,
    "country_code": "UY",
    "latitude": "-30.89307118",
    "longitude": "-55.57187783",
    "native": null,
    "timezone": "America/Montevideo",
    "translations": {}
  },
  {
    "id": 163416,
    "name": "Batovi",
    "state_id": 3207,
    "state_code": "RV",
    "country_id": 235,
    "country_code": "UY",
    "latitude": "-31.13250861",
    "longitude": "-55.40442672",
    "native": null,
    "timezone": "America/Montevideo",
    "translations": {}
  },
  {
    "id": 163405,
    "name": "Berruti",
    "state_id": 3207,
    "state_code": "RV",
    "country_id": 235,
    "country_code": "UY",
    "latitude": "-31.40783352",
    "longitude": "-55.24188596",
    "native": null,
    "timezone": "America/Montevideo",
    "translations": {}
  },
  {
    "id": 163409,
    "name": "Blanquillos",
    "state_id": 3207,
    "state_code": "RV",
    "country_id": 235,
    "country_code": "UY",
    "latitude": "-31.57690775",
    "longitude": "-55.24365834",
    "native": null,
    "timezone": "America/Montevideo",
    "translations": {}
  },
  {
    "id": 163413,
    "name": "Buena Orden Al Norte",
    "state_id": 3207,
    "state_code": "RV",
    "country_id": 235,
    "country_code": "UY",
    "latitude": "-31.70455959",
    "longitude": "-55.42281964",
    "native": null,
    "timezone": "America/Montevideo",
    "translations": {}
  },
  {
    "id": 163446,
    "name": "Buena Union",
    "state_id": 3207,
    "state_code": "RV",
    "country_id": 235,
    "country_code": "UY",
    "latitude": "-31.24667113",
    "longitude": "-55.66019844",
    "native": null,
    "timezone": "America/Montevideo",
    "translations": {}
  },
  {
    "id": 163417,
    "name": "Capon Alto",
    "state_id": 3207,
    "state_code": "RV",
    "country_id": 235,
    "country_code": "UY",
    "latitude": "-31.19404984",
    "longitude": "-55.28470058",
    "native": null,
    "timezone": "America/Montevideo",
    "translations": {}
  },
  {
    "id": 163399,
    "name": "Caraguata",
    "state_id": 3207,
    "state_code": "RV",
    "country_id": 235,
    "country_code": "UY",
    "latitude": "-31.83621487",
    "longitude": "-54.81603697",
    "native": null,
    "timezone": "America/Montevideo",
    "translations": {}
  },
  {
    "id": 162315,
    "name": "Carpinteria",
    "state_id": 3207,
    "state_code": "RV",
    "country_id": 235,
    "country_code": "UY",
    "latitude": "-31.78775328",
    "longitude": "-55.22413297",
    "native": null,
    "timezone": "America/Montevideo",
    "translations": {}
  },
  {
    "id": 162642,
    "name": "Cerrillada",
    "state_id": 3207,
    "state_code": "RV",
    "country_id": 235,
    "country_code": "UY",
    "latitude": "-31.43914237",
    "longitude": "-54.71414056",
    "native": null,
    "timezone": "America/Montevideo",
    "translations": {}
  },
  {
    "id": 163449,
    "name": "Cerro Alegre",
    "state_id": 3207,
    "state_code": "RV",
    "country_id": 235,
    "country_code": "UY",
    "latitude": "-31.30208355",
    "longitude": "-55.67628394",
    "native": null,
    "timezone": "America/Montevideo",
    "translations": {}
  },
  {
    "id": 163865,
    "name": "Cerro Blanco de Cuñapiru",
    "state_id": 3207,
    "state_code": "RV",
    "country_id": 235,
    "country_code": "UY",
    "latitude": "-31.50483926",
    "longitude": "-55.52186317",
    "native": null,
    "timezone": "America/Montevideo",
    "translations": {}
  },
  {
    "id": 163433,
    "name": "Cerro Caqueiro",
    "state_id": 3207,
    "state_code": "RV",
    "country_id": 235,
    "country_code": "UY",
    "latitude": "-30.90833990",
    "longitude": "-55.51272286",
    "native": null,
    "timezone": "America/Montevideo",
    "translations": {}
  },
  {
    "id": 163432,
    "name": "Cerro Chapeu",
    "state_id": 3207,
    "state_code": "RV",
    "country_id": 235,
    "country_code": "UY",
    "latitude": "-30.92955447",
    "longitude": "-55.50091609",
    "native": null,
    "timezone": "America/Montevideo",
    "translations": {}
  },
  {
    "id": 163396,
    "name": "Cerro Chato",
    "state_id": 3207,
    "state_code": "RV",
    "country_id": 235,
    "country_code": "UY",
    "latitude": "-31.74924492",
    "longitude": "-54.94450776",
    "native": null,
    "timezone": "America/Montevideo",
    "translations": {}
  },
  {
    "id": 162641,
    "name": "Cerro Pelado",
    "state_id": 3207,
    "state_code": "RV",
    "country_id": 235,
    "country_code": "UY",
    "latitude": "-31.47296861",
    "longitude": "-55.15692561",
    "native": null,
    "timezone": "America/Montevideo",
    "translations": {}
  },
  {
    "id": 163408,
    "name": "Cerro Pelado Al Este",
    "state_id": 3207,
    "state_code": "RV",
    "country_id": 235,
    "country_code": "UY",
    "latitude": "-31.53442369",
    "longitude": "-55.13753083",
    "native": null,
    "timezone": "America/Montevideo",
    "translations": {}
  },
  {
    "id": 163442,
    "name": "Cerro Solito",
    "state_id": 3207,
    "state_code": "RV",
    "country_id": 235,
    "country_code": "UY",
    "latitude": "-31.12501146",
    "longitude": "-55.56704055",
    "native": null,
    "timezone": "America/Montevideo",
    "translations": {}
  },
  {
    "id": 163393,
    "name": "Cerros Blancos",
    "state_id": 3207,
    "state_code": "RV",
    "country_id": 235,
    "country_code": "UY",
    "latitude": "-31.73449143",
    "longitude": "-54.76936363",
    "native": null,
    "timezone": "America/Montevideo",
    "translations": {}
  },
  {
    "id": 162146,
    "name": "Cerros de la Calera",
    "state_id": 3207,
    "state_code": "RV",
    "country_id": 235,
    "country_code": "UY",
    "latitude": "-31.39186411",
    "longitude": "-55.39084961",
    "native": null,
    "timezone": "America/Montevideo",
    "translations": {}
  },
  {
    "id": 163394,
    "name": "Chirca de Caraguata",
    "state_id": 3207,
    "state_code": "RV",
    "country_id": 235,
    "country_code": "UY",
    "latitude": "-31.75566804",
    "longitude": "-54.83772043",
    "native": null,
    "timezone": "America/Montevideo",
    "translations": {}
  },
  {
    "id": 163401,
    "name": "Coronilla",
    "state_id": 3207,
    "state_code": "RV",
    "country_id": 235,
    "country_code": "UY",
    "latitude": "-31.87368664",
    "longitude": "-54.77199962",
    "native": null,
    "timezone": "America/Montevideo",
    "translations": {}
  },
  {
    "id": 163407,
    "name": "Coronilla de Corrales",
    "state_id": 3207,
    "state_code": "RV",
    "country_id": 235,
    "country_code": "UY",
    "latitude": "-31.53579436",
    "longitude": "-55.35209732",
    "native": null,
    "timezone": "America/Montevideo",
    "translations": {}
  },
  {
    "id": 163426,
    "name": "Costas de Cuñapiru",
    "state_id": 3207,
    "state_code": "RV",
    "country_id": 235,
    "country_code": "UY",
    "latitude": "-31.45479193",
    "longitude": "-55.46839788",
    "native": null,
    "timezone": "America/Montevideo",
    "translations": {}
  },
  {
    "id": 163385,
    "name": "Cruz de San Pedro",
    "state_id": 3207,
    "state_code": "RV",
    "country_id": 235,
    "country_code": "UY",
    "latitude": "-31.37623872",
    "longitude": "-54.94289504",
    "native": null,
    "timezone": "America/Montevideo",
    "translations": {}
  },
  {
    "id": 163436,
    "name": "Cuchilla de Tres Cerros",
    "state_id": 3207,
    "state_code": "RV",
    "country_id": 235,
    "country_code": "UY",
    "latitude": "-31.02823908",
    "longitude": "-55.58870218",
    "native": null,
    "timezone": "America/Montevideo",
    "translations": {}
  },
  {
    "id": 163414,
    "name": "Cuchilla de Yaguari",
    "state_id": 3207,
    "state_code": "RV",
    "country_id": 235,
    "country_code": "UY",
    "latitude": "-31.74538175",
    "longitude": "-55.26915519",
    "native": null,
    "timezone": "America/Montevideo",
    "translations": {}
  },
  {
    "id": 163403,
    "name": "Cuchilla Mangueras",
    "state_id": 3207,
    "state_code": "RV",
    "country_id": 235,
    "country_code": "UY",
    "latitude": "-31.33785805",
    "longitude": "-55.39486439",
    "native": null,
    "timezone": "America/Montevideo",
    "translations": {}
  },
  {
    "id": 163868,
    "name": "Cuñapiru",
    "state_id": 3207,
    "state_code": "RV",
    "country_id": 235,
    "country_code": "UY",
    "latitude": "-31.71119026",
    "longitude": "-55.47307972",
    "native": null,
    "timezone": "America/Montevideo",
    "translations": {}
  },
  {
    "id": 163435,
    "name": "Curticeiras",
    "state_id": 3207,
    "state_code": "RV",
    "country_id": 235,
    "country_code": "UY",
    "latitude": "-30.97107287",
    "longitude": "-55.61237809",
    "native": null,
    "timezone": "America/Montevideo",
    "translations": {}
  },
  {
    "id": 163415,
    "name": "Curtume",
    "state_id": 3207,
    "state_code": "RV",
    "country_id": 235,
    "country_code": "UY",
    "latitude": "-31.75169843",
    "longitude": "-55.13775903",
    "native": null,
    "timezone": "America/Montevideo",
    "translations": {}
  },
  {
    "id": 163376,
    "name": "El Ceibo",
    "state_id": 3207,
    "state_code": "RV",
    "country_id": 235,
    "country_code": "UY",
    "latitude": "-31.59653899",
    "longitude": "-54.59365267",
    "native": null,
    "timezone": "America/Montevideo",
    "translations": {}
  },
  {
    "id": 163379,
    "name": "El Palmito",
    "state_id": 3207,
    "state_code": "RV",
    "country_id": 235,
    "country_code": "UY",
    "latitude": "-31.84976107",
    "longitude": "-54.54668775",
    "native": null,
    "timezone": "America/Montevideo",
    "translations": {}
  },
  {
    "id": 163387,
    "name": "Guaviyu",
    "state_id": 3207,
    "state_code": "RV",
    "country_id": 235,
    "country_code": "UY",
    "latitude": "-31.44180603",
    "longitude": "-54.83832156",
    "native": null,
    "timezone": "America/Montevideo",
    "translations": {}
  },
  {
    "id": 162434,
    "name": "Hospital",
    "state_id": 3207,
    "state_code": "RV",
    "country_id": 235,
    "country_code": "UY",
    "latitude": "-31.65359637",
    "longitude": "-54.62053179",
    "native": null,
    "timezone": "America/Montevideo",
    "translations": {}
  },
  {
    "id": 163388,
    "name": "La Caillava",
    "state_id": 3207,
    "state_code": "RV",
    "country_id": 235,
    "country_code": "UY",
    "latitude": "-31.53691402",
    "longitude": "-55.06625036",
    "native": null,
    "timezone": "America/Montevideo",
    "translations": {}
  },
  {
    "id": 163886,
    "name": "La Calera",
    "state_id": 3207,
    "state_code": "RV",
    "country_id": 235,
    "country_code": "UY",
    "latitude": "-31.44976766",
    "longitude": "-55.41659377",
    "native": null,
    "timezone": "America/Montevideo",
    "translations": {}
  },
  {
    "id": 163392,
    "name": "La Cerrillada",
    "state_id": 3207,
    "state_code": "RV",
    "country_id": 235,
    "country_code": "UY",
    "latitude": "-31.71942432",
    "longitude": "-54.81841223",
    "native": null,
    "timezone": "America/Montevideo",
    "translations": {}
  },
  {
    "id": 163383,
    "name": "La Chilca",
    "state_id": 3207,
    "state_code": "RV",
    "country_id": 235,
    "country_code": "UY",
    "latitude": "-32.04957063",
    "longitude": "-54.62602910",
    "native": null,
    "timezone": "America/Montevideo",
    "translations": {}
  },
  {
    "id": 163450,
    "name": "La Palma",
    "state_id": 3207,
    "state_code": "RV",
    "country_id": 235,
    "country_code": "UY",
    "latitude": "-31.17636024",
    "longitude": "-55.88195445",
    "native": null,
    "timezone": "America/Montevideo",
    "translations": {}
  },
  {
    "id": 162215,
    "name": "La Pedrera",
    "state_id": 3207,
    "state_code": "RV",
    "country_id": 235,
    "country_code": "UY",
    "latitude": "-30.93361307",
    "longitude": "-55.54570550",
    "native": null,
    "timezone": "America/Montevideo",
    "translations": {}
  },
  {
    "id": 162630,
    "name": "Lagos del Norte",
    "state_id": 3207,
    "state_code": "RV",
    "country_id": 235,
    "country_code": "UY",
    "latitude": "-30.98324820",
    "longitude": "-55.49688459",
    "native": null,
    "timezone": "America/Montevideo",
    "translations": {}
  },
  {
    "id": 162645,
    "name": "Lagunon",
    "state_id": 3207,
    "state_code": "RV",
    "country_id": 235,
    "country_code": "UY",
    "latitude": "-30.87980681",
    "longitude": "-55.58169171",
    "native": null,
    "timezone": "America/Montevideo",
    "translations": {}
  },
  {
    "id": 162640,
    "name": "Las Flores",
    "state_id": 3207,
    "state_code": "RV",
    "country_id": 235,
    "country_code": "UY",
    "latitude": "-31.78251819",
    "longitude": "-55.19194277",
    "native": null,
    "timezone": "America/Montevideo",
    "translations": {}
  },
  {
    "id": 163412,
    "name": "Laureles",
    "state_id": 3207,
    "state_code": "RV",
    "country_id": 235,
    "country_code": "UY",
    "latitude": "-31.65604986",
    "longitude": "-55.42143492",
    "native": null,
    "timezone": "America/Montevideo",
    "translations": {}
  },
  {
    "id": 163439,
    "name": "Los Potreros",
    "state_id": 3207,
    "state_code": "RV",
    "country_id": 235,
    "country_code": "UY",
    "latitude": "-31.06787731",
    "longitude": "-55.78512088",
    "native": null,
    "timezone": "America/Montevideo",
    "translations": {}
  },
  {
    "id": 163451,
    "name": "Lunarejo",
    "state_id": 3207,
    "state_code": "RV",
    "country_id": 235,
    "country_code": "UY",
    "latitude": "-31.22080908",
    "longitude": "-55.88633639",
    "native": null,
    "timezone": "America/Montevideo",
    "translations": {}
  },
  {
    "id": 162644,
    "name": "Mandubi",
    "state_id": 3207,
    "state_code": "RV",
    "country_id": 235,
    "country_code": "UY",
    "latitude": "-30.92619403",
    "longitude": "-55.55599742",
    "native": null,
    "timezone": "America/Montevideo",
    "translations": {}
  },
  {
    "id": 162316,
    "name": "Manuel Diaz",
    "state_id": 3207,
    "state_code": "RV",
    "country_id": 235,
    "country_code": "UY",
    "latitude": "-31.54462669",
    "longitude": "-55.66412944",
    "native": null,
    "timezone": "America/Montevideo",
    "translations": {}
  },
  {
    "id": 162206,
    "name": "Masoller",
    "state_id": 3207,
    "state_code": "RV",
    "country_id": 235,
    "country_code": "UY",
    "latitude": "-31.08394756",
    "longitude": "-56.00099640",
    "native": null,
    "timezone": "America/Montevideo",
    "translations": {}
  },
  {
    "id": 129831,
    "name": "Minas de Corrales",
    "state_id": 3207,
    "state_code": "RV",
    "country_id": 235,
    "country_code": "UY",
    "latitude": "-31.57375000",
    "longitude": "-55.47075000",
    "native": null,
    "timezone": "America/Montevideo",
    "translations": {}
  },
  {
    "id": 163427,
    "name": "Minas de Cuñapiru (Usinas)",
    "state_id": 3207,
    "state_code": "RV",
    "country_id": 235,
    "country_code": "UY",
    "latitude": "-31.52496883",
    "longitude": "-55.59095715",
    "native": null,
    "timezone": "America/Montevideo",
    "translations": {}
  },
  {
    "id": 163411,
    "name": "Minas de Zapucay",
    "state_id": 3207,
    "state_code": "RV",
    "country_id": 235,
    "country_code": "UY",
    "latitude": "-31.66524100",
    "longitude": "-55.33809029",
    "native": null,
    "timezone": "America/Montevideo",
    "translations": {}
  },
  {
    "id": 162262,
    "name": "Moirones",
    "state_id": 3207,
    "state_code": "RV",
    "country_id": 235,
    "country_code": "UY",
    "latitude": "-31.60412227",
    "longitude": "-54.98319154",
    "native": null,
    "timezone": "America/Montevideo",
    "translations": {}
  },
  {
    "id": 163441,
    "name": "Parada Medina",
    "state_id": 3207,
    "state_code": "RV",
    "country_id": 235,
    "country_code": "UY",
    "latitude": "-31.13548513",
    "longitude": "-55.63929504",
    "native": null,
    "timezone": "America/Montevideo",
    "translations": {}
  },
  {
    "id": 163410,
    "name": "Paso Amarillo",
    "state_id": 3207,
    "state_code": "RV",
    "country_id": 235,
    "country_code": "UY",
    "latitude": "-31.63652891",
    "longitude": "-55.14937894",
    "native": null,
    "timezone": "America/Montevideo",
    "translations": {}
  },
  {
    "id": 162639,
    "name": "Paso Ataques",
    "state_id": 3207,
    "state_code": "RV",
    "country_id": 235,
    "country_code": "UY",
    "latitude": "-31.20493677",
    "longitude": "-55.35916146",
    "native": null,
    "timezone": "America/Montevideo",
    "translations": {}
  },
  {
    "id": 163948,
    "name": "Paso Casildo",
    "state_id": 3207,
    "state_code": "RV",
    "country_id": 235,
    "country_code": "UY",
    "latitude": "-31.81953801",
    "longitude": "-55.18150540",
    "native": null,
    "timezone": "America/Montevideo",
    "translations": {}
  },
  {
    "id": 163381,
    "name": "Paso de Arriera",
    "state_id": 3207,
    "state_code": "RV",
    "country_id": 235,
    "country_code": "UY",
    "latitude": "-31.97959231",
    "longitude": "-54.56225690",
    "native": null,
    "timezone": "America/Montevideo",
    "translations": {}
  },
  {
    "id": 163438,
    "name": "Paso de Ataques",
    "state_id": 3207,
    "state_code": "RV",
    "country_id": 235,
    "country_code": "UY",
    "latitude": "-31.09367516",
    "longitude": "-55.68395515",
    "native": null,
    "timezone": "America/Montevideo",
    "translations": {}
  },
  {
    "id": 163377,
    "name": "Paso de Frontera",
    "state_id": 3207,
    "state_code": "RV",
    "country_id": 235,
    "country_code": "UY",
    "latitude": "-31.51744146",
    "longitude": "-54.51838078",
    "native": null,
    "timezone": "America/Montevideo",
    "translations": {}
  },
  {
    "id": 163422,
    "name": "Paso de Gaire",
    "state_id": 3207,
    "state_code": "RV",
    "country_id": 235,
    "country_code": "UY",
    "latitude": "-31.37480449",
    "longitude": "-55.65683946",
    "native": null,
    "timezone": "America/Montevideo",
    "translations": {}
  },
  {
    "id": 163448,
    "name": "Paso de la Arena",
    "state_id": 3207,
    "state_code": "RV",
    "country_id": 235,
    "country_code": "UY",
    "latitude": "-31.25564796",
    "longitude": "-55.70999443",
    "native": null,
    "timezone": "America/Montevideo",
    "translations": {}
  },
  {
    "id": 163421,
    "name": "Paso de la Calera",
    "state_id": 3207,
    "state_code": "RV",
    "country_id": 235,
    "country_code": "UY",
    "latitude": "-31.33873574",
    "longitude": "-55.47234860",
    "native": null,
    "timezone": "America/Montevideo",
    "translations": {}
  },
  {
    "id": 162381,
    "name": "Paso del Lagunon",
    "state_id": 3207,
    "state_code": "RV",
    "country_id": 235,
    "country_code": "UY",
    "latitude": "-30.88822739",
    "longitude": "-55.60093525",
    "native": null,
    "timezone": "America/Montevideo",
    "translations": {}
  },
  {
    "id": 163378,
    "name": "Paso del Puerto",
    "state_id": 3207,
    "state_code": "RV",
    "country_id": 235,
    "country_code": "UY",
    "latitude": "-31.80349880",
    "longitude": "-54.70708449",
    "native": null,
    "timezone": "America/Montevideo",
    "translations": {}
  },
  {
    "id": 163419,
    "name": "Paso del Tapado",
    "state_id": 3207,
    "state_code": "RV",
    "country_id": 235,
    "country_code": "UY",
    "latitude": "-31.24572515",
    "longitude": "-55.36418844",
    "native": null,
    "timezone": "America/Montevideo",
    "translations": {}
  },
  {
    "id": 162216,
    "name": "Paso Lapuente",
    "state_id": 3207,
    "state_code": "RV",
    "country_id": 235,
    "country_code": "UY",
    "latitude": "-31.47301430",
    "longitude": "-54.96686994",
    "native": null,
    "timezone": "America/Montevideo",
    "translations": {}
  },
  {
    "id": 162317,
    "name": "Paso Serpa",
    "state_id": 3207,
    "state_code": "RV",
    "country_id": 235,
    "country_code": "UY",
    "latitude": "-31.03276193",
    "longitude": "-55.50338084",
    "native": null,
    "timezone": "America/Montevideo",
    "translations": {}
  },
  {
    "id": 163452,
    "name": "Piedras Blancas",
    "state_id": 3207,
    "state_code": "RV",
    "country_id": 235,
    "country_code": "UY",
    "latitude": "-31.25498002",
    "longitude": "-55.89164478",
    "native": null,
    "timezone": "America/Montevideo",
    "translations": {}
  },
  {
    "id": 163434,
    "name": "Platon",
    "state_id": 3207,
    "state_code": "RV",
    "country_id": 235,
    "country_code": "UY",
    "latitude": "-30.99365727",
    "longitude": "-55.68781494",
    "native": null,
    "timezone": "America/Montevideo",
    "translations": {}
  },
  {
    "id": 163382,
    "name": "Pueblo de los Santos",
    "state_id": 3207,
    "state_code": "RV",
    "country_id": 235,
    "country_code": "UY",
    "latitude": "-32.01790127",
    "longitude": "-54.58219518",
    "native": null,
    "timezone": "America/Montevideo",
    "translations": {}
  },
  {
    "id": 163398,
    "name": "Pueblo Socorro",
    "state_id": 3207,
    "state_code": "RV",
    "country_id": 235,
    "country_code": "UY",
    "latitude": "-31.80434132",
    "longitude": "-54.83596676",
    "native": null,
    "timezone": "America/Montevideo",
    "translations": {}
  },
  {
    "id": 163395,
    "name": "Puntas de Abrojal",
    "state_id": 3207,
    "state_code": "RV",
    "country_id": 235,
    "country_code": "UY",
    "latitude": "-31.79144986",
    "longitude": "-54.87633781",
    "native": null,
    "timezone": "America/Montevideo",
    "translations": {}
  },
  {
    "id": 163420,
    "name": "Puntas de Corrales",
    "state_id": 3207,
    "state_code": "RV",
    "country_id": 235,
    "country_code": "UY",
    "latitude": "-31.28828710",
    "longitude": "-55.16761975",
    "native": null,
    "timezone": "America/Montevideo",
    "translations": {}
  },
  {
    "id": 163437,
    "name": "Puntas de Cuñapiru",
    "state_id": 3207,
    "state_code": "RV",
    "country_id": 235,
    "country_code": "UY",
    "latitude": "-30.86514247",
    "longitude": "-55.61551709",
    "native": null,
    "timezone": "America/Montevideo",
    "translations": {}
  },
  {
    "id": 163445,
    "name": "Puntas del Sauzal",
    "state_id": 3207,
    "state_code": "RV",
    "country_id": 235,
    "country_code": "UY",
    "latitude": "-31.17944834",
    "longitude": "-55.79393801",
    "native": null,
    "timezone": "America/Montevideo",
    "translations": {}
  },
  {
    "id": 163402,
    "name": "Puntas del Yaguari",
    "state_id": 3207,
    "state_code": "RV",
    "country_id": 235,
    "country_code": "UY",
    "latitude": "-31.31536135",
    "longitude": "-55.05156004",
    "native": null,
    "timezone": "America/Montevideo",
    "translations": {}
  },
  {
    "id": 163390,
    "name": "Rincon de Amarillo",
    "state_id": 3207,
    "state_code": "RV",
    "country_id": 235,
    "country_code": "UY",
    "latitude": "-31.67637820",
    "longitude": "-55.07317959",
    "native": null,
    "timezone": "America/Montevideo",
    "translations": {}
  },
  {
    "id": 163423,
    "name": "Rincon de Diniz",
    "state_id": 3207,
    "state_code": "RV",
    "country_id": 235,
    "country_code": "UY",
    "latitude": "-31.38938856",
    "longitude": "-55.73262295",
    "native": null,
    "timezone": "America/Montevideo",
    "translations": {}
  },
  {
    "id": 163430,
    "name": "Rincon de los Castillos",
    "state_id": 3207,
    "state_code": "RV",
    "country_id": 235,
    "country_code": "UY",
    "latitude": "-31.61426247",
    "longitude": "-55.45475327",
    "native": null,
    "timezone": "America/Montevideo",
    "translations": {}
  },
  {
    "id": 163440,
    "name": "Rincon de Moraes",
    "state_id": 3207,
    "state_code": "RV",
    "country_id": 235,
    "country_code": "UY",
    "latitude": "-31.13469363",
    "longitude": "-55.74989071",
    "native": null,
    "timezone": "America/Montevideo",
    "translations": {}
  },
  {
    "id": 163389,
    "name": "Rincon de Rodriguez",
    "state_id": 3207,
    "state_code": "RV",
    "country_id": 235,
    "country_code": "UY",
    "latitude": "-31.63481587",
    "longitude": "-54.96984241",
    "native": null,
    "timezone": "America/Montevideo",
    "translations": {}
  },
  {
    "id": 163424,
    "name": "Rincon de Roland",
    "state_id": 3207,
    "state_code": "RV",
    "country_id": 235,
    "country_code": "UY",
    "latitude": "-31.47935375",
    "longitude": "-55.56309501",
    "native": null,
    "timezone": "America/Montevideo",
    "translations": {}
  },
  {
    "id": 163431,
    "name": "Rincon de Tres Cerros",
    "state_id": 3207,
    "state_code": "RV",
    "country_id": 235,
    "country_code": "UY",
    "latitude": "-31.73534945",
    "longitude": "-55.55082404",
    "native": null,
    "timezone": "America/Montevideo",
    "translations": {}
  },
  {
    "id": 163391,
    "name": "Rincon de Yaguari",
    "state_id": 3207,
    "state_code": "RV",
    "country_id": 235,
    "country_code": "UY",
    "latitude": "-31.69172711",
    "longitude": "-55.04657746",
    "native": null,
    "timezone": "America/Montevideo",
    "translations": {}
  },
  {
    "id": 129852,
    "name": "Rivera",
    "state_id": 3207,
    "state_code": "RV",
    "country_id": 235,
    "country_code": "UY",
    "latitude": "-30.90534000",
    "longitude": "-55.55076000",
    "native": null,
    "timezone": "America/Montevideo",
    "translations": {}
  },
  {
    "id": 163429,
    "name": "San Gregorio",
    "state_id": 3207,
    "state_code": "RV",
    "country_id": 235,
    "country_code": "UY",
    "latitude": "-31.58348159",
    "longitude": "-55.48385552",
    "native": null,
    "timezone": "America/Montevideo",
    "translations": {}
  },
  {
    "id": 163425,
    "name": "Santa Ernestina",
    "state_id": 3207,
    "state_code": "RV",
    "country_id": 235,
    "country_code": "UY",
    "latitude": "-31.54094519",
    "longitude": "-55.55211516",
    "native": null,
    "timezone": "America/Montevideo",
    "translations": {}
  },
  {
    "id": 163840,
    "name": "Santa Isabel",
    "state_id": 3207,
    "state_code": "RV",
    "country_id": 235,
    "country_code": "UY",
    "latitude": "-30.91331857",
    "longitude": "-55.56462389",
    "native": null,
    "timezone": "America/Montevideo",
    "translations": {}
  },
  {
    "id": 162638,
    "name": "Santa Teresa",
    "state_id": 3207,
    "state_code": "RV",
    "country_id": 235,
    "country_code": "UY",
    "latitude": "-30.91984831",
    "longitude": "-55.57334986",
    "native": null,
    "timezone": "America/Montevideo",
    "translations": {}
  },
  {
    "id": 163443,
    "name": "Sauce de Batovi",
    "state_id": 3207,
    "state_code": "RV",
    "country_id": 235,
    "country_code": "UY",
    "latitude": "-31.10699680",
    "longitude": "-55.47189259",
    "native": null,
    "timezone": "America/Montevideo",
    "translations": {}
  },
  {
    "id": 163444,
    "name": "Sauzal",
    "state_id": 3207,
    "state_code": "RV",
    "country_id": 235,
    "country_code": "UY",
    "latitude": "-31.15745100",
    "longitude": "-55.77492820",
    "native": null,
    "timezone": "America/Montevideo",
    "translations": {}
  },
  {
    "id": 163406,
    "name": "Segarra",
    "state_id": 3207,
    "state_code": "RV",
    "country_id": 235,
    "country_code": "UY",
    "latitude": "-31.47330017",
    "longitude": "-55.14898036",
    "native": null,
    "timezone": "America/Montevideo",
    "translations": {}
  },
  {
    "id": 129882,
    "name": "Tranqueras",
    "state_id": 3207,
    "state_code": "RV",
    "country_id": 235,
    "country_code": "UY",
    "latitude": "-31.20000000",
    "longitude": "-55.75000000",
    "native": null,
    "timezone": "America/Montevideo",
    "translations": {}
  },
  {
    "id": 163428,
    "name": "Tres Cerros",
    "state_id": 3207,
    "state_code": "RV",
    "country_id": 235,
    "country_code": "UY",
    "latitude": "-31.56292281",
    "longitude": "-55.64337658",
    "native": null,
    "timezone": "America/Montevideo",
    "translations": {}
  },
  {
    "id": 163841,
    "name": "Tres Cruces",
    "state_id": 3207,
    "state_code": "RV",
    "country_id": 235,
    "country_code": "UY",
    "latitude": "-30.87609996",
    "longitude": "-55.59069158",
    "native": null,
    "timezone": "America/Montevideo",
    "translations": {}
  },
  {
    "id": 163404,
    "name": "Tres Puentes",
    "state_id": 3207,
    "state_code": "RV",
    "country_id": 235,
    "country_code": "UY",
    "latitude": "-31.37579248",
    "longitude": "-55.24958110",
    "native": null,
    "timezone": "America/Montevideo",
    "translations": {}
  },
  {
    "id": 129888,
    "name": "Vichadero",
    "state_id": 3207,
    "state_code": "RV",
    "country_id": 235,
    "country_code": "UY",
    "latitude": "-31.77794000",
    "longitude": "-54.69183000",
    "native": null,
    "timezone": "America/Montevideo",
    "translations": {}
  },
  {
    "id": 163384,
    "name": "Villa Indart",
    "state_id": 3207,
    "state_code": "RV",
    "country_id": 235,
    "country_code": "UY",
    "latitude": "-31.33613164",
    "longitude": "-55.06390558",
    "native": null,
    "timezone": "America/Montevideo",
    "translations": {}
  },
  {
    "id": 163386,
    "name": "Yaguari",
    "state_id": 3207,
    "state_code": "RV",
    "country_id": 235,
    "country_code": "UY",
    "latitude": "-31.44987852",
    "longitude": "-54.98685819",
    "native": null,
    "timezone": "America/Montevideo",
    "translations": {}
  },
  {
    "id": 163380,
    "name": "Zanja Honda",
    "state_id": 3207,
    "state_code": "RV",
    "country_id": 235,
    "country_code": "UY",
    "latitude": "-31.89282309",
    "longitude": "-54.66731767",
    "native": null,
    "timezone": "America/Montevideo",
    "translations": {}
  },
  {
    "id": 162318,
    "name": "Zanja Honda de Tranqueras",
    "state_id": 3207,
    "state_code": "RV",
    "country_id": 235,
    "country_code": "UY",
    "latitude": "-31.22654114",
    "longitude": "-55.69503534",
    "native": null,
    "timezone": "America/Montevideo",
    "translations": {}
  }
]