[
  {
    "id": 163541,
    "name": "Acosta",
    "state_id": 3214,
    "state_code": "TT",
    "country_id": 235,
    "country_code": "UY",
    "latitude": "-33.24348049",
    "longitude": "-53.84443486",
    "native": null,
    "timezone": "America/Montevideo",
    "translations": {}
  },
  {
    "id": 163562,
    "name": "Arrayanes de Cebollati",
    "state_id": 3214,
    "state_code": "TT",
    "country_id": 235,
    "country_code": "UY",
    "latitude": "-33.34380535",
    "longitude": "-54.11057163",
    "native": null,
    "timezone": "America/Montevideo",
    "translations": {}
  },
  {
    "id": 163560,
    "name": "Arrayanes de Corral de Cebollati",
    "state_id": 3214,
    "state_code": "TT",
    "country_id": 235,
    "country_code": "UY",
    "latitude": "-33.35473469",
    "longitude": "-54.16202342",
    "native": null,
    "timezone": "America/Montevideo",
    "translations": {}
  },
  {
    "id": 162501,
    "name": "Arrocera Bonomo",
    "state_id": 3214,
    "state_code": "TT",
    "country_id": 235,
    "country_code": "UY",
    "latitude": "-33.14957590",
    "longitude": "-53.93372182",
    "native": null,
    "timezone": "America/Montevideo",
    "translations": {}
  },
  {
    "id": 162279,
    "name": "Arrocera el Tigre",
    "state_id": 3214,
    "state_code": "TT",
    "country_id": 235,
    "country_code": "UY",
    "latitude": "-32.97237939",
    "longitude": "-53.63911655",
    "native": null,
    "timezone": "America/Montevideo",
    "translations": {}
  },
  {
    "id": 162280,
    "name": "Arrocera la Catumbera",
    "state_id": 3214,
    "state_code": "TT",
    "country_id": 235,
    "country_code": "UY",
    "latitude": "-32.83177137",
    "longitude": "-53.38433193",
    "native": null,
    "timezone": "America/Montevideo",
    "translations": {}
  },
  {
    "id": 162281,
    "name": "Arrocera la Querencia",
    "state_id": 3214,
    "state_code": "TT",
    "country_id": 235,
    "country_code": "UY",
    "latitude": "-32.86263449",
    "longitude": "-53.37344126",
    "native": null,
    "timezone": "America/Montevideo",
    "translations": {}
  },
  {
    "id": 162532,
    "name": "Arrocera las Palmas",
    "state_id": 3214,
    "state_code": "TT",
    "country_id": 235,
    "country_code": "UY",
    "latitude": "-33.09922785",
    "longitude": "-53.99122178",
    "native": null,
    "timezone": "America/Montevideo",
    "translations": {}
  },
  {
    "id": 162692,
    "name": "Arrocera los Ceibos",
    "state_id": 3214,
    "state_code": "TT",
    "country_id": 235,
    "country_code": "UY",
    "latitude": "-32.95326728",
    "longitude": "-53.56413510",
    "native": null,
    "timezone": "America/Montevideo",
    "translations": {}
  },
  {
    "id": 162687,
    "name": "Arrocera los Teros",
    "state_id": 3214,
    "state_code": "TT",
    "country_id": 235,
    "country_code": "UY",
    "latitude": "-33.15001128",
    "longitude": "-53.92354363",
    "native": null,
    "timezone": "America/Montevideo",
    "translations": {}
  },
  {
    "id": 162535,
    "name": "Arrocera Mini",
    "state_id": 3214,
    "state_code": "TT",
    "country_id": 235,
    "country_code": "UY",
    "latitude": "-32.95851610",
    "longitude": "-53.63504867",
    "native": null,
    "timezone": "America/Montevideo",
    "translations": {}
  },
  {
    "id": 162538,
    "name": "Arrocera Procipa",
    "state_id": 3214,
    "state_code": "TT",
    "country_id": 235,
    "country_code": "UY",
    "latitude": "-33.25301859",
    "longitude": "-53.90484651",
    "native": null,
    "timezone": "America/Montevideo",
    "translations": {}
  },
  {
    "id": 162694,
    "name": "Arrocera Rincon",
    "state_id": 3214,
    "state_code": "TT",
    "country_id": 235,
    "country_code": "UY",
    "latitude": "-32.78962641",
    "longitude": "-53.49323647",
    "native": null,
    "timezone": "America/Montevideo",
    "translations": {}
  },
  {
    "id": 162225,
    "name": "Arrocera San Fernando",
    "state_id": 3214,
    "state_code": "TT",
    "country_id": 235,
    "country_code": "UY",
    "latitude": "-32.80259697",
    "longitude": "-53.41397898",
    "native": null,
    "timezone": "America/Montevideo",
    "translations": {}
  },
  {
    "id": 162695,
    "name": "Arrocera Santa Fe",
    "state_id": 3214,
    "state_code": "TT",
    "country_id": 235,
    "country_code": "UY",
    "latitude": "-33.12435058",
    "longitude": "-54.05904085",
    "native": null,
    "timezone": "America/Montevideo",
    "translations": {}
  },
  {
    "id": 162696,
    "name": "Arrocera Zapata",
    "state_id": 3214,
    "state_code": "TT",
    "country_id": 235,
    "country_code": "UY",
    "latitude": "-32.86319638",
    "longitude": "-53.61722385",
    "native": null,
    "timezone": "America/Montevideo",
    "translations": {}
  },
  {
    "id": 162326,
    "name": "Arrozal Treinta y Tres",
    "state_id": 3214,
    "state_code": "TT",
    "country_id": 235,
    "country_code": "UY",
    "latitude": "-33.04187278",
    "longitude": "-53.69632496",
    "native": null,
    "timezone": "America/Montevideo",
    "translations": {}
  },
  {
    "id": 163572,
    "name": "Avestruz Chico",
    "state_id": 3214,
    "state_code": "TT",
    "country_id": 235,
    "country_code": "UY",
    "latitude": "-33.06977344",
    "longitude": "-54.66082809",
    "native": null,
    "timezone": "America/Montevideo",
    "translations": {}
  },
  {
    "id": 163849,
    "name": "Bañado de Oro",
    "state_id": 3214,
    "state_code": "TT",
    "country_id": 235,
    "country_code": "UY",
    "latitude": "-33.07484631",
    "longitude": "-54.04324201",
    "native": null,
    "timezone": "America/Montevideo",
    "translations": {}
  },
  {
    "id": 163574,
    "name": "Barrio Abreu",
    "state_id": 3214,
    "state_code": "TT",
    "country_id": 235,
    "country_code": "UY",
    "latitude": "-33.25886341",
    "longitude": "-54.36520664",
    "native": null,
    "timezone": "America/Montevideo",
    "translations": {}
  },
  {
    "id": 163855,
    "name": "Cañada Chica",
    "state_id": 3214,
    "state_code": "TT",
    "country_id": 235,
    "country_code": "UY",
    "latitude": "-33.31993264",
    "longitude": "-53.97787544",
    "native": null,
    "timezone": "America/Montevideo",
    "translations": {}
  },
  {
    "id": 163561,
    "name": "Cañada de las Piedras",
    "state_id": 3214,
    "state_code": "TT",
    "country_id": 235,
    "country_code": "UY",
    "latitude": "-33.17293056",
    "longitude": "-54.34972111",
    "native": null,
    "timezone": "America/Montevideo",
    "translations": {}
  },
  {
    "id": 163858,
    "name": "Cañada del Sauce",
    "state_id": 3214,
    "state_code": "TT",
    "country_id": 235,
    "country_code": "UY",
    "latitude": "-33.17543485",
    "longitude": "-54.38221066",
    "native": null,
    "timezone": "America/Montevideo",
    "translations": {}
  },
  {
    "id": 162417,
    "name": "Cerro Chato",
    "state_id": 3214,
    "state_code": "TT",
    "country_id": 235,
    "country_code": "UY",
    "latitude": "-33.10296059",
    "longitude": "-55.13351442",
    "native": null,
    "timezone": "America/Montevideo",
    "translations": {}
  },
  {
    "id": 162327,
    "name": "Cerro Pelado",
    "state_id": 3214,
    "state_code": "TT",
    "country_id": 235,
    "country_code": "UY",
    "latitude": "-32.95729701",
    "longitude": "-54.35076719",
    "native": null,
    "timezone": "America/Montevideo",
    "translations": {}
  },
  {
    "id": 163544,
    "name": "Cerros de Amaro",
    "state_id": 3214,
    "state_code": "TT",
    "country_id": 235,
    "country_code": "UY",
    "latitude": "-32.91046747",
    "longitude": "-54.28884174",
    "native": null,
    "timezone": "America/Montevideo",
    "translations": {}
  },
  {
    "id": 163563,
    "name": "Cipa Cebollati",
    "state_id": 3214,
    "state_code": "TT",
    "country_id": 235,
    "country_code": "UY",
    "latitude": "-33.39163911",
    "longitude": "-54.12725877",
    "native": null,
    "timezone": "America/Montevideo",
    "translations": {}
  },
  {
    "id": 163540,
    "name": "Cipa Olimar",
    "state_id": 3214,
    "state_code": "TT",
    "country_id": 235,
    "country_code": "UY",
    "latitude": "-33.23261814",
    "longitude": "-53.90497680",
    "native": null,
    "timezone": "America/Montevideo",
    "translations": {}
  },
  {
    "id": 163539,
    "name": "Cipa Secador",
    "state_id": 3214,
    "state_code": "TT",
    "country_id": 235,
    "country_code": "UY",
    "latitude": "-33.20603563",
    "longitude": "-53.89927995",
    "native": null,
    "timezone": "America/Montevideo",
    "translations": {}
  },
  {
    "id": 163579,
    "name": "Corrales de Cebollati",
    "state_id": 3214,
    "state_code": "TT",
    "country_id": 235,
    "country_code": "UY",
    "latitude": "-33.40193605",
    "longitude": "-54.55840135",
    "native": null,
    "timezone": "America/Montevideo",
    "translations": {}
  },
  {
    "id": 163536,
    "name": "Costas de Tacuari",
    "state_id": 3214,
    "state_code": "TT",
    "country_id": 235,
    "country_code": "UY",
    "latitude": "-32.81966600",
    "longitude": "-53.60088078",
    "native": null,
    "timezone": "America/Montevideo",
    "translations": {}
  },
  {
    "id": 163576,
    "name": "Costas del Arroyo Malo",
    "state_id": 3214,
    "state_code": "TT",
    "country_id": 235,
    "country_code": "UY",
    "latitude": "-33.16419503",
    "longitude": "-54.52148275",
    "native": null,
    "timezone": "America/Montevideo",
    "translations": {}
  },
  {
    "id": 163803,
    "name": "Costas del Sarandi",
    "state_id": 3214,
    "state_code": "TT",
    "country_id": 235,
    "country_code": "UY",
    "latitude": "-32.92617430",
    "longitude": "-53.93327895",
    "native": null,
    "timezone": "America/Montevideo",
    "translations": {}
  },
  {
    "id": 163543,
    "name": "Cuchilla de Dionisio",
    "state_id": 3214,
    "state_code": "TT",
    "country_id": 235,
    "country_code": "UY",
    "latitude": "-32.87063141",
    "longitude": "-54.28290809",
    "native": null,
    "timezone": "America/Montevideo",
    "translations": {}
  },
  {
    "id": 163546,
    "name": "Cuchilla de Olmos",
    "state_id": 3214,
    "state_code": "TT",
    "country_id": 235,
    "country_code": "UY",
    "latitude": "-32.93535914",
    "longitude": "-54.10248853",
    "native": null,
    "timezone": "America/Montevideo",
    "translations": {}
  },
  {
    "id": 162293,
    "name": "Ejido de Treinta y Tres",
    "state_id": 3214,
    "state_code": "TT",
    "country_id": 235,
    "country_code": "UY",
    "latitude": "-33.21582816",
    "longitude": "-54.37454976",
    "native": null,
    "timezone": "America/Montevideo",
    "translations": {}
  },
  {
    "id": 162294,
    "name": "El Bellaco",
    "state_id": 3214,
    "state_code": "TT",
    "country_id": 235,
    "country_code": "UY",
    "latitude": "-33.43733423",
    "longitude": "-54.55119255",
    "native": null,
    "timezone": "America/Montevideo",
    "translations": {}
  },
  {
    "id": 163581,
    "name": "El Carmen",
    "state_id": 3214,
    "state_code": "TT",
    "country_id": 235,
    "country_code": "UY",
    "latitude": "-33.10420770",
    "longitude": "-54.91308296",
    "native": null,
    "timezone": "America/Montevideo",
    "translations": {}
  },
  {
    "id": 163550,
    "name": "El Catete",
    "state_id": 3214,
    "state_code": "TT",
    "country_id": 235,
    "country_code": "UY",
    "latitude": "-32.95309854",
    "longitude": "-54.13629034",
    "native": null,
    "timezone": "America/Montevideo",
    "translations": {}
  },
  {
    "id": 162479,
    "name": "General Enrique Martinez - La Charqueada",
    "state_id": 3214,
    "state_code": "TT",
    "country_id": 235,
    "country_code": "UY",
    "latitude": "-33.20289200",
    "longitude": "-53.80625613",
    "native": null,
    "timezone": "America/Montevideo",
    "translations": {}
  },
  {
    "id": 163548,
    "name": "Higuerones",
    "state_id": 3214,
    "state_code": "TT",
    "country_id": 235,
    "country_code": "UY",
    "latitude": "-32.94840837",
    "longitude": "-54.28540295",
    "native": null,
    "timezone": "America/Montevideo",
    "translations": {}
  },
  {
    "id": 163553,
    "name": "Julio Maria Sanz",
    "state_id": 3214,
    "state_code": "TT",
    "country_id": 235,
    "country_code": "UY",
    "latitude": "-33.16563596",
    "longitude": "-54.16433093",
    "native": null,
    "timezone": "America/Montevideo",
    "translations": {}
  },
  {
    "id": 163549,
    "name": "La Calavera",
    "state_id": 3214,
    "state_code": "TT",
    "country_id": 235,
    "country_code": "UY",
    "latitude": "-32.94496311",
    "longitude": "-54.18132477",
    "native": null,
    "timezone": "America/Montevideo",
    "translations": {}
  },
  {
    "id": 163577,
    "name": "La Calera",
    "state_id": 3214,
    "state_code": "TT",
    "country_id": 235,
    "country_code": "UY",
    "latitude": "-33.19830661",
    "longitude": "-54.38106015",
    "native": null,
    "timezone": "America/Montevideo",
    "translations": {}
  },
  {
    "id": 163542,
    "name": "La Lata",
    "state_id": 3214,
    "state_code": "TT",
    "country_id": 235,
    "country_code": "UY",
    "latitude": "-32.74994825",
    "longitude": "-54.23527331",
    "native": null,
    "timezone": "America/Montevideo",
    "translations": {}
  },
  {
    "id": 163556,
    "name": "Las Chacras",
    "state_id": 3214,
    "state_code": "TT",
    "country_id": 235,
    "country_code": "UY",
    "latitude": "-33.23627538",
    "longitude": "-54.35603364",
    "native": null,
    "timezone": "America/Montevideo",
    "translations": {}
  },
  {
    "id": 163582,
    "name": "Las Pavas",
    "state_id": 3214,
    "state_code": "TT",
    "country_id": 235,
    "country_code": "UY",
    "latitude": "-33.18271079",
    "longitude": "-54.97713274",
    "native": null,
    "timezone": "America/Montevideo",
    "translations": {}
  },
  {
    "id": 163559,
    "name": "Lechiguana de Corrales",
    "state_id": 3214,
    "state_code": "TT",
    "country_id": 235,
    "country_code": "UY",
    "latitude": "-33.35660627",
    "longitude": "-54.21982539",
    "native": null,
    "timezone": "America/Montevideo",
    "translations": {}
  },
  {
    "id": 163554,
    "name": "Los Ceibos",
    "state_id": 3214,
    "state_code": "TT",
    "country_id": 235,
    "country_code": "UY",
    "latitude": "-33.18185132",
    "longitude": "-54.22047931",
    "native": null,
    "timezone": "America/Montevideo",
    "translations": {}
  },
  {
    "id": 162693,
    "name": "Maria Albina",
    "state_id": 3214,
    "state_code": "TT",
    "country_id": 235,
    "country_code": "UY",
    "latitude": "-33.38976139",
    "longitude": "-54.67904171",
    "native": null,
    "timezone": "America/Montevideo",
    "translations": {}
  },
  {
    "id": 162473,
    "name": "Maria Isabel",
    "state_id": 3214,
    "state_code": "TT",
    "country_id": 235,
    "country_code": "UY",
    "latitude": "-32.99291159",
    "longitude": "-54.56144978",
    "native": null,
    "timezone": "America/Montevideo",
    "translations": {}
  },
  {
    "id": 163571,
    "name": "Mate Dulce",
    "state_id": 3214,
    "state_code": "TT",
    "country_id": 235,
    "country_code": "UY",
    "latitude": "-33.06681621",
    "longitude": "-54.60013638",
    "native": null,
    "timezone": "America/Montevideo",
    "translations": {}
  },
  {
    "id": 162478,
    "name": "Mendizabal",
    "state_id": 3214,
    "state_code": "TT",
    "country_id": 235,
    "country_code": "UY",
    "latitude": "-33.05266608",
    "longitude": "-54.15571782",
    "native": null,
    "timezone": "America/Montevideo",
    "translations": {}
  },
  {
    "id": 163578,
    "name": "Molles de Olimar",
    "state_id": 3214,
    "state_code": "TT",
    "country_id": 235,
    "country_code": "UY",
    "latitude": "-33.31467819",
    "longitude": "-54.56246163",
    "native": null,
    "timezone": "America/Montevideo",
    "translations": {}
  },
  {
    "id": 163587,
    "name": "Noques de Olimar Chico",
    "state_id": 3214,
    "state_code": "TT",
    "country_id": 235,
    "country_code": "UY",
    "latitude": "-33.33049677",
    "longitude": "-54.90919344",
    "native": null,
    "timezone": "America/Montevideo",
    "translations": {}
  },
  {
    "id": 163558,
    "name": "Olimar Grande",
    "state_id": 3214,
    "state_code": "TT",
    "country_id": 235,
    "country_code": "UY",
    "latitude": "-33.31363137",
    "longitude": "-54.32454489",
    "native": null,
    "timezone": "America/Montevideo",
    "translations": {}
  },
  {
    "id": 162328,
    "name": "Palo a Pique",
    "state_id": 3214,
    "state_code": "TT",
    "country_id": 235,
    "country_code": "UY",
    "latitude": "-33.27326425",
    "longitude": "-54.56798971",
    "native": null,
    "timezone": "America/Montevideo",
    "translations": {}
  },
  {
    "id": 163547,
    "name": "Panteon",
    "state_id": 3214,
    "state_code": "TT",
    "country_id": 235,
    "country_code": "UY",
    "latitude": "-33.38534445",
    "longitude": "-54.68476229",
    "native": null,
    "timezone": "America/Montevideo",
    "translations": {}
  },
  {
    "id": 163555,
    "name": "Paso Ancho",
    "state_id": 3214,
    "state_code": "TT",
    "country_id": 235,
    "country_code": "UY",
    "latitude": "-33.21393998",
    "longitude": "-54.34191142",
    "native": null,
    "timezone": "America/Montevideo",
    "translations": {}
  },
  {
    "id": 163586,
    "name": "Paso de Averias",
    "state_id": 3214,
    "state_code": "TT",
    "country_id": 235,
    "country_code": "UY",
    "latitude": "-33.21995898",
    "longitude": "-54.96958910",
    "native": null,
    "timezone": "America/Montevideo",
    "translations": {}
  },
  {
    "id": 163584,
    "name": "Paso de la Atahona",
    "state_id": 3214,
    "state_code": "TT",
    "country_id": 235,
    "country_code": "UY",
    "latitude": "-33.19427478",
    "longitude": "-54.85294849",
    "native": null,
    "timezone": "America/Montevideo",
    "translations": {}
  },
  {
    "id": 163557,
    "name": "Paso de la Laguna",
    "state_id": 3214,
    "state_code": "TT",
    "country_id": 235,
    "country_code": "UY",
    "latitude": "-33.29760037",
    "longitude": "-54.18520573",
    "native": null,
    "timezone": "America/Montevideo",
    "translations": {}
  },
  {
    "id": 163537,
    "name": "Paso de Piriz",
    "state_id": 3214,
    "state_code": "TT",
    "country_id": 235,
    "country_code": "UY",
    "latitude": "-33.00099496",
    "longitude": "-53.87315031",
    "native": null,
    "timezone": "America/Montevideo",
    "translations": {}
  },
  {
    "id": 163564,
    "name": "Paso del Sauce",
    "state_id": 3214,
    "state_code": "TT",
    "country_id": 235,
    "country_code": "UY",
    "latitude": "-33.40160209",
    "longitude": "-54.24491847",
    "native": null,
    "timezone": "America/Montevideo",
    "translations": {}
  },
  {
    "id": 162507,
    "name": "Poblado Alonzo",
    "state_id": 3214,
    "state_code": "TT",
    "country_id": 235,
    "country_code": "UY",
    "latitude": "-33.17712104",
    "longitude": "-54.35190750",
    "native": null,
    "timezone": "America/Montevideo",
    "translations": {}
  },
  {
    "id": 163545,
    "name": "Puntas de Leoncho",
    "state_id": 3214,
    "state_code": "TT",
    "country_id": 235,
    "country_code": "UY",
    "latitude": "-32.92780008",
    "longitude": "-54.22316296",
    "native": null,
    "timezone": "America/Montevideo",
    "translations": {}
  },
  {
    "id": 163552,
    "name": "Puntas de los Ceibos",
    "state_id": 3214,
    "state_code": "TT",
    "country_id": 235,
    "country_code": "UY",
    "latitude": "-33.13001685",
    "longitude": "-54.28362681",
    "native": null,
    "timezone": "America/Montevideo",
    "translations": {}
  },
  {
    "id": 163565,
    "name": "Puntas de Quebracho",
    "state_id": 3214,
    "state_code": "TT",
    "country_id": 235,
    "country_code": "UY",
    "latitude": "-32.79941559",
    "longitude": "-54.52058170",
    "native": null,
    "timezone": "America/Montevideo",
    "translations": {}
  },
  {
    "id": 163551,
    "name": "Puntas del Oro",
    "state_id": 3214,
    "state_code": "TT",
    "country_id": 235,
    "country_code": "UY",
    "latitude": "-33.02967703",
    "longitude": "-54.26473989",
    "native": null,
    "timezone": "America/Montevideo",
    "translations": {}
  },
  {
    "id": 162278,
    "name": "Puntas del Parao",
    "state_id": 3214,
    "state_code": "TT",
    "country_id": 235,
    "country_code": "UY",
    "latitude": "-32.72551900",
    "longitude": "-54.37847384",
    "native": null,
    "timezone": "America/Montevideo",
    "translations": {}
  },
  {
    "id": 162370,
    "name": "Rincon",
    "state_id": 3214,
    "state_code": "TT",
    "country_id": 235,
    "country_code": "UY",
    "latitude": "-32.83144324",
    "longitude": "-53.82714276",
    "native": null,
    "timezone": "America/Montevideo",
    "translations": {}
  },
  {
    "id": 163583,
    "name": "Rincon de Gadea",
    "state_id": 3214,
    "state_code": "TT",
    "country_id": 235,
    "country_code": "UY",
    "latitude": "-33.18346573",
    "longitude": "-54.73730176",
    "native": null,
    "timezone": "America/Montevideo",
    "translations": {}
  },
  {
    "id": 163569,
    "name": "Rincon de Iguini",
    "state_id": 3214,
    "state_code": "TT",
    "country_id": 235,
    "country_code": "UY",
    "latitude": "-33.03749019",
    "longitude": "-54.53271372",
    "native": null,
    "timezone": "America/Montevideo",
    "translations": {}
  },
  {
    "id": 163573,
    "name": "Rincon de los Francos",
    "state_id": 3214,
    "state_code": "TT",
    "country_id": 235,
    "country_code": "UY",
    "latitude": "-33.17514786",
    "longitude": "-54.61430754",
    "native": null,
    "timezone": "America/Montevideo",
    "translations": {}
  },
  {
    "id": 163570,
    "name": "Rincon de Quintana",
    "state_id": 3214,
    "state_code": "TT",
    "country_id": 235,
    "country_code": "UY",
    "latitude": "-33.06077715",
    "longitude": "-54.43050944",
    "native": null,
    "timezone": "America/Montevideo",
    "translations": {}
  },
  {
    "id": 163585,
    "name": "Rincon de Urtubey",
    "state_id": 3214,
    "state_code": "TT",
    "country_id": 235,
    "country_code": "UY",
    "latitude": "-33.27574422",
    "longitude": "-54.84958284",
    "native": null,
    "timezone": "America/Montevideo",
    "translations": {}
  },
  {
    "id": 129868,
    "name": "Santa Clara de Olimar",
    "state_id": 3214,
    "state_code": "TT",
    "country_id": 235,
    "country_code": "UY",
    "latitude": "-32.92254000",
    "longitude": "-54.94447000",
    "native": null,
    "timezone": "America/Montevideo",
    "translations": {}
  },
  {
    "id": 163580,
    "name": "Sauce de Corrales",
    "state_id": 3214,
    "state_code": "TT",
    "country_id": 235,
    "country_code": "UY",
    "latitude": "-33.40749398",
    "longitude": "-54.48372163",
    "native": null,
    "timezone": "America/Montevideo",
    "translations": {}
  },
  {
    "id": 163567,
    "name": "Sierra del Yerbal",
    "state_id": 3214,
    "state_code": "TT",
    "country_id": 235,
    "country_code": "UY",
    "latitude": "-32.86922985",
    "longitude": "-54.51080403",
    "native": null,
    "timezone": "America/Montevideo",
    "translations": {}
  },
  {
    "id": 163538,
    "name": "Siete Casas",
    "state_id": 3214,
    "state_code": "TT",
    "country_id": 235,
    "country_code": "UY",
    "latitude": "-33.03153121",
    "longitude": "-53.70863899",
    "native": null,
    "timezone": "America/Montevideo",
    "translations": {}
  },
  {
    "id": 129883,
    "name": "Treinta y Tres",
    "state_id": 3214,
    "state_code": "TT",
    "country_id": 235,
    "country_code": "UY",
    "latitude": "-33.23333000",
    "longitude": "-54.38333000",
    "native": null,
    "timezone": "America/Montevideo",
    "translations": {}
  },
  {
    "id": 162472,
    "name": "Tupambae",
    "state_id": 3214,
    "state_code": "TT",
    "country_id": 235,
    "country_code": "UY",
    "latitude": "-32.83507761",
    "longitude": "-54.76129308",
    "native": null,
    "timezone": "America/Montevideo",
    "translations": {}
  },
  {
    "id": 162249,
    "name": "Valentines",
    "state_id": 3214,
    "state_code": "TT",
    "country_id": 235,
    "country_code": "UY",
    "latitude": "-33.25942799",
    "longitude": "-55.10330357",
    "native": null,
    "timezone": "America/Montevideo",
    "translations": {}
  },
  {
    "id": 163575,
    "name": "Verde Alto",
    "state_id": 3214,
    "state_code": "TT",
    "country_id": 235,
    "country_code": "UY",
    "latitude": "-33.15905575",
    "longitude": "-54.43555596",
    "native": null,
    "timezone": "America/Montevideo",
    "translations": {}
  },
  {
    "id": 129887,
    "name": "Vergara",
    "state_id": 3214,
    "state_code": "TT",
    "country_id": 235,
    "country_code": "UY",
    "latitude": "-32.94419000",
    "longitude": "-53.93810000",
    "native": null,
    "timezone": "America/Montevideo",
    "translations": {}
  },
  {
    "id": 162483,
    "name": "Villa Passano",
    "state_id": 3214,
    "state_code": "TT",
    "country_id": 235,
    "country_code": "UY",
    "latitude": "-33.29200127",
    "longitude": "-53.90125110",
    "native": null,
    "timezone": "America/Montevideo",
    "translations": {}
  },
  {
    "id": 129890,
    "name": "Villa Sara",
    "state_id": 3214,
    "state_code": "TT",
    "country_id": 235,
    "country_code": "UY",
    "latitude": "-33.25340000",
    "longitude": "-54.41947000",
    "native": null,
    "timezone": "America/Montevideo",
    "translations": {}
  },
  {
    "id": 163566,
    "name": "Yerbal Chico",
    "state_id": 3214,
    "state_code": "TT",
    "country_id": 235,
    "country_code": "UY",
    "latitude": "-32.86764829",
    "longitude": "-54.44568924",
    "native": null,
    "timezone": "America/Montevideo",
    "translations": {}
  },
  {
    "id": 163568,
    "name": "Yerbalito",
    "state_id": 3214,
    "state_code": "TT",
    "country_id": 235,
    "country_code": "UY",
    "latitude": "-32.90365411",
    "longitude": "-54.38441403",
    "native": null,
    "timezone": "America/Montevideo",
    "translations": {}
  }
]