[
  {
    "id": 162584,
    "name": "Achar",
    "state_id": 3221,
    "state_code": "TA",
    "country_id": 235,
    "country_code": "UY",
    "latitude": "-32.40562023",
    "longitude": "-56.18107157",
    "native": null,
    "timezone": "America/Montevideo",
    "translations": {}
  },
  {
    "id": 162762,
    "name": "Arroyo del Medio",
    "state_id": 3221,
    "state_code": "TA",
    "country_id": 235,
    "country_code": "UY",
    "latitude": "-32.36726740",
    "longitude": "-56.14356915",
    "native": null,
    "timezone": "America/Montevideo",
    "translations": {}
  },
  {
    "id": 162739,
    "name": "Ataque",
    "state_id": 3221,
    "state_code": "TA",
    "country_id": 235,
    "country_code": "UY",
    "latitude": "-31.66092628",
    "longitude": "-56.11371648",
    "native": null,
    "timezone": "America/Montevideo",
    "translations": {}
  },
  {
    "id": 162708,
    "name": "Balneario Ipora",
    "state_id": 3221,
    "state_code": "TA",
    "country_id": 235,
    "country_code": "UY",
    "latitude": "-31.66723044",
    "longitude": "-55.95998043",
    "native": null,
    "timezone": "America/Montevideo",
    "translations": {}
  },
  {
    "id": 163846,
    "name": "Bañado de Cañas",
    "state_id": 3221,
    "state_code": "TA",
    "country_id": 235,
    "country_code": "UY",
    "latitude": "-31.42192505",
    "longitude": "-55.98618591",
    "native": null,
    "timezone": "America/Montevideo",
    "translations": {}
  },
  {
    "id": 162740,
    "name": "Bañado de Rocha",
    "state_id": 3221,
    "state_code": "TA",
    "country_id": 235,
    "country_code": "UY",
    "latitude": "-31.58390597",
    "longitude": "-55.85808648",
    "native": null,
    "timezone": "America/Montevideo",
    "translations": {}
  },
  {
    "id": 163843,
    "name": "Barrio la Matutina",
    "state_id": 3221,
    "state_code": "TA",
    "country_id": 235,
    "country_code": "UY",
    "latitude": "-31.70433531",
    "longitude": "-56.01810616",
    "native": null,
    "timezone": "America/Montevideo",
    "translations": {}
  },
  {
    "id": 162751,
    "name": "Barrio Libertad",
    "state_id": 3221,
    "state_code": "TA",
    "country_id": 235,
    "country_code": "UY",
    "latitude": "-31.71463458",
    "longitude": "-56.01277457",
    "native": null,
    "timezone": "America/Montevideo",
    "translations": {}
  },
  {
    "id": 163926,
    "name": "Barrio Lopez",
    "state_id": 3221,
    "state_code": "TA",
    "country_id": 235,
    "country_code": "UY",
    "latitude": "-31.69711738",
    "longitude": "-55.96662787",
    "native": null,
    "timezone": "America/Montevideo",
    "translations": {}
  },
  {
    "id": 163927,
    "name": "Barrio Santangelo",
    "state_id": 3221,
    "state_code": "TA",
    "country_id": 235,
    "country_code": "UY",
    "latitude": "-31.73253438",
    "longitude": "-56.02685809",
    "native": null,
    "timezone": "America/Montevideo",
    "translations": {}
  },
  {
    "id": 163928,
    "name": "Barrio Torres",
    "state_id": 3221,
    "state_code": "TA",
    "country_id": 235,
    "country_code": "UY",
    "latitude": "-31.73575811",
    "longitude": "-55.98676055",
    "native": null,
    "timezone": "America/Montevideo",
    "translations": {}
  },
  {
    "id": 162765,
    "name": "Blanquillos",
    "state_id": 3221,
    "state_code": "TA",
    "country_id": 235,
    "country_code": "UY",
    "latitude": "-32.34724755",
    "longitude": "-55.84849416",
    "native": null,
    "timezone": "America/Montevideo",
    "translations": {}
  },
  {
    "id": 163857,
    "name": "Cañada del Estado",
    "state_id": 3221,
    "state_code": "TA",
    "country_id": 235,
    "country_code": "UY",
    "latitude": "-32.54068830",
    "longitude": "-55.87449183",
    "native": null,
    "timezone": "America/Montevideo",
    "translations": {}
  },
  {
    "id": 162741,
    "name": "Cañas",
    "state_id": 3221,
    "state_code": "TA",
    "country_id": 235,
    "country_code": "UY",
    "latitude": "-31.40369330",
    "longitude": "-56.04974733",
    "native": null,
    "timezone": "America/Montevideo",
    "translations": {}
  },
  {
    "id": 163813,
    "name": "Caraguata Al Norte",
    "state_id": 3221,
    "state_code": "TA",
    "country_id": 235,
    "country_code": "UY",
    "latitude": "-32.12868979",
    "longitude": "-54.89899310",
    "native": null,
    "timezone": "America/Montevideo",
    "translations": {}
  },
  {
    "id": 162456,
    "name": "Cardoso",
    "state_id": 3221,
    "state_code": "TA",
    "country_id": 235,
    "country_code": "UY",
    "latitude": "-32.64375973",
    "longitude": "-56.32581252",
    "native": null,
    "timezone": "America/Montevideo",
    "translations": {}
  },
  {
    "id": 162781,
    "name": "Cardozo Chico",
    "state_id": 3221,
    "state_code": "TA",
    "country_id": 235,
    "country_code": "UY",
    "latitude": "-32.45533070",
    "longitude": "-56.30151147",
    "native": null,
    "timezone": "America/Montevideo",
    "translations": {}
  },
  {
    "id": 162769,
    "name": "Carpinteria",
    "state_id": 3221,
    "state_code": "TA",
    "country_id": 235,
    "country_code": "UY",
    "latitude": "-32.54991584",
    "longitude": "-55.99052851",
    "native": null,
    "timezone": "America/Montevideo",
    "translations": {}
  },
  {
    "id": 162752,
    "name": "Cerro Batovi",
    "state_id": 3221,
    "state_code": "TA",
    "country_id": 235,
    "country_code": "UY",
    "latitude": "-31.87388105",
    "longitude": "-56.00022049",
    "native": null,
    "timezone": "America/Montevideo",
    "translations": {}
  },
  {
    "id": 162299,
    "name": "Cerro Chato",
    "state_id": 3221,
    "state_code": "TA",
    "country_id": 235,
    "country_code": "UY",
    "latitude": "-32.52138456",
    "longitude": "-55.85883959",
    "native": null,
    "timezone": "America/Montevideo",
    "translations": {}
  },
  {
    "id": 162296,
    "name": "Cerro de Pastoreo",
    "state_id": 3221,
    "state_code": "TA",
    "country_id": 235,
    "country_code": "UY",
    "latitude": "-31.68740908",
    "longitude": "-56.10743554",
    "native": null,
    "timezone": "America/Montevideo",
    "translations": {}
  },
  {
    "id": 162720,
    "name": "Cerro de Pereira",
    "state_id": 3221,
    "state_code": "TA",
    "country_id": 235,
    "country_code": "UY",
    "latitude": "-32.26992211",
    "longitude": "-55.13806504",
    "native": null,
    "timezone": "America/Montevideo",
    "translations": {}
  },
  {
    "id": 162760,
    "name": "Cerro del Arbolito",
    "state_id": 3221,
    "state_code": "TA",
    "country_id": 235,
    "country_code": "UY",
    "latitude": "-32.05809978",
    "longitude": "-55.90343304",
    "native": null,
    "timezone": "America/Montevideo",
    "translations": {}
  },
  {
    "id": 162755,
    "name": "Cerros de Clara",
    "state_id": 3221,
    "state_code": "TA",
    "country_id": 235,
    "country_code": "UY",
    "latitude": "-32.10494156",
    "longitude": "-55.83260008",
    "native": null,
    "timezone": "America/Montevideo",
    "translations": {}
  },
  {
    "id": 162469,
    "name": "Chamberlain",
    "state_id": 3221,
    "state_code": "TA",
    "country_id": 235,
    "country_code": "UY",
    "latitude": "-32.68843456",
    "longitude": "-56.47841067",
    "native": null,
    "timezone": "America/Montevideo",
    "translations": {}
  },
  {
    "id": 162763,
    "name": "Charata",
    "state_id": 3221,
    "state_code": "TA",
    "country_id": 235,
    "country_code": "UY",
    "latitude": "-32.35805273",
    "longitude": "-56.02171222",
    "native": null,
    "timezone": "America/Montevideo",
    "translations": {}
  },
  {
    "id": 162782,
    "name": "Churchill",
    "state_id": 3221,
    "state_code": "TA",
    "country_id": 235,
    "country_code": "UY",
    "latitude": "-32.49768895",
    "longitude": "-56.22433721",
    "native": null,
    "timezone": "America/Montevideo",
    "translations": {}
  },
  {
    "id": 162719,
    "name": "Cinco Sauces",
    "state_id": 3221,
    "state_code": "TA",
    "country_id": 235,
    "country_code": "UY",
    "latitude": "-32.12048303",
    "longitude": "-55.18586589",
    "native": null,
    "timezone": "America/Montevideo",
    "translations": {}
  },
  {
    "id": 162688,
    "name": "Clara",
    "state_id": 3221,
    "state_code": "TA",
    "country_id": 235,
    "country_code": "UY",
    "latitude": "-32.22429408",
    "longitude": "-55.73302568",
    "native": null,
    "timezone": "America/Montevideo",
    "translations": {}
  },
  {
    "id": 162588,
    "name": "Clavijo",
    "state_id": 3221,
    "state_code": "TA",
    "country_id": 235,
    "country_code": "UY",
    "latitude": "-32.24550566",
    "longitude": "-55.00579205",
    "native": null,
    "timezone": "America/Montevideo",
    "translations": {}
  },
  {
    "id": 162757,
    "name": "Colman",
    "state_id": 3221,
    "state_code": "TA",
    "country_id": 235,
    "country_code": "UY",
    "latitude": "-32.16216762",
    "longitude": "-56.10289068",
    "native": null,
    "timezone": "America/Montevideo",
    "translations": {}
  },
  {
    "id": 163821,
    "name": "Costas de Caraguata",
    "state_id": 3221,
    "state_code": "TA",
    "country_id": 235,
    "country_code": "UY",
    "latitude": "-32.21026174",
    "longitude": "-55.03607583",
    "native": null,
    "timezone": "America/Montevideo",
    "translations": {}
  },
  {
    "id": 162725,
    "name": "Costas de Tres Cruces",
    "state_id": 3221,
    "state_code": "TA",
    "country_id": 235,
    "country_code": "UY",
    "latitude": "-31.81718947",
    "longitude": "-55.73018781",
    "native": null,
    "timezone": "America/Montevideo",
    "translations": {}
  },
  {
    "id": 162754,
    "name": "Coyo Martinez",
    "state_id": 3221,
    "state_code": "TA",
    "country_id": 235,
    "country_code": "UY",
    "latitude": "-31.88230746",
    "longitude": "-55.87542289",
    "native": null,
    "timezone": "America/Montevideo",
    "translations": {}
  },
  {
    "id": 162691,
    "name": "Cruz de los Caminos",
    "state_id": 3221,
    "state_code": "TA",
    "country_id": 235,
    "country_code": "UY",
    "latitude": "-32.22694695",
    "longitude": "-54.97563089",
    "native": null,
    "timezone": "America/Montevideo",
    "translations": {}
  },
  {
    "id": 162773,
    "name": "Cuchilla de la Casa de Piedra",
    "state_id": 3221,
    "state_code": "TA",
    "country_id": 235,
    "country_code": "UY",
    "latitude": "-31.51614597",
    "longitude": "-56.19255820",
    "native": null,
    "timezone": "America/Montevideo",
    "translations": {}
  },
  {
    "id": 162722,
    "name": "Cuchilla de la Palma",
    "state_id": 3221,
    "state_code": "TA",
    "country_id": 235,
    "country_code": "UY",
    "latitude": "-31.67298505",
    "longitude": "-55.73171208",
    "native": null,
    "timezone": "America/Montevideo",
    "translations": {}
  },
  {
    "id": 162734,
    "name": "Cuchilla de Laureles",
    "state_id": 3221,
    "state_code": "TA",
    "country_id": 235,
    "country_code": "UY",
    "latitude": "-31.32483829",
    "longitude": "-56.01998706",
    "native": null,
    "timezone": "America/Montevideo",
    "translations": {}
  },
  {
    "id": 162462,
    "name": "Cuchilla de Peralta",
    "state_id": 3221,
    "state_code": "TA",
    "country_id": 235,
    "country_code": "UY",
    "latitude": "-32.49256426",
    "longitude": "-56.35541818",
    "native": null,
    "timezone": "America/Montevideo",
    "translations": {}
  },
  {
    "id": 162503,
    "name": "Cuchilla del Ombu",
    "state_id": 3221,
    "state_code": "TA",
    "country_id": 235,
    "country_code": "UY",
    "latitude": "-31.77757174",
    "longitude": "-55.69446457",
    "native": null,
    "timezone": "America/Montevideo",
    "translations": {}
  },
  {
    "id": 129796,
    "name": "Curtina",
    "state_id": 3221,
    "state_code": "TA",
    "country_id": 235,
    "country_code": "UY",
    "latitude": "-32.15000000",
    "longitude": "-56.11667000",
    "native": null,
    "timezone": "America/Montevideo",
    "translations": {}
  },
  {
    "id": 162777,
    "name": "El Empalme",
    "state_id": 3221,
    "state_code": "TA",
    "country_id": 235,
    "country_code": "UY",
    "latitude": "-31.81575139",
    "longitude": "-56.26982017",
    "native": null,
    "timezone": "America/Montevideo",
    "translations": {}
  },
  {
    "id": 163885,
    "name": "Estacion Menendez",
    "state_id": 3221,
    "state_code": "TA",
    "country_id": 235,
    "country_code": "UY",
    "latitude": "-32.64759783",
    "longitude": "-56.48285941",
    "native": null,
    "timezone": "America/Montevideo",
    "translations": {}
  },
  {
    "id": 162459,
    "name": "Frigorifico Modelo",
    "state_id": 3221,
    "state_code": "TA",
    "country_id": 235,
    "country_code": "UY",
    "latitude": "-32.31793373",
    "longitude": "-55.38826510",
    "native": null,
    "timezone": "America/Montevideo",
    "translations": {}
  },
  {
    "id": 162724,
    "name": "Heriberto",
    "state_id": 3221,
    "state_code": "TA",
    "country_id": 235,
    "country_code": "UY",
    "latitude": "-31.85935758",
    "longitude": "-55.56302468",
    "native": null,
    "timezone": "America/Montevideo",
    "translations": {}
  },
  {
    "id": 162745,
    "name": "La Aldea",
    "state_id": 3221,
    "state_code": "TA",
    "country_id": 235,
    "country_code": "UY",
    "latitude": "-31.73932107",
    "longitude": "-56.03022253",
    "native": null,
    "timezone": "America/Montevideo",
    "translations": {}
  },
  {
    "id": 162723,
    "name": "La Bolsa 01",
    "state_id": 3221,
    "state_code": "TA",
    "country_id": 235,
    "country_code": "UY",
    "latitude": "-31.73715318",
    "longitude": "-55.74114084",
    "native": null,
    "timezone": "America/Montevideo",
    "translations": {}
  },
  {
    "id": 163816,
    "name": "La Bolsa 02",
    "state_id": 3221,
    "state_code": "TA",
    "country_id": 235,
    "country_code": "UY",
    "latitude": "-32.15879198",
    "longitude": "-55.02744359",
    "native": null,
    "timezone": "America/Montevideo",
    "translations": {}
  },
  {
    "id": 162298,
    "name": "La Hilera",
    "state_id": 3221,
    "state_code": "TA",
    "country_id": 235,
    "country_code": "UY",
    "latitude": "-32.07877989",
    "longitude": "-55.65704475",
    "native": null,
    "timezone": "America/Montevideo",
    "translations": {}
  },
  {
    "id": 162744,
    "name": "La Palma",
    "state_id": 3221,
    "state_code": "TA",
    "country_id": 235,
    "country_code": "UY",
    "latitude": "-31.74127882",
    "longitude": "-55.99507773",
    "native": null,
    "timezone": "America/Montevideo",
    "translations": {}
  },
  {
    "id": 162295,
    "name": "La Pedrera",
    "state_id": 3221,
    "state_code": "TA",
    "country_id": 235,
    "country_code": "UY",
    "latitude": "-31.73990283",
    "longitude": "-56.02793428",
    "native": null,
    "timezone": "America/Montevideo",
    "translations": {}
  },
  {
    "id": 162737,
    "name": "Lambare",
    "state_id": 3221,
    "state_code": "TA",
    "country_id": 235,
    "country_code": "UY",
    "latitude": "-31.53023420",
    "longitude": "-55.94953750",
    "native": null,
    "timezone": "America/Montevideo",
    "translations": {}
  },
  {
    "id": 163817,
    "name": "Larrayos",
    "state_id": 3221,
    "state_code": "TA",
    "country_id": 235,
    "country_code": "UY",
    "latitude": "-32.17084737",
    "longitude": "-55.01613927",
    "native": null,
    "timezone": "America/Montevideo",
    "translations": {}
  },
  {
    "id": 163815,
    "name": "Las Arenas",
    "state_id": 3221,
    "state_code": "TA",
    "country_id": 235,
    "country_code": "UY",
    "latitude": "-32.13184698",
    "longitude": "-55.07149030",
    "native": null,
    "timezone": "America/Montevideo",
    "translations": {}
  },
  {
    "id": 162712,
    "name": "Las Chircas",
    "state_id": 3221,
    "state_code": "TA",
    "country_id": 235,
    "country_code": "UY",
    "latitude": "-32.37257034",
    "longitude": "-55.06590724",
    "native": null,
    "timezone": "America/Montevideo",
    "translations": {}
  },
  {
    "id": 162713,
    "name": "Las Pajas",
    "state_id": 3221,
    "state_code": "TA",
    "country_id": 235,
    "country_code": "UY",
    "latitude": "-32.46527438",
    "longitude": "-55.06744666",
    "native": null,
    "timezone": "America/Montevideo",
    "translations": {}
  },
  {
    "id": 162689,
    "name": "Las Toscas de Caraguata",
    "state_id": 3221,
    "state_code": "TA",
    "country_id": 235,
    "country_code": "UY",
    "latitude": "-32.17997095",
    "longitude": "-55.01125111",
    "native": null,
    "timezone": "America/Montevideo",
    "translations": {}
  },
  {
    "id": 163820,
    "name": "Laura",
    "state_id": 3221,
    "state_code": "TA",
    "country_id": 235,
    "country_code": "UY",
    "latitude": "-32.17525064",
    "longitude": "-54.92164992",
    "native": null,
    "timezone": "America/Montevideo",
    "translations": {}
  },
  {
    "id": 162690,
    "name": "Laureles",
    "state_id": 3221,
    "state_code": "TA",
    "country_id": 235,
    "country_code": "UY",
    "latitude": "-31.36324597",
    "longitude": "-55.87317148",
    "native": null,
    "timezone": "America/Montevideo",
    "translations": {}
  },
  {
    "id": 162770,
    "name": "Los Cerros",
    "state_id": 3221,
    "state_code": "TA",
    "country_id": 235,
    "country_code": "UY",
    "latitude": "-32.58814227",
    "longitude": "-55.82628621",
    "native": null,
    "timezone": "America/Montevideo",
    "translations": {}
  },
  {
    "id": 162749,
    "name": "Los Coitinhos",
    "state_id": 3221,
    "state_code": "TA",
    "country_id": 235,
    "country_code": "UY",
    "latitude": "-31.82219515",
    "longitude": "-55.97414161",
    "native": null,
    "timezone": "America/Montevideo",
    "translations": {}
  },
  {
    "id": 162756,
    "name": "Los Cuadrados",
    "state_id": 3221,
    "state_code": "TA",
    "country_id": 235,
    "country_code": "UY",
    "latitude": "-32.16614552",
    "longitude": "-55.94057188",
    "native": null,
    "timezone": "America/Montevideo",
    "translations": {}
  },
  {
    "id": 162721,
    "name": "Los Feos",
    "state_id": 3221,
    "state_code": "TA",
    "country_id": 235,
    "country_code": "UY",
    "latitude": "-32.39078671",
    "longitude": "-55.30898040",
    "native": null,
    "timezone": "America/Montevideo",
    "translations": {}
  },
  {
    "id": 162761,
    "name": "Los Furtados",
    "state_id": 3221,
    "state_code": "TA",
    "country_id": 235,
    "country_code": "UY",
    "latitude": "-32.28165792",
    "longitude": "-55.84279414",
    "native": null,
    "timezone": "America/Montevideo",
    "translations": {}
  },
  {
    "id": 163819,
    "name": "Los Garcia",
    "state_id": 3221,
    "state_code": "TA",
    "country_id": 235,
    "country_code": "UY",
    "latitude": "-32.14902848",
    "longitude": "-54.95805882",
    "native": null,
    "timezone": "America/Montevideo",
    "translations": {}
  },
  {
    "id": 163818,
    "name": "Los Gomez",
    "state_id": 3221,
    "state_code": "TA",
    "country_id": 235,
    "country_code": "UY",
    "latitude": "-32.16243221",
    "longitude": "-55.00978756",
    "native": null,
    "timezone": "America/Montevideo",
    "translations": {}
  },
  {
    "id": 162768,
    "name": "Los Laureles",
    "state_id": 3221,
    "state_code": "TA",
    "country_id": 235,
    "country_code": "UY",
    "latitude": "-32.48928477",
    "longitude": "-56.02845231",
    "native": null,
    "timezone": "America/Montevideo",
    "translations": {}
  },
  {
    "id": 163810,
    "name": "Los Malavares",
    "state_id": 3221,
    "state_code": "TA",
    "country_id": 235,
    "country_code": "UY",
    "latitude": "-32.04776725",
    "longitude": "-55.04047949",
    "native": null,
    "timezone": "America/Montevideo",
    "translations": {}
  },
  {
    "id": 163814,
    "name": "Los Ortices",
    "state_id": 3221,
    "state_code": "TA",
    "country_id": 235,
    "country_code": "UY",
    "latitude": "-32.12980933",
    "longitude": "-54.92667857",
    "native": null,
    "timezone": "America/Montevideo",
    "translations": {}
  },
  {
    "id": 162778,
    "name": "Los Rodriguez",
    "state_id": 3221,
    "state_code": "TA",
    "country_id": 235,
    "country_code": "UY",
    "latitude": "-31.74542752",
    "longitude": "-56.21902038",
    "native": null,
    "timezone": "America/Montevideo",
    "translations": {}
  },
  {
    "id": 162776,
    "name": "Los Rosanos",
    "state_id": 3221,
    "state_code": "TA",
    "country_id": 235,
    "country_code": "UY",
    "latitude": "-31.81762205",
    "longitude": "-56.17705187",
    "native": null,
    "timezone": "America/Montevideo",
    "translations": {}
  },
  {
    "id": 162716,
    "name": "Los Rosas",
    "state_id": 3221,
    "state_code": "TA",
    "country_id": 235,
    "country_code": "UY",
    "latitude": "-31.97469306",
    "longitude": "-55.18391061",
    "native": null,
    "timezone": "America/Montevideo",
    "translations": {}
  },
  {
    "id": 162729,
    "name": "Los Semper",
    "state_id": 3221,
    "state_code": "TA",
    "country_id": 235,
    "country_code": "UY",
    "latitude": "-31.92910433",
    "longitude": "-55.60420164",
    "native": null,
    "timezone": "America/Montevideo",
    "translations": {}
  },
  {
    "id": 162715,
    "name": "Los Vazquez",
    "state_id": 3221,
    "state_code": "TA",
    "country_id": 235,
    "country_code": "UY",
    "latitude": "-31.90094111",
    "longitude": "-55.40049217",
    "native": null,
    "timezone": "America/Montevideo",
    "translations": {}
  },
  {
    "id": 162753,
    "name": "Martinote",
    "state_id": 3221,
    "state_code": "TA",
    "country_id": 235,
    "country_code": "UY",
    "latitude": "-31.87867134",
    "longitude": "-55.96847319",
    "native": null,
    "timezone": "America/Montevideo",
    "translations": {}
  },
  {
    "id": 162714,
    "name": "Minuano",
    "state_id": 3221,
    "state_code": "TA",
    "country_id": 235,
    "country_code": "UY",
    "latitude": "-32.43258949",
    "longitude": "-55.02713179",
    "native": null,
    "timezone": "America/Montevideo",
    "translations": {}
  },
  {
    "id": 162703,
    "name": "Montevideo Chico",
    "state_id": 3221,
    "state_code": "TA",
    "country_id": 235,
    "country_code": "UY",
    "latitude": "-32.21729193",
    "longitude": "-55.57451892",
    "native": null,
    "timezone": "America/Montevideo",
    "translations": {}
  },
  {
    "id": 162759,
    "name": "Once Cerros",
    "state_id": 3221,
    "state_code": "TA",
    "country_id": 235,
    "country_code": "UY",
    "latitude": "-32.20257240",
    "longitude": "-55.85237188",
    "native": null,
    "timezone": "America/Montevideo",
    "translations": {}
  },
  {
    "id": 162780,
    "name": "Pampa",
    "state_id": 3221,
    "state_code": "TA",
    "country_id": 235,
    "country_code": "UY",
    "latitude": "-32.24626505",
    "longitude": "-56.22201174",
    "native": null,
    "timezone": "America/Montevideo",
    "translations": {}
  },
  {
    "id": 162549,
    "name": "Paso Bonilla",
    "state_id": 3221,
    "state_code": "TA",
    "country_id": 235,
    "country_code": "UY",
    "latitude": "-31.80794426",
    "longitude": "-55.97722904",
    "native": null,
    "timezone": "America/Montevideo",
    "translations": {}
  },
  {
    "id": 162736,
    "name": "Paso de Ceferino",
    "state_id": 3221,
    "state_code": "TA",
    "country_id": 235,
    "country_code": "UY",
    "latitude": "-31.52127495",
    "longitude": "-56.06653589",
    "native": null,
    "timezone": "America/Montevideo",
    "translations": {}
  },
  {
    "id": 162738,
    "name": "Paso de las Carretas",
    "state_id": 3221,
    "state_code": "TA",
    "country_id": 235,
    "country_code": "UY",
    "latitude": "-31.56167379",
    "longitude": "-56.04307587",
    "native": null,
    "timezone": "America/Montevideo",
    "translations": {}
  },
  {
    "id": 162733,
    "name": "Paso de las Flores",
    "state_id": 3221,
    "state_code": "TA",
    "country_id": 235,
    "country_code": "UY",
    "latitude": "-31.39674842",
    "longitude": "-56.08998866",
    "native": null,
    "timezone": "America/Montevideo",
    "translations": {}
  },
  {
    "id": 163910,
    "name": "Paso de las Toscas",
    "state_id": 3221,
    "state_code": "TA",
    "country_id": 235,
    "country_code": "UY",
    "latitude": "-32.15496430",
    "longitude": "-55.02346785",
    "native": null,
    "timezone": "America/Montevideo",
    "translations": {}
  },
  {
    "id": 162437,
    "name": "Paso de los Novillos",
    "state_id": 3221,
    "state_code": "TA",
    "country_id": 235,
    "country_code": "UY",
    "latitude": "-31.97276511",
    "longitude": "-55.66864788",
    "native": null,
    "timezone": "America/Montevideo",
    "translations": {}
  },
  {
    "id": 129843,
    "name": "Paso de los Toros",
    "state_id": 3221,
    "state_code": "TA",
    "country_id": 235,
    "country_code": "UY",
    "latitude": "-32.81667000",
    "longitude": "-56.51667000",
    "native": null,
    "timezone": "America/Montevideo",
    "translations": {}
  },
  {
    "id": 162779,
    "name": "Paso de Perez",
    "state_id": 3221,
    "state_code": "TA",
    "country_id": 235,
    "country_code": "UY",
    "latitude": "-32.05040931",
    "longitude": "-56.21141572",
    "native": null,
    "timezone": "America/Montevideo",
    "translations": {}
  },
  {
    "id": 162421,
    "name": "Paso del Cerro",
    "state_id": 3221,
    "state_code": "TA",
    "country_id": 235,
    "country_code": "UY",
    "latitude": "-31.47811272",
    "longitude": "-55.83288637",
    "native": null,
    "timezone": "America/Montevideo",
    "translations": {}
  },
  {
    "id": 162735,
    "name": "Paso del Medio",
    "state_id": 3221,
    "state_code": "TA",
    "country_id": 235,
    "country_code": "UY",
    "latitude": "-31.45904929",
    "longitude": "-56.06967151",
    "native": null,
    "timezone": "America/Montevideo",
    "translations": {}
  },
  {
    "id": 162764,
    "name": "Paso Hondo",
    "state_id": 3221,
    "state_code": "TA",
    "country_id": 235,
    "country_code": "UY",
    "latitude": "-32.33525267",
    "longitude": "-55.86189451",
    "native": null,
    "timezone": "America/Montevideo",
    "translations": {}
  },
  {
    "id": 163811,
    "name": "Paso Livindo",
    "state_id": 3221,
    "state_code": "TA",
    "country_id": 235,
    "country_code": "UY",
    "latitude": "-32.08101279",
    "longitude": "-55.03986138",
    "native": null,
    "timezone": "America/Montevideo",
    "translations": {}
  },
  {
    "id": 162772,
    "name": "Paso Victor",
    "state_id": 3221,
    "state_code": "TA",
    "country_id": 235,
    "country_code": "UY",
    "latitude": "-31.64888382",
    "longitude": "-56.25998039",
    "native": null,
    "timezone": "America/Montevideo",
    "translations": {}
  },
  {
    "id": 162718,
    "name": "Picada de Cuello",
    "state_id": 3221,
    "state_code": "TA",
    "country_id": 235,
    "country_code": "UY",
    "latitude": "-32.04398871",
    "longitude": "-55.34940035",
    "native": null,
    "timezone": "America/Montevideo",
    "translations": {}
  },
  {
    "id": 162442,
    "name": "Piedra Sola",
    "state_id": 3221,
    "state_code": "TA",
    "country_id": 235,
    "country_code": "UY",
    "latitude": "-32.08200049",
    "longitude": "-56.31002074",
    "native": null,
    "timezone": "America/Montevideo",
    "translations": {}
  },
  {
    "id": 163823,
    "name": "Pueblo Clavijo",
    "state_id": 3221,
    "state_code": "TA",
    "country_id": 235,
    "country_code": "UY",
    "latitude": "-32.23460021",
    "longitude": "-55.00873078",
    "native": null,
    "timezone": "America/Montevideo",
    "translations": {}
  },
  {
    "id": 162273,
    "name": "Pueblo de Arriba",
    "state_id": 3221,
    "state_code": "TA",
    "country_id": 235,
    "country_code": "UY",
    "latitude": "-31.86219899",
    "longitude": "-55.43690474",
    "native": null,
    "timezone": "America/Montevideo",
    "translations": {}
  },
  {
    "id": 162274,
    "name": "Pueblo del Barro",
    "state_id": 3221,
    "state_code": "TA",
    "country_id": 235,
    "country_code": "UY",
    "latitude": "-31.96677822",
    "longitude": "-55.40730575",
    "native": null,
    "timezone": "America/Montevideo",
    "translations": {}
  },
  {
    "id": 162277,
    "name": "Punta de Carretera",
    "state_id": 3221,
    "state_code": "TA",
    "country_id": 235,
    "country_code": "UY",
    "latitude": "-32.08305346",
    "longitude": "-55.18493173",
    "native": null,
    "timezone": "America/Montevideo",
    "translations": {}
  },
  {
    "id": 162704,
    "name": "Puntas de Cinco Sauces",
    "state_id": 3221,
    "state_code": "TA",
    "country_id": 235,
    "country_code": "UY",
    "latitude": "-31.95698428",
    "longitude": "-55.04153198",
    "native": null,
    "timezone": "America/Montevideo",
    "translations": {}
  },
  {
    "id": 162767,
    "name": "Puntas de Laureles",
    "state_id": 3221,
    "state_code": "TA",
    "country_id": 235,
    "country_code": "UY",
    "latitude": "-32.47617609",
    "longitude": "-56.07060611",
    "native": null,
    "timezone": "America/Montevideo",
    "translations": {}
  },
  {
    "id": 162771,
    "name": "Rincon de Freitas",
    "state_id": 3221,
    "state_code": "TA",
    "country_id": 235,
    "country_code": "UY",
    "latitude": "-31.61712678",
    "longitude": "-56.17263722",
    "native": null,
    "timezone": "America/Montevideo",
    "translations": {}
  },
  {
    "id": 162726,
    "name": "Rincon de Giloca",
    "state_id": 3221,
    "state_code": "TA",
    "country_id": 235,
    "country_code": "UY",
    "latitude": "-31.81667272",
    "longitude": "-55.76886151",
    "native": null,
    "timezone": "America/Montevideo",
    "translations": {}
  },
  {
    "id": 162746,
    "name": "Rincon de la Aldea",
    "state_id": 3221,
    "state_code": "TA",
    "country_id": 235,
    "country_code": "UY",
    "latitude": "-31.72300515",
    "longitude": "-56.09330004",
    "native": null,
    "timezone": "America/Montevideo",
    "translations": {}
  },
  {
    "id": 162748,
    "name": "Rincon de la Bolsa",
    "state_id": 3221,
    "state_code": "TA",
    "country_id": 235,
    "country_code": "UY",
    "latitude": "-31.79817591",
    "longitude": "-55.89118865",
    "native": null,
    "timezone": "America/Montevideo",
    "translations": {}
  },
  {
    "id": 162730,
    "name": "Rincon de la Laguna",
    "state_id": 3221,
    "state_code": "TA",
    "country_id": 235,
    "country_code": "UY",
    "latitude": "-31.93622324",
    "longitude": "-55.51949547",
    "native": null,
    "timezone": "America/Montevideo",
    "translations": {}
  },
  {
    "id": 162758,
    "name": "Rincon de los Machado",
    "state_id": 3221,
    "state_code": "TA",
    "country_id": 235,
    "country_code": "UY",
    "latitude": "-32.21479827",
    "longitude": "-56.05950271",
    "native": null,
    "timezone": "America/Montevideo",
    "translations": {}
  },
  {
    "id": 162276,
    "name": "Rincon de Pereira",
    "state_id": 3221,
    "state_code": "TA",
    "country_id": 235,
    "country_code": "UY",
    "latitude": "-32.39597741",
    "longitude": "-55.29291392",
    "native": null,
    "timezone": "America/Montevideo",
    "translations": {}
  },
  {
    "id": 162732,
    "name": "Rincon de Zamora",
    "state_id": 3221,
    "state_code": "TA",
    "country_id": 235,
    "country_code": "UY",
    "latitude": "-32.28530829",
    "longitude": "-55.59231423",
    "native": null,
    "timezone": "America/Montevideo",
    "translations": {}
  },
  {
    "id": 162268,
    "name": "Rincon del Bonete",
    "state_id": 3221,
    "state_code": "TA",
    "country_id": 235,
    "country_code": "UY",
    "latitude": "-32.83435060",
    "longitude": "-56.42625065",
    "native": null,
    "timezone": "America/Montevideo",
    "translations": {}
  },
  {
    "id": 162438,
    "name": "Rivera Chico",
    "state_id": 3221,
    "state_code": "TA",
    "country_id": 235,
    "country_code": "UY",
    "latitude": "-31.98005339",
    "longitude": "-55.63430390",
    "native": null,
    "timezone": "America/Montevideo",
    "translations": {}
  },
  {
    "id": 162766,
    "name": "San Benito",
    "state_id": 3221,
    "state_code": "TA",
    "country_id": 235,
    "country_code": "UY",
    "latitude": "-32.50741297",
    "longitude": "-56.11878633",
    "native": null,
    "timezone": "America/Montevideo",
    "translations": {}
  },
  {
    "id": 162465,
    "name": "San Gregorio de Polanco",
    "state_id": 3221,
    "state_code": "TA",
    "country_id": 235,
    "country_code": "UY",
    "latitude": "-32.61125388",
    "longitude": "-55.82779825",
    "native": null,
    "timezone": "America/Montevideo",
    "translations": {}
  },
  {
    "id": 162731,
    "name": "San Joaquin",
    "state_id": 3221,
    "state_code": "TA",
    "country_id": 235,
    "country_code": "UY",
    "latitude": "-31.97412306",
    "longitude": "-55.79895258",
    "native": null,
    "timezone": "America/Montevideo",
    "translations": {}
  },
  {
    "id": 162275,
    "name": "Sauce de Batovi",
    "state_id": 3221,
    "state_code": "TA",
    "country_id": 235,
    "country_code": "UY",
    "latitude": "-31.88631594",
    "longitude": "-55.95606455",
    "native": null,
    "timezone": "America/Montevideo",
    "translations": {}
  },
  {
    "id": 162750,
    "name": "Sauce de Tranqueras",
    "state_id": 3221,
    "state_code": "TA",
    "country_id": 235,
    "country_code": "UY",
    "latitude": "-31.84571125",
    "longitude": "-55.92350147",
    "native": null,
    "timezone": "America/Montevideo",
    "translations": {}
  },
  {
    "id": 162743,
    "name": "Sauce Solo",
    "state_id": 3221,
    "state_code": "TA",
    "country_id": 235,
    "country_code": "UY",
    "latitude": "-31.69226555",
    "longitude": "-55.88545107",
    "native": null,
    "timezone": "America/Montevideo",
    "translations": {}
  },
  {
    "id": 163812,
    "name": "Sauce Solo del Rio Negro",
    "state_id": 3221,
    "state_code": "TA",
    "country_id": 235,
    "country_code": "UY",
    "latitude": "-32.10050959",
    "longitude": "-54.83425089",
    "native": null,
    "timezone": "America/Montevideo",
    "translations": {}
  },
  {
    "id": 129877,
    "name": "Tacuarembó",
    "state_id": 3221,
    "state_code": "TA",
    "country_id": 235,
    "country_code": "UY",
    "latitude": "-31.71694000",
    "longitude": "-55.98111000",
    "native": null,
    "timezone": "America/Montevideo",
    "translations": {}
  },
  {
    "id": 162774,
    "name": "Tacuarembo Chico",
    "state_id": 3221,
    "state_code": "TA",
    "country_id": 235,
    "country_code": "UY",
    "latitude": "-31.55935232",
    "longitude": "-56.24464325",
    "native": null,
    "timezone": "America/Montevideo",
    "translations": {}
  },
  {
    "id": 162622,
    "name": "Tambores",
    "state_id": 3221,
    "state_code": "TA",
    "country_id": 235,
    "country_code": "UY",
    "latitude": "-31.87790712",
    "longitude": "-56.24362443",
    "native": null,
    "timezone": "America/Montevideo",
    "translations": {}
  },
  {
    "id": 162747,
    "name": "Tierras Coloradas",
    "state_id": 3221,
    "state_code": "TA",
    "country_id": 235,
    "country_code": "UY",
    "latitude": "-31.76041545",
    "longitude": "-55.99289828",
    "native": null,
    "timezone": "America/Montevideo",
    "translations": {}
  },
  {
    "id": 163822,
    "name": "Tres Guitarras",
    "state_id": 3221,
    "state_code": "TA",
    "country_id": 235,
    "country_code": "UY",
    "latitude": "-32.24499639",
    "longitude": "-54.91199137",
    "native": null,
    "timezone": "America/Montevideo",
    "translations": {}
  },
  {
    "id": 162717,
    "name": "Turupi",
    "state_id": 3221,
    "state_code": "TA",
    "country_id": 235,
    "country_code": "UY",
    "latitude": "-32.17303711",
    "longitude": "-55.27023768",
    "native": null,
    "timezone": "America/Montevideo",
    "translations": {}
  },
  {
    "id": 162775,
    "name": "Valle Eden",
    "state_id": 3221,
    "state_code": "TA",
    "country_id": 235,
    "country_code": "UY",
    "latitude": "-31.82399671",
    "longitude": "-56.17380623",
    "native": null,
    "timezone": "America/Montevideo",
    "translations": {}
  },
  {
    "id": 162271,
    "name": "Villa Ansina",
    "state_id": 3221,
    "state_code": "TA",
    "country_id": 235,
    "country_code": "UY",
    "latitude": "-31.87799451",
    "longitude": "-55.46204390",
    "native": null,
    "timezone": "America/Montevideo",
    "translations": {}
  },
  {
    "id": 162728,
    "name": "Zambullon",
    "state_id": 3221,
    "state_code": "TA",
    "country_id": 235,
    "country_code": "UY",
    "latitude": "-32.02656357",
    "longitude": "-55.78541083",
    "native": null,
    "timezone": "America/Montevideo",
    "translations": {}
  },
  {
    "id": 162742,
    "name": "Zapara",
    "state_id": 3221,
    "state_code": "TA",
    "country_id": 235,
    "country_code": "UY",
    "latitude": "-31.69528377",
    "longitude": "-56.03501359",
    "native": null,
    "timezone": "America/Montevideo",
    "translations": {}
  },
  {
    "id": 162727,
    "name": "Zapucay",
    "state_id": 3221,
    "state_code": "TA",
    "country_id": 235,
    "country_code": "UY",
    "latitude": "-31.83229310",
    "longitude": "-55.45263362",
    "native": null,
    "timezone": "America/Montevideo",
    "translations": {}
  }
]