[
  {
    "id": 135282,
    "name": "Acquedolci",
    "state_id": 5632,
    "state_code": "ME",
    "country_id": 107,
    "country_code": "IT",
    "latitude": "38.05708000",
    "longitude": "14.58550000",
    "native": null,
    "timezone": "Europe/Rome",
    "translations": {}
  },
  {
    "id": 135390,
    "name": "Alcara Li Fusi",
    "state_id": 5632,
    "state_code": "ME",
    "country_id": 107,
    "country_code": "IT",
    "latitude": "38.02143000",
    "longitude": "14.70142000",
    "native": null,
    "timezone": "Europe/Rome",
    "translations": {}
  },
  {
    "id": 135454,
    "name": "Alì",
    "state_id": 5632,
    "state_code": "ME",
    "country_id": 107,
    "country_code": "IT",
    "latitude": "38.02678000",
    "longitude": "15.41910000",
    "native": null,
    "timezone": "Europe/Rome",
    "translations": {}
  },
  {
    "id": 135455,
    "name": "Alì Terme",
    "state_id": 5632,
    "state_code": "ME",
    "country_id": 107,
    "country_code": "IT",
    "latitude": "38.00506000",
    "longitude": "15.42269000",
    "native": null,
    "timezone": "Europe/Rome",
    "translations": {}
  },
  {
    "id": 135519,
    "name": "Antillo",
    "state_id": 5632,
    "state_code": "ME",
    "country_id": 107,
    "country_code": "IT",
    "latitude": "37.97937000",
    "longitude": "15.24029000",
    "native": null,
    "timezone": "Europe/Rome",
    "translations": {}
  },
  {
    "id": 135834,
    "name": "Barcellona Pozzo di Gotto",
    "state_id": 5632,
    "state_code": "ME",
    "country_id": 107,
    "country_code": "IT",
    "latitude": "38.14772000",
    "longitude": "15.21469000",
    "native": null,
    "timezone": "Europe/Rome",
    "translations": {}
  },
  {
    "id": 135885,
    "name": "Basicò",
    "state_id": 5632,
    "state_code": "ME",
    "country_id": 107,
    "country_code": "IT",
    "latitude": "38.06077000",
    "longitude": "15.06263000",
    "native": null,
    "timezone": "Europe/Rome",
    "translations": {}
  },
  {
    "id": 136349,
    "name": "Brolo",
    "state_id": 5632,
    "state_code": "ME",
    "country_id": 107,
    "country_code": "IT",
    "latitude": "38.15623000",
    "longitude": "14.82799000",
    "native": null,
    "timezone": "Europe/Rome",
    "translations": {}
  },
  {
    "id": 136721,
    "name": "Canneto",
    "state_id": 5632,
    "state_code": "ME",
    "country_id": 107,
    "country_code": "IT",
    "latitude": "38.49505000",
    "longitude": "14.96037000",
    "native": null,
    "timezone": "Europe/Rome",
    "translations": {}
  },
  {
    "id": 136776,
    "name": "Capizzi",
    "state_id": 5632,
    "state_code": "ME",
    "country_id": 107,
    "country_code": "IT",
    "latitude": "37.84788000",
    "longitude": "14.47976000",
    "native": null,
    "timezone": "Europe/Rome",
    "translations": {}
  },
  {
    "id": 136778,
    "name": "Capo d'Orlando",
    "state_id": 5632,
    "state_code": "ME",
    "country_id": 107,
    "country_code": "IT",
    "latitude": "38.14262000",
    "longitude": "14.73292000",
    "native": null,
    "timezone": "Europe/Rome",
    "translations": {}
  },
  {
    "id": 136810,
    "name": "Capri Leone",
    "state_id": 5632,
    "state_code": "ME",
    "country_id": 107,
    "country_code": "IT",
    "latitude": "38.08682000",
    "longitude": "14.72959000",
    "native": null,
    "timezone": "Europe/Rome",
    "translations": {}
  },
  {
    "id": 136900,
    "name": "Caronia",
    "state_id": 5632,
    "state_code": "ME",
    "country_id": 107,
    "country_code": "IT",
    "latitude": "38.02381000",
    "longitude": "14.44142000",
    "native": null,
    "timezone": "Europe/Rome",
    "translations": {}
  },
  {
    "id": 137010,
    "name": "Casalvecchio Siculo",
    "state_id": 5632,
    "state_code": "ME",
    "country_id": 107,
    "country_code": "IT",
    "latitude": "37.95850000",
    "longitude": "15.32371000",
    "native": null,
    "timezone": "Europe/Rome",
    "translations": {}
  },
  {
    "id": 137125,
    "name": "Castanea delle Furie",
    "state_id": 5632,
    "state_code": "ME",
    "country_id": 107,
    "country_code": "IT",
    "latitude": "38.26165000",
    "longitude": "15.52178000",
    "native": null,
    "timezone": "Europe/Rome",
    "translations": {}
  },
  {
    "id": 137172,
    "name": "Castel di Lucio",
    "state_id": 5632,
    "state_code": "ME",
    "country_id": 107,
    "country_code": "IT",
    "latitude": "37.88698000",
    "longitude": "14.31116000",
    "native": null,
    "timezone": "Europe/Rome",
    "translations": {}
  },
  {
    "id": 137209,
    "name": "Castell'Umberto",
    "state_id": 5632,
    "state_code": "ME",
    "country_id": 107,
    "country_code": "IT",
    "latitude": "38.08626000",
    "longitude": "14.80686000",
    "native": null,
    "timezone": "Europe/Rome",
    "translations": {}
  },
  {
    "id": 137275,
    "name": "Castelmola",
    "state_id": 5632,
    "state_code": "ME",
    "country_id": 107,
    "country_code": "IT",
    "latitude": "37.85829000",
    "longitude": "15.27713000",
    "native": null,
    "timezone": "Europe/Rome",
    "translations": {}
  },
  {
    "id": 137387,
    "name": "Castroreale",
    "state_id": 5632,
    "state_code": "ME",
    "country_id": 107,
    "country_code": "IT",
    "latitude": "38.09857000",
    "longitude": "15.21012000",
    "native": null,
    "timezone": "Europe/Rome",
    "translations": {}
  },
  {
    "id": 137609,
    "name": "Cesarò",
    "state_id": 5632,
    "state_code": "ME",
    "country_id": 107,
    "country_code": "IT",
    "latitude": "37.84476000",
    "longitude": "14.71308000",
    "native": null,
    "timezone": "Europe/Rome",
    "translations": {}
  },
  {
    "id": 137643,
    "name": "Chianchitta-Pallio",
    "state_id": 5632,
    "state_code": "ME",
    "country_id": 107,
    "country_code": "IT",
    "latitude": "37.82108000",
    "longitude": "15.25317000",
    "native": null,
    "timezone": "Europe/Rome",
    "translations": {}
  },
  {
    "id": 137644,
    "name": "Chianchitta-Trappitello",
    "state_id": 5632,
    "state_code": "ME",
    "country_id": 107,
    "country_code": "IT",
    "latitude": "37.82984000",
    "longitude": "15.25077000",
    "native": null,
    "timezone": "Europe/Rome",
    "translations": {}
  },
  {
    "id": 137965,
    "name": "Condrò",
    "state_id": 5632,
    "state_code": "ME",
    "country_id": 107,
    "country_code": "IT",
    "latitude": "38.17375000",
    "longitude": "15.32660000",
    "native": null,
    "timezone": "Europe/Rome",
    "translations": {}
  },
  {
    "id": 138389,
    "name": "Evangelisti-Rubino",
    "state_id": 5632,
    "state_code": "ME",
    "country_id": 107,
    "country_code": "IT",
    "latitude": "37.98412000",
    "longitude": "15.17324000",
    "native": null,
    "timezone": "Europe/Rome",
    "translations": {}
  },
  {
    "id": 138417,
    "name": "Falcone",
    "state_id": 5632,
    "state_code": "ME",
    "country_id": 107,
    "country_code": "IT",
    "latitude": "38.11698000",
    "longitude": "15.07965000",
    "native": null,
    "timezone": "Europe/Rome",
    "translations": {}
  },
  {
    "id": 138505,
    "name": "Ficarra",
    "state_id": 5632,
    "state_code": "ME",
    "country_id": 107,
    "country_code": "IT",
    "latitude": "38.10849000",
    "longitude": "14.82990000",
    "native": null,
    "timezone": "Europe/Rome",
    "translations": {}
  },
  {
    "id": 138551,
    "name": "Fiumedinisi",
    "state_id": 5632,
    "state_code": "ME",
    "country_id": 107,
    "country_code": "IT",
    "latitude": "38.02596000",
    "longitude": "15.38099000",
    "native": null,
    "timezone": "Europe/Rome",
    "translations": {}
  },
  {
    "id": 138564,
    "name": "Floresta",
    "state_id": 5632,
    "state_code": "ME",
    "country_id": 107,
    "country_code": "IT",
    "latitude": "37.98779000",
    "longitude": "14.91096000",
    "native": null,
    "timezone": "Europe/Rome",
    "translations": {}
  },
  {
    "id": 138587,
    "name": "Fondachelli-Fantina",
    "state_id": 5632,
    "state_code": "ME",
    "country_id": 107,
    "country_code": "IT",
    "latitude": "37.98476000",
    "longitude": "15.17519000",
    "native": null,
    "timezone": "Europe/Rome",
    "translations": {}
  },
  {
    "id": 138664,
    "name": "Forza d'Agrò",
    "state_id": 5632,
    "state_code": "ME",
    "country_id": 107,
    "country_code": "IT",
    "latitude": "37.91539000",
    "longitude": "15.33409000",
    "native": null,
    "timezone": "Europe/Rome",
    "translations": {}
  },
  {
    "id": 138698,
    "name": "Francavilla di Sicilia",
    "state_id": 5632,
    "state_code": "ME",
    "country_id": 107,
    "country_code": "IT",
    "latitude": "37.90197000",
    "longitude": "15.13821000",
    "native": null,
    "timezone": "Europe/Rome",
    "translations": {}
  },
  {
    "id": 138727,
    "name": "Frazzanò",
    "state_id": 5632,
    "state_code": "ME",
    "country_id": 107,
    "country_code": "IT",
    "latitude": "38.07202000",
    "longitude": "14.74407000",
    "native": null,
    "timezone": "Europe/Rome",
    "translations": {}
  },
  {
    "id": 138756,
    "name": "Furci Siculo",
    "state_id": 5632,
    "state_code": "ME",
    "country_id": 107,
    "country_code": "IT",
    "latitude": "37.96159000",
    "longitude": "15.37763000",
    "native": null,
    "timezone": "Europe/Rome",
    "translations": {}
  },
  {
    "id": 138757,
    "name": "Furnari",
    "state_id": 5632,
    "state_code": "ME",
    "country_id": 107,
    "country_code": "IT",
    "latitude": "38.10436000",
    "longitude": "15.12358000",
    "native": null,
    "timezone": "Europe/Rome",
    "translations": {}
  },
  {
    "id": 138775,
    "name": "Gaggi",
    "state_id": 5632,
    "state_code": "ME",
    "country_id": 107,
    "country_code": "IT",
    "latitude": "37.85995000",
    "longitude": "15.22126000",
    "native": null,
    "timezone": "Europe/Rome",
    "translations": {}
  },
  {
    "id": 138794,
    "name": "Galati Mamertino",
    "state_id": 5632,
    "state_code": "ME",
    "country_id": 107,
    "country_code": "IT",
    "latitude": "38.03176000",
    "longitude": "14.77145000",
    "native": null,
    "timezone": "Europe/Rome",
    "translations": {}
  },
  {
    "id": 138819,
    "name": "Gallodoro",
    "state_id": 5632,
    "state_code": "ME",
    "country_id": 107,
    "country_code": "IT",
    "latitude": "37.90206000",
    "longitude": "15.29359000",
    "native": null,
    "timezone": "Europe/Rome",
    "translations": {}
  },
  {
    "id": 138940,
    "name": "Giammoro",
    "state_id": 5632,
    "state_code": "ME",
    "country_id": 107,
    "country_code": "IT",
    "latitude": "38.20372000",
    "longitude": "15.30666000",
    "native": null,
    "timezone": "Europe/Rome",
    "translations": {}
  },
  {
    "id": 138946,
    "name": "Giardini-Naxos",
    "state_id": 5632,
    "state_code": "ME",
    "country_id": 107,
    "country_code": "IT",
    "latitude": "37.82755000",
    "longitude": "15.26713000",
    "native": null,
    "timezone": "Europe/Rome",
    "translations": {}
  },
  {
    "id": 138973,
    "name": "Gioiosa Marea",
    "state_id": 5632,
    "state_code": "ME",
    "country_id": 107,
    "country_code": "IT",
    "latitude": "38.17373000",
    "longitude": "14.89932000",
    "native": null,
    "timezone": "Europe/Rome",
    "translations": {}
  },
  {
    "id": 139004,
    "name": "Gliaca",
    "state_id": 5632,
    "state_code": "ME",
    "country_id": 107,
    "country_code": "IT",
    "latitude": "38.16317000",
    "longitude": "14.84768000",
    "native": null,
    "timezone": "Europe/Rome",
    "translations": {}
  },
  {
    "id": 139066,
    "name": "Graniti",
    "state_id": 5632,
    "state_code": "ME",
    "country_id": 107,
    "country_code": "IT",
    "latitude": "37.88986000",
    "longitude": "15.22459000",
    "native": null,
    "timezone": "Europe/Rome",
    "translations": {}
  },
  {
    "id": 139149,
    "name": "Gualtieri Sicaminò",
    "state_id": 5632,
    "state_code": "ME",
    "country_id": 107,
    "country_code": "IT",
    "latitude": "38.16267000",
    "longitude": "15.31699000",
    "native": null,
    "timezone": "Europe/Rome",
    "translations": {}
  },
  {
    "id": 139177,
    "name": "Guidomandri Marina",
    "state_id": 5632,
    "state_code": "ME",
    "country_id": 107,
    "country_code": "IT",
    "latitude": "38.04528000",
    "longitude": "15.46303000",
    "native": null,
    "timezone": "Europe/Rome",
    "translations": {}
  },
  {
    "id": 139267,
    "name": "Itala",
    "state_id": 5632,
    "state_code": "ME",
    "country_id": 107,
    "country_code": "IT",
    "latitude": "38.05144000",
    "longitude": "15.43706000",
    "native": null,
    "timezone": "Europe/Rome",
    "translations": {}
  },
  {
    "id": 139372,
    "name": "Larderia",
    "state_id": 5632,
    "state_code": "ME",
    "country_id": 107,
    "country_code": "IT",
    "latitude": "38.14101000",
    "longitude": "15.50287000",
    "native": null,
    "timezone": "Europe/Rome",
    "translations": {}
  },
  {
    "id": 139444,
    "name": "Leni",
    "state_id": 5632,
    "state_code": "ME",
    "country_id": 107,
    "country_code": "IT",
    "latitude": "38.55534000",
    "longitude": "14.82497000",
    "native": null,
    "timezone": "Europe/Rome",
    "translations": {}
  },
  {
    "id": 139477,
    "name": "Letojanni",
    "state_id": 5632,
    "state_code": "ME",
    "country_id": 107,
    "country_code": "IT",
    "latitude": "37.88050000",
    "longitude": "15.30735000",
    "native": null,
    "timezone": "Europe/Rome",
    "translations": {}
  },
  {
    "id": 139493,
    "name": "Librizzi",
    "state_id": 5632,
    "state_code": "ME",
    "country_id": 107,
    "country_code": "IT",
    "latitude": "38.09719000",
    "longitude": "14.95909000",
    "native": null,
    "timezone": "Europe/Rome",
    "translations": {}
  },
  {
    "id": 139522,
    "name": "Limina",
    "state_id": 5632,
    "state_code": "ME",
    "country_id": 107,
    "country_code": "IT",
    "latitude": "37.94076000",
    "longitude": "15.27119000",
    "native": null,
    "timezone": "Europe/Rome",
    "translations": {}
  },
  {
    "id": 139533,
    "name": "Lipari",
    "state_id": 5632,
    "state_code": "ME",
    "country_id": 107,
    "country_code": "IT",
    "latitude": "38.46743000",
    "longitude": "14.95398000",
    "native": null,
    "timezone": "Europe/Rome",
    "translations": {}
  },
  {
    "id": 139595,
    "name": "Longi",
    "state_id": 5632,
    "state_code": "ME",
    "country_id": 107,
    "country_code": "IT",
    "latitude": "38.02617000",
    "longitude": "14.75306000",
    "native": null,
    "timezone": "Europe/Rome",
    "translations": {}
  },
  {
    "id": 139764,
    "name": "Malfa",
    "state_id": 5632,
    "state_code": "ME",
    "country_id": 107,
    "country_code": "IT",
    "latitude": "38.57730000",
    "longitude": "14.83598000",
    "native": null,
    "timezone": "Europe/Rome",
    "translations": {}
  },
  {
    "id": 139776,
    "name": "Malvagna",
    "state_id": 5632,
    "state_code": "ME",
    "country_id": 107,
    "country_code": "IT",
    "latitude": "37.91752000",
    "longitude": "15.05548000",
    "native": null,
    "timezone": "Europe/Rome",
    "translations": {}
  },
  {
    "id": 139783,
    "name": "Mandanici",
    "state_id": 5632,
    "state_code": "ME",
    "country_id": 107,
    "country_code": "IT",
    "latitude": "38.00356000",
    "longitude": "15.31669000",
    "native": null,
    "timezone": "Europe/Rome",
    "translations": {}
  },
  {
    "id": 139880,
    "name": "Marina di Caronia",
    "state_id": 5632,
    "state_code": "ME",
    "country_id": 107,
    "country_code": "IT",
    "latitude": "38.03545000",
    "longitude": "14.44182000",
    "native": null,
    "timezone": "Europe/Rome",
    "translations": {}
  },
  {
    "id": 140009,
    "name": "Mazzarrà Sant'Andrea",
    "state_id": 5632,
    "state_code": "ME",
    "country_id": 107,
    "country_code": "IT",
    "latitude": "38.08969000",
    "longitude": "15.13535000",
    "native": null,
    "timezone": "Europe/Rome",
    "translations": {}
  },
  {
    "id": 140044,
    "name": "Melia",
    "state_id": 5632,
    "state_code": "ME",
    "country_id": 107,
    "country_code": "IT",
    "latitude": "37.90384000",
    "longitude": "15.27499000",
    "native": null,
    "timezone": "Europe/Rome",
    "translations": {}
  },
  {
    "id": 140090,
    "name": "Merì",
    "state_id": 5632,
    "state_code": "ME",
    "country_id": 107,
    "country_code": "IT",
    "latitude": "38.16630000",
    "longitude": "15.24970000",
    "native": null,
    "timezone": "Europe/Rome",
    "translations": {}
  },
  {
    "id": 140098,
    "name": "Messina",
    "state_id": 5632,
    "state_code": "ME",
    "country_id": 107,
    "country_code": "IT",
    "latitude": "38.05000000",
    "longitude": "14.86667000",
    "native": null,
    "timezone": "Europe/Rome",
    "translations": {}
  },
  {
    "id": 140145,
    "name": "Milazzo",
    "state_id": 5632,
    "state_code": "ME",
    "country_id": 107,
    "country_code": "IT",
    "latitude": "38.22008000",
    "longitude": "15.24023000",
    "native": null,
    "timezone": "Europe/Rome",
    "translations": {}
  },
  {
    "id": 140149,
    "name": "Militello Rosmarino",
    "state_id": 5632,
    "state_code": "ME",
    "country_id": 107,
    "country_code": "IT",
    "latitude": "38.04575000",
    "longitude": "14.67584000",
    "native": null,
    "timezone": "Europe/Rome",
    "translations": {}
  },
  {
    "id": 140177,
    "name": "Mirto",
    "state_id": 5632,
    "state_code": "ME",
    "country_id": 107,
    "country_code": "IT",
    "latitude": "38.08439000",
    "longitude": "14.74609000",
    "native": null,
    "timezone": "Europe/Rome",
    "translations": {}
  },
  {
    "id": 140185,
    "name": "Mistretta",
    "state_id": 5632,
    "state_code": "ME",
    "country_id": 107,
    "country_code": "IT",
    "latitude": "37.92823000",
    "longitude": "14.35780000",
    "native": null,
    "timezone": "Europe/Rome",
    "translations": {}
  },
  {
    "id": 140205,
    "name": "Moio Alcantara",
    "state_id": 5632,
    "state_code": "ME",
    "country_id": 107,
    "country_code": "IT",
    "latitude": "37.90056000",
    "longitude": "15.05072000",
    "native": null,
    "timezone": "Europe/Rome",
    "translations": {}
  },
  {
    "id": 140280,
    "name": "Monforte San Giorgio",
    "state_id": 5632,
    "state_code": "ME",
    "country_id": 107,
    "country_code": "IT",
    "latitude": "38.15733000",
    "longitude": "15.38132000",
    "native": null,
    "timezone": "Europe/Rome",
    "translations": {}
  },
  {
    "id": 140287,
    "name": "Mongiuffi Melia",
    "state_id": 5632,
    "state_code": "ME",
    "country_id": 107,
    "country_code": "IT",
    "latitude": "37.90336000",
    "longitude": "15.27539000",
    "native": null,
    "timezone": "Europe/Rome",
    "translations": {}
  },
  {
    "id": 140311,
    "name": "Montagnareale",
    "state_id": 5632,
    "state_code": "ME",
    "country_id": 107,
    "country_code": "IT",
    "latitude": "38.13216000",
    "longitude": "14.94658000",
    "native": null,
    "timezone": "Europe/Rome",
    "translations": {}
  },
  {
    "id": 140317,
    "name": "Montalbano Elicona",
    "state_id": 5632,
    "state_code": "ME",
    "country_id": 107,
    "country_code": "IT",
    "latitude": "38.02360000",
    "longitude": "15.01393000",
    "native": null,
    "timezone": "Europe/Rome",
    "translations": {}
  },
  {
    "id": 140657,
    "name": "Motta Camastra",
    "state_id": 5632,
    "state_code": "ME",
    "country_id": 107,
    "country_code": "IT",
    "latitude": "37.89431000",
    "longitude": "15.17008000",
    "native": null,
    "timezone": "Europe/Rome",
    "translations": {}
  },
  {
    "id": 140664,
    "name": "Motta d'Affermo",
    "state_id": 5632,
    "state_code": "ME",
    "country_id": 107,
    "country_code": "IT",
    "latitude": "37.98096000",
    "longitude": "14.30337000",
    "native": null,
    "timezone": "Europe/Rome",
    "translations": {}
  },
  {
    "id": 140724,
    "name": "Naso",
    "state_id": 5632,
    "state_code": "ME",
    "country_id": 107,
    "country_code": "IT",
    "latitude": "38.12215000",
    "longitude": "14.78702000",
    "native": null,
    "timezone": "Europe/Rome",
    "translations": {}
  },
  {
    "id": 140775,
    "name": "Nizza di Sicilia",
    "state_id": 5632,
    "state_code": "ME",
    "country_id": 107,
    "country_code": "IT",
    "latitude": "37.99081000",
    "longitude": "15.40956000",
    "native": null,
    "timezone": "Europe/Rome",
    "translations": {}
  },
  {
    "id": 140823,
    "name": "Novara di Sicilia",
    "state_id": 5632,
    "state_code": "ME",
    "country_id": 107,
    "country_code": "IT",
    "latitude": "38.01538000",
    "longitude": "15.13134000",
    "native": null,
    "timezone": "Europe/Rome",
    "translations": {}
  },
  {
    "id": 140900,
    "name": "Oliveri",
    "state_id": 5632,
    "state_code": "ME",
    "country_id": 107,
    "country_code": "IT",
    "latitude": "38.12515000",
    "longitude": "15.06068000",
    "native": null,
    "timezone": "Europe/Rome",
    "translations": {}
  },
  {
    "id": 141068,
    "name": "Pace del Mela",
    "state_id": 5632,
    "state_code": "ME",
    "country_id": 107,
    "country_code": "IT",
    "latitude": "38.17997000",
    "longitude": "15.30629000",
    "native": null,
    "timezone": "Europe/Rome",
    "translations": {}
  },
  {
    "id": 58204,
    "name": "Pagliara",
    "state_id": 5632,
    "state_code": "ME",
    "country_id": 107,
    "country_code": "IT",
    "latitude": "37.98546000",
    "longitude": "15.35969000",
    "native": null,
    "timezone": "Europe/Rome",
    "translations": {}
  },
  {
    "id": 58350,
    "name": "Patti",
    "state_id": 5632,
    "state_code": "ME",
    "country_id": 107,
    "country_code": "IT",
    "latitude": "38.14736000",
    "longitude": "14.96409000",
    "native": null,
    "timezone": "Europe/Rome",
    "translations": {}
  },
  {
    "id": 58491,
    "name": "Pettineo",
    "state_id": 5632,
    "state_code": "ME",
    "country_id": 107,
    "country_code": "IT",
    "latitude": "37.96793000",
    "longitude": "14.29118000",
    "native": null,
    "timezone": "Europe/Rome",
    "translations": {}
  },
  {
    "id": 58547,
    "name": "Pianoconte",
    "state_id": 5632,
    "state_code": "ME",
    "country_id": 107,
    "country_code": "IT",
    "latitude": "38.47432000",
    "longitude": "14.92857000",
    "native": null,
    "timezone": "Europe/Rome",
    "translations": {}
  },
  {
    "id": 58701,
    "name": "Piraino",
    "state_id": 5632,
    "state_code": "ME",
    "country_id": 107,
    "country_code": "IT",
    "latitude": "38.16127000",
    "longitude": "14.86100000",
    "native": null,
    "timezone": "Europe/Rome",
    "translations": {}
  },
  {
    "id": 59258,
    "name": "Raccuja",
    "state_id": 5632,
    "state_code": "ME",
    "country_id": 107,
    "country_code": "IT",
    "latitude": "38.05583000",
    "longitude": "14.91044000",
    "native": null,
    "timezone": "Europe/Rome",
    "translations": {}
  },
  {
    "id": 59326,
    "name": "Reitano",
    "state_id": 5632,
    "state_code": "ME",
    "country_id": 107,
    "country_code": "IT",
    "latitude": "37.97198000",
    "longitude": "14.34418000",
    "native": null,
    "timezone": "Europe/Rome",
    "translations": {}
  },
  {
    "id": 59485,
    "name": "Rocca di Capri Leone",
    "state_id": 5632,
    "state_code": "ME",
    "country_id": 107,
    "country_code": "IT",
    "latitude": "38.10677000",
    "longitude": "14.71032000",
    "native": null,
    "timezone": "Europe/Rome",
    "translations": {}
  },
  {
    "id": 59496,
    "name": "Roccafiorita",
    "state_id": 5632,
    "state_code": "ME",
    "country_id": 107,
    "country_code": "IT",
    "latitude": "37.93086000",
    "longitude": "15.26739000",
    "native": null,
    "timezone": "Europe/Rome",
    "translations": {}
  },
  {
    "id": 59506,
    "name": "Roccalumera",
    "state_id": 5632,
    "state_code": "ME",
    "country_id": 107,
    "country_code": "IT",
    "latitude": "37.97554000",
    "longitude": "15.39439000",
    "native": null,
    "timezone": "Europe/Rome",
    "translations": {}
  },
  {
    "id": 59526,
    "name": "Roccavaldina",
    "state_id": 5632,
    "state_code": "ME",
    "country_id": 107,
    "country_code": "IT",
    "latitude": "38.18296000",
    "longitude": "15.37402000",
    "native": null,
    "timezone": "Europe/Rome",
    "translations": {}
  },
  {
    "id": 59533,
    "name": "Roccella Valdemone",
    "state_id": 5632,
    "state_code": "ME",
    "country_id": 107,
    "country_code": "IT",
    "latitude": "37.93289000",
    "longitude": "15.00997000",
    "native": null,
    "timezone": "Europe/Rome",
    "translations": {}
  },
  {
    "id": 59555,
    "name": "Rodì",
    "state_id": 5632,
    "state_code": "ME",
    "country_id": 107,
    "country_code": "IT",
    "latitude": "38.10823000",
    "longitude": "15.16933000",
    "native": null,
    "timezone": "Europe/Rome",
    "translations": {}
  },
  {
    "id": 59585,
    "name": "Rometta",
    "state_id": 5632,
    "state_code": "ME",
    "country_id": 107,
    "country_code": "IT",
    "latitude": "38.17007000",
    "longitude": "15.41429000",
    "native": null,
    "timezone": "Europe/Rome",
    "translations": {}
  },
  {
    "id": 59586,
    "name": "Rometta Marea",
    "state_id": 5632,
    "state_code": "ME",
    "country_id": 107,
    "country_code": "IT",
    "latitude": "38.23264000",
    "longitude": "15.40955000",
    "native": null,
    "timezone": "Europe/Rome",
    "translations": {}
  },
  {
    "id": 59919,
    "name": "San Filippo del Mela",
    "state_id": 5632,
    "state_code": "ME",
    "country_id": 107,
    "country_code": "IT",
    "latitude": "38.17007000",
    "longitude": "15.27338000",
    "native": null,
    "timezone": "Europe/Rome",
    "translations": {}
  },
  {
    "id": 59928,
    "name": "San Fratello",
    "state_id": 5632,
    "state_code": "ME",
    "country_id": 107,
    "country_code": "IT",
    "latitude": "38.01556000",
    "longitude": "14.59818000",
    "native": null,
    "timezone": "Europe/Rome",
    "translations": {}
  },
  {
    "id": 59951,
    "name": "San Giorgio",
    "state_id": 5632,
    "state_code": "ME",
    "country_id": 107,
    "country_code": "IT",
    "latitude": "38.16834000",
    "longitude": "14.94825000",
    "native": null,
    "timezone": "Europe/Rome",
    "translations": {}
  },
  {
    "id": 60063,
    "name": "San Marco d'Alunzio",
    "state_id": 5632,
    "state_code": "ME",
    "country_id": 107,
    "country_code": "IT",
    "latitude": "38.07261000",
    "longitude": "14.70093000",
    "native": null,
    "timezone": "Europe/Rome",
    "translations": {}
  },
  {
    "id": 60164,
    "name": "San Pier Niceto",
    "state_id": 5632,
    "state_code": "ME",
    "country_id": 107,
    "country_code": "IT",
    "latitude": "38.16050000",
    "longitude": "15.34982000",
    "native": null,
    "timezone": "Europe/Rome",
    "translations": {}
  },
  {
    "id": 60167,
    "name": "San Piero Patti",
    "state_id": 5632,
    "state_code": "ME",
    "country_id": 107,
    "country_code": "IT",
    "latitude": "38.05214000",
    "longitude": "14.96816000",
    "native": null,
    "timezone": "Europe/Rome",
    "translations": {}
  },
  {
    "id": 60233,
    "name": "San Salvatore di Fitalia",
    "state_id": 5632,
    "state_code": "ME",
    "country_id": 107,
    "country_code": "IT",
    "latitude": "38.06841000",
    "longitude": "14.77799000",
    "native": null,
    "timezone": "Europe/Rome",
    "translations": {}
  },
  {
    "id": 60252,
    "name": "San Teodoro",
    "state_id": 5632,
    "state_code": "ME",
    "country_id": 107,
    "country_code": "IT",
    "latitude": "37.84797000",
    "longitude": "14.69878000",
    "native": null,
    "timezone": "Europe/Rome",
    "translations": {}
  },
  {
    "id": 60323,
    "name": "Sant'Agata di Militello",
    "state_id": 5632,
    "state_code": "ME",
    "country_id": 107,
    "country_code": "IT",
    "latitude": "38.06838000",
    "longitude": "14.63600000",
    "native": null,
    "timezone": "Europe/Rome",
    "translations": {}
  },
  {
    "id": 60334,
    "name": "Sant'Alessio Siculo",
    "state_id": 5632,
    "state_code": "ME",
    "country_id": 107,
    "country_code": "IT",
    "latitude": "37.92516000",
    "longitude": "15.34968000",
    "native": null,
    "timezone": "Europe/Rome",
    "translations": {}
  },
  {
    "id": 60365,
    "name": "Sant'Angelo di Brolo",
    "state_id": 5632,
    "state_code": "ME",
    "country_id": 107,
    "country_code": "IT",
    "latitude": "38.11518000",
    "longitude": "14.88403000",
    "native": null,
    "timezone": "Europe/Rome",
    "translations": {}
  },
  {
    "id": 60433,
    "name": "Santa Domenica Vittoria",
    "state_id": 5632,
    "state_code": "ME",
    "country_id": 107,
    "country_code": "IT",
    "latitude": "37.91624000",
    "longitude": "14.96288000",
    "native": null,
    "timezone": "Europe/Rome",
    "translations": {}
  },
  {
    "id": 60447,
    "name": "Santa Lucia del Mela",
    "state_id": 5632,
    "state_code": "ME",
    "country_id": 107,
    "country_code": "IT",
    "latitude": "38.14408000",
    "longitude": "15.28055000",
    "native": null,
    "timezone": "Europe/Rome",
    "translations": {}
  },
  {
    "id": 60483,
    "name": "Santa Marina Salina",
    "state_id": 5632,
    "state_code": "ME",
    "country_id": 107,
    "country_code": "IT",
    "latitude": "38.56117000",
    "longitude": "14.87077000",
    "native": null,
    "timezone": "Europe/Rome",
    "translations": {}
  },
  {
    "id": 60496,
    "name": "Santa Teresa di Riva",
    "state_id": 5632,
    "state_code": "ME",
    "country_id": 107,
    "country_code": "IT",
    "latitude": "37.94635000",
    "longitude": "15.36671000",
    "native": null,
    "timezone": "Europe/Rome",
    "translations": {}
  },
  {
    "id": 60521,
    "name": "Santo Stefano di Camastra",
    "state_id": 5632,
    "state_code": "ME",
    "country_id": 107,
    "country_code": "IT",
    "latitude": "38.01295000",
    "longitude": "14.35142000",
    "native": null,
    "timezone": "Europe/Rome",
    "translations": {}
  },
  {
    "id": 60535,
    "name": "Saponara",
    "state_id": 5632,
    "state_code": "ME",
    "country_id": 107,
    "country_code": "IT",
    "latitude": "38.19241000",
    "longitude": "15.43442000",
    "native": null,
    "timezone": "Europe/Rome",
    "translations": {}
  },
  {
    "id": 60536,
    "name": "Saponara Marittima",
    "state_id": 5632,
    "state_code": "ME",
    "country_id": 107,
    "country_code": "IT",
    "latitude": "38.23121000",
    "longitude": "15.42621000",
    "native": null,
    "timezone": "Europe/Rome",
    "translations": {}
  },
  {
    "id": 60595,
    "name": "Savoca",
    "state_id": 5632,
    "state_code": "ME",
    "country_id": 107,
    "country_code": "IT",
    "latitude": "37.95326000",
    "longitude": "15.34009000",
    "native": null,
    "timezone": "Europe/Rome",
    "translations": {}
  },
  {
    "id": 60609,
    "name": "Scaletta Zanclea",
    "state_id": 5632,
    "state_code": "ME",
    "country_id": 107,
    "country_code": "IT",
    "latitude": "38.04796000",
    "longitude": "15.46769000",
    "native": null,
    "timezone": "Europe/Rome",
    "translations": {}
  },
  {
    "id": 60826,
    "name": "Sfaranda",
    "state_id": 5632,
    "state_code": "ME",
    "country_id": 107,
    "country_code": "IT",
    "latitude": "38.05815000",
    "longitude": "14.83147000",
    "native": null,
    "timezone": "Europe/Rome",
    "translations": {}
  },
  {
    "id": 60862,
    "name": "Sinagra",
    "state_id": 5632,
    "state_code": "ME",
    "country_id": 107,
    "country_code": "IT",
    "latitude": "38.08191000",
    "longitude": "14.85009000",
    "native": null,
    "timezone": "Europe/Rome",
    "translations": {}
  },
  {
    "id": 60988,
    "name": "Spadafora",
    "state_id": 5632,
    "state_code": "ME",
    "country_id": 107,
    "country_code": "IT",
    "latitude": "38.22349000",
    "longitude": "15.38178000",
    "native": null,
    "timezone": "Europe/Rome",
    "translations": {}
  },
  {
    "id": 60992,
    "name": "Sparta'",
    "state_id": 5632,
    "state_code": "ME",
    "country_id": 107,
    "country_code": "IT",
    "latitude": "38.29371000",
    "longitude": "15.53503000",
    "native": null,
    "timezone": "Europe/Rome",
    "translations": {}
  },
  {
    "id": 61161,
    "name": "Taormina",
    "state_id": 5632,
    "state_code": "ME",
    "country_id": 107,
    "country_code": "IT",
    "latitude": "37.85358000",
    "longitude": "15.28851000",
    "native": null,
    "timezone": "Europe/Rome",
    "translations": {}
  },
  {
    "id": 61226,
    "name": "Terme",
    "state_id": 5632,
    "state_code": "ME",
    "country_id": 107,
    "country_code": "IT",
    "latitude": "38.13586000",
    "longitude": "15.15658000",
    "native": null,
    "timezone": "Europe/Rome",
    "translations": {}
  },
  {
    "id": 61313,
    "name": "Tonnarella",
    "state_id": 5632,
    "state_code": "ME",
    "country_id": 107,
    "country_code": "IT",
    "latitude": "38.12539000",
    "longitude": "15.11348000",
    "native": null,
    "timezone": "Europe/Rome",
    "translations": {}
  },
  {
    "id": 61383,
    "name": "Torregrotta",
    "state_id": 5632,
    "state_code": "ME",
    "country_id": 107,
    "country_code": "IT",
    "latitude": "38.20262000",
    "longitude": "15.35010000",
    "native": null,
    "timezone": "Europe/Rome",
    "translations": {}
  },
  {
    "id": 61386,
    "name": "Torrenova",
    "state_id": 5632,
    "state_code": "ME",
    "country_id": 107,
    "country_code": "IT",
    "latitude": "38.09246000",
    "longitude": "14.67917000",
    "native": null,
    "timezone": "Europe/Rome",
    "translations": {}
  },
  {
    "id": 61418,
    "name": "Tortorici",
    "state_id": 5632,
    "state_code": "ME",
    "country_id": 107,
    "country_code": "IT",
    "latitude": "38.02973000",
    "longitude": "14.82212000",
    "native": null,
    "timezone": "Europe/Rome",
    "translations": {}
  },
  {
    "id": 61534,
    "name": "Tripi",
    "state_id": 5632,
    "state_code": "ME",
    "country_id": 107,
    "country_code": "IT",
    "latitude": "38.04673000",
    "longitude": "15.09670000",
    "native": null,
    "timezone": "Europe/Rome",
    "translations": {}
  },
  {
    "id": 61580,
    "name": "Tusa",
    "state_id": 5632,
    "state_code": "ME",
    "country_id": 107,
    "country_code": "IT",
    "latitude": "37.98385000",
    "longitude": "14.23606000",
    "native": null,
    "timezone": "Europe/Rome",
    "translations": {}
  },
  {
    "id": 61586,
    "name": "Ucria",
    "state_id": 5632,
    "state_code": "ME",
    "country_id": 107,
    "country_code": "IT",
    "latitude": "38.04624000",
    "longitude": "14.88087000",
    "native": null,
    "timezone": "Europe/Rome",
    "translations": {}
  },
  {
    "id": 61655,
    "name": "Valdina",
    "state_id": 5632,
    "state_code": "ME",
    "country_id": 107,
    "country_code": "IT",
    "latitude": "38.19351000",
    "longitude": "15.36980000",
    "native": null,
    "timezone": "Europe/Rome",
    "translations": {}
  },
  {
    "id": 61818,
    "name": "Venetico Marina",
    "state_id": 5632,
    "state_code": "ME",
    "country_id": 107,
    "country_code": "IT",
    "latitude": "38.21928000",
    "longitude": "15.36648000",
    "native": null,
    "timezone": "Europe/Rome",
    "translations": {}
  },
  {
    "id": 61819,
    "name": "Venetico Superiore",
    "state_id": 5632,
    "state_code": "ME",
    "country_id": 107,
    "country_code": "IT",
    "latitude": "38.19307000",
    "longitude": "15.38119000",
    "native": null,
    "timezone": "Europe/Rome",
    "translations": {}
  },
  {
    "id": 61954,
    "name": "Vigliatore 2",
    "state_id": 5632,
    "state_code": "ME",
    "country_id": 107,
    "country_code": "IT",
    "latitude": "38.12221000",
    "longitude": "15.13066000",
    "native": null,
    "timezone": "Europe/Rome",
    "translations": {}
  },
  {
    "id": 62059,
    "name": "Villafranca Tirrena",
    "state_id": 5632,
    "state_code": "ME",
    "country_id": 107,
    "country_code": "IT",
    "latitude": "38.23952000",
    "longitude": "15.43885000",
    "native": null,
    "timezone": "Europe/Rome",
    "translations": {}
  }
]