[
  {
    "id": 135703,
    "name": "Avetrana",
    "state_id": 1743,
    "state_code": "TA",
    "country_id": 107,
    "country_code": "IT",
    "latitude": "40.35070000",
    "longitude": "17.73260000",
    "native": null,
    "timezone": "Europe/Rome",
    "translations": {}
  },
  {
    "id": 136903,
    "name": "Carosino",
    "state_id": 1743,
    "state_code": "TA",
    "country_id": 107,
    "country_code": "IT",
    "latitude": "40.46538000",
    "longitude": "17.39857000",
    "native": null,
    "timezone": "Europe/Rome",
    "translations": {}
  },
  {
    "id": 137217,
    "name": "Castellaneta",
    "state_id": 1743,
    "state_code": "TA",
    "country_id": 107,
    "country_code": "IT",
    "latitude": "40.62794000",
    "longitude": "16.93290000",
    "native": null,
    "timezone": "Europe/Rome",
    "translations": {}
  },
  {
    "id": 138157,
    "name": "Crispiano",
    "state_id": 1743,
    "state_code": "TA",
    "country_id": 107,
    "country_code": "IT",
    "latitude": "40.60379000",
    "longitude": "17.23290000",
    "native": null,
    "timezone": "Europe/Rome",
    "translations": {}
  },
  {
    "id": 138407,
    "name": "Faggiano",
    "state_id": 1743,
    "state_code": "TA",
    "country_id": 107,
    "country_code": "IT",
    "latitude": "40.41616000",
    "longitude": "17.38861000",
    "native": null,
    "timezone": "Europe/Rome",
    "translations": {}
  },
  {
    "id": 138687,
    "name": "Fragagnano",
    "state_id": 1743,
    "state_code": "TA",
    "country_id": 107,
    "country_code": "IT",
    "latitude": "40.43020000",
    "longitude": "17.47553000",
    "native": null,
    "timezone": "Europe/Rome",
    "translations": {}
  },
  {
    "id": 138966,
    "name": "Ginosa",
    "state_id": 1743,
    "state_code": "TA",
    "country_id": 107,
    "country_code": "IT",
    "latitude": "40.57690000",
    "longitude": "16.75655000",
    "native": null,
    "timezone": "Europe/Rome",
    "translations": {}
  },
  {
    "id": 139121,
    "name": "Grottaglie",
    "state_id": 1743,
    "state_code": "TA",
    "country_id": 107,
    "country_code": "IT",
    "latitude": "40.53694000",
    "longitude": "17.43723000",
    "native": null,
    "timezone": "Europe/Rome",
    "translations": {}
  },
  {
    "id": 139388,
    "name": "Laterza",
    "state_id": 1743,
    "state_code": "TA",
    "country_id": 107,
    "country_code": "IT",
    "latitude": "40.62881000",
    "longitude": "16.79947000",
    "native": null,
    "timezone": "Europe/Rome",
    "translations": {}
  },
  {
    "id": 139458,
    "name": "Leporano",
    "state_id": 1743,
    "state_code": "TA",
    "country_id": 107,
    "country_code": "IT",
    "latitude": "40.38218000",
    "longitude": "17.33426000",
    "native": null,
    "timezone": "Europe/Rome",
    "translations": {}
  },
  {
    "id": 139459,
    "name": "Leporano Marina",
    "state_id": 1743,
    "state_code": "TA",
    "country_id": 107,
    "country_code": "IT",
    "latitude": "40.37860000",
    "longitude": "17.30960000",
    "native": null,
    "timezone": "Europe/Rome",
    "translations": {}
  },
  {
    "id": 139555,
    "name": "Lizzano",
    "state_id": 1743,
    "state_code": "TA",
    "country_id": 107,
    "country_code": "IT",
    "latitude": "40.39301000",
    "longitude": "17.44571000",
    "native": null,
    "timezone": "Europe/Rome",
    "translations": {}
  },
  {
    "id": 139791,
    "name": "Manduria",
    "state_id": 1743,
    "state_code": "TA",
    "country_id": 107,
    "country_code": "IT",
    "latitude": "40.39899000",
    "longitude": "17.63726000",
    "native": null,
    "timezone": "Europe/Rome",
    "translations": {}
  },
  {
    "id": 139886,
    "name": "Marina di Ginosa",
    "state_id": 1743,
    "state_code": "TA",
    "country_id": 107,
    "country_code": "IT",
    "latitude": "40.42833000",
    "longitude": "16.88003000",
    "native": null,
    "timezone": "Europe/Rome",
    "translations": {}
  },
  {
    "id": 139933,
    "name": "Martina Franca",
    "state_id": 1743,
    "state_code": "TA",
    "country_id": 107,
    "country_code": "IT",
    "latitude": "40.70355000",
    "longitude": "17.33814000",
    "native": null,
    "timezone": "Europe/Rome",
    "translations": {}
  },
  {
    "id": 139942,
    "name": "Maruggio",
    "state_id": 1743,
    "state_code": "TA",
    "country_id": 107,
    "country_code": "IT",
    "latitude": "40.32054000",
    "longitude": "17.57052000",
    "native": null,
    "timezone": "Europe/Rome",
    "translations": {}
  },
  {
    "id": 139977,
    "name": "Massafra",
    "state_id": 1743,
    "state_code": "TA",
    "country_id": 107,
    "country_code": "IT",
    "latitude": "40.58618000",
    "longitude": "17.11635000",
    "native": null,
    "timezone": "Europe/Rome",
    "translations": {}
  },
  {
    "id": 140462,
    "name": "Monteiasi",
    "state_id": 1743,
    "state_code": "TA",
    "country_id": 107,
    "country_code": "IT",
    "latitude": "40.49992000",
    "longitude": "17.38260000",
    "native": null,
    "timezone": "Europe/Rome",
    "translations": {}
  },
  {
    "id": 140491,
    "name": "Montemesola",
    "state_id": 1743,
    "state_code": "TA",
    "country_id": 107,
    "country_code": "IT",
    "latitude": "40.56760000",
    "longitude": "17.33665000",
    "native": null,
    "timezone": "Europe/Rome",
    "translations": {}
  },
  {
    "id": 140508,
    "name": "Monteparano",
    "state_id": 1743,
    "state_code": "TA",
    "country_id": 107,
    "country_code": "IT",
    "latitude": "40.44335000",
    "longitude": "17.41308000",
    "native": null,
    "timezone": "Europe/Rome",
    "translations": {}
  },
  {
    "id": 140555,
    "name": "Monti d'Arena-Bosco Caggione",
    "state_id": 1743,
    "state_code": "TA",
    "country_id": 107,
    "country_code": "IT",
    "latitude": "40.35510000",
    "longitude": "17.36432000",
    "native": null,
    "timezone": "Europe/Rome",
    "translations": {}
  },
  {
    "id": 140670,
    "name": "Mottola",
    "state_id": 1743,
    "state_code": "TA",
    "country_id": 107,
    "country_code": "IT",
    "latitude": "40.63890000",
    "longitude": "17.03432000",
    "native": null,
    "timezone": "Europe/Rome",
    "translations": {}
  },
  {
    "id": 58219,
    "name": "Palagianello",
    "state_id": 1743,
    "state_code": "TA",
    "country_id": 107,
    "country_code": "IT",
    "latitude": "40.60851000",
    "longitude": "16.97802000",
    "native": null,
    "timezone": "Europe/Rome",
    "translations": {}
  },
  {
    "id": 58220,
    "name": "Palagiano",
    "state_id": 1743,
    "state_code": "TA",
    "country_id": 107,
    "country_code": "IT",
    "latitude": "40.57762000",
    "longitude": "17.03812000",
    "native": null,
    "timezone": "Europe/Rome",
    "translations": {}
  },
  {
    "id": 58289,
    "name": "Paolo VI",
    "state_id": 1743,
    "state_code": "TA",
    "country_id": 107,
    "country_code": "IT",
    "latitude": "40.52218000",
    "longitude": "17.27401000",
    "native": null,
    "timezone": "Europe/Rome",
    "translations": {}
  },
  {
    "id": 59203,
    "name": "Pulsano",
    "state_id": 1743,
    "state_code": "TA",
    "country_id": 107,
    "country_code": "IT",
    "latitude": "40.38109000",
    "longitude": "17.35612000",
    "native": null,
    "timezone": "Europe/Rome",
    "translations": {}
  },
  {
    "id": 59500,
    "name": "Roccaforzata",
    "state_id": 1743,
    "state_code": "TA",
    "country_id": 107,
    "country_code": "IT",
    "latitude": "40.43700000",
    "longitude": "17.38986000",
    "native": null,
    "timezone": "Europe/Rome",
    "translations": {}
  },
  {
    "id": 59956,
    "name": "San Giorgio Ionico",
    "state_id": 1743,
    "state_code": "TA",
    "country_id": 107,
    "country_code": "IT",
    "latitude": "40.45796000",
    "longitude": "17.38034000",
    "native": null,
    "timezone": "Europe/Rome",
    "translations": {}
  },
  {
    "id": 60099,
    "name": "San Marzano di San Giuseppe",
    "state_id": 1743,
    "state_code": "TA",
    "country_id": 107,
    "country_code": "IT",
    "latitude": "40.45455000",
    "longitude": "17.50351000",
    "native": null,
    "timezone": "Europe/Rome",
    "translations": {}
  },
  {
    "id": 60583,
    "name": "Sava",
    "state_id": 1743,
    "state_code": "TA",
    "country_id": 107,
    "country_code": "IT",
    "latitude": "40.40203000",
    "longitude": "17.55267000",
    "native": null,
    "timezone": "Europe/Rome",
    "translations": {}
  },
  {
    "id": 61049,
    "name": "Statte",
    "state_id": 1743,
    "state_code": "TA",
    "country_id": 107,
    "country_code": "IT",
    "latitude": "40.52856000",
    "longitude": "17.20122000",
    "native": null,
    "timezone": "Europe/Rome",
    "translations": {}
  },
  {
    "id": 61165,
    "name": "Taranto",
    "state_id": 1743,
    "state_code": "TA",
    "country_id": 107,
    "country_code": "IT",
    "latitude": "40.46438000",
    "longitude": "17.24707000",
    "native": null,
    "timezone": "Europe/Rome",
    "translations": {}
  },
  {
    "id": 61400,
    "name": "Torricella",
    "state_id": 1743,
    "state_code": "TA",
    "country_id": 107,
    "country_code": "IT",
    "latitude": "40.35509000",
    "longitude": "17.49846000",
    "native": null,
    "timezone": "Europe/Rome",
    "translations": {}
  },
  {
    "id": 61590,
    "name": "Uggiano Montefusco",
    "state_id": 1743,
    "state_code": "TA",
    "country_id": 107,
    "country_code": "IT",
    "latitude": "40.38612000",
    "longitude": "17.60460000",
    "native": null,
    "timezone": "Europe/Rome",
    "translations": {}
  }
]