[
  {
    "id": 135247,
    "name": "Accadia",
    "state_id": 1771,
    "state_code": "FG",
    "country_id": 107,
    "country_code": "IT",
    "latitude": "41.15768000",
    "longitude": "15.33100000",
    "native": null,
    "timezone": "Europe/Rome",
    "translations": {}
  },
  {
    "id": 135366,
    "name": "Alberona",
    "state_id": 1771,
    "state_code": "FG",
    "country_id": 107,
    "country_code": "IT",
    "latitude": "41.43225000",
    "longitude": "15.12304000",
    "native": null,
    "timezone": "Europe/Rome",
    "translations": {}
  },
  {
    "id": 135525,
    "name": "Anzano di Puglia",
    "state_id": 1771,
    "state_code": "FG",
    "country_id": 107,
    "country_code": "IT",
    "latitude": "41.12162000",
    "longitude": "15.28688000",
    "native": null,
    "timezone": "Europe/Rome",
    "translations": {}
  },
  {
    "id": 135540,
    "name": "Apricena",
    "state_id": 1771,
    "state_code": "FG",
    "country_id": 107,
    "country_code": "IT",
    "latitude": "41.78629000",
    "longitude": "15.44394000",
    "native": null,
    "timezone": "Europe/Rome",
    "translations": {}
  },
  {
    "id": 135656,
    "name": "Ascoli Satriano",
    "state_id": 1771,
    "state_code": "FG",
    "country_id": 107,
    "country_code": "IT",
    "latitude": "41.20365000",
    "longitude": "15.56646000",
    "native": null,
    "timezone": "Europe/Rome",
    "translations": {}
  },
  {
    "id": 136043,
    "name": "Biccari",
    "state_id": 1771,
    "state_code": "FG",
    "country_id": 107,
    "country_code": "IT",
    "latitude": "41.39736000",
    "longitude": "15.19644000",
    "native": null,
    "timezone": "Europe/Rome",
    "translations": {}
  },
  {
    "id": 136272,
    "name": "Bovino",
    "state_id": 1771,
    "state_code": "FG",
    "country_id": 107,
    "country_code": "IT",
    "latitude": "41.24916000",
    "longitude": "15.33948000",
    "native": null,
    "timezone": "Europe/Rome",
    "translations": {}
  },
  {
    "id": 136471,
    "name": "Cagnano Varano",
    "state_id": 1771,
    "state_code": "FG",
    "country_id": 107,
    "country_code": "IT",
    "latitude": "41.82832000",
    "longitude": "15.77203000",
    "native": null,
    "timezone": "Europe/Rome",
    "translations": {}
  },
  {
    "id": 136697,
    "name": "Candela",
    "state_id": 1771,
    "state_code": "FG",
    "country_id": 107,
    "country_code": "IT",
    "latitude": "41.13601000",
    "longitude": "15.51537000",
    "native": null,
    "timezone": "Europe/Rome",
    "translations": {}
  },
  {
    "id": 136834,
    "name": "Carapelle",
    "state_id": 1771,
    "state_code": "FG",
    "country_id": 107,
    "country_code": "IT",
    "latitude": "41.36365000",
    "longitude": "15.69384000",
    "native": null,
    "timezone": "Europe/Rome",
    "translations": {}
  },
  {
    "id": 136884,
    "name": "Carlantino",
    "state_id": 1771,
    "state_code": "FG",
    "country_id": 107,
    "country_code": "IT",
    "latitude": "41.59388000",
    "longitude": "14.97681000",
    "native": null,
    "timezone": "Europe/Rome",
    "translations": {}
  },
  {
    "id": 136921,
    "name": "Carpino",
    "state_id": 1771,
    "state_code": "FG",
    "country_id": 107,
    "country_code": "IT",
    "latitude": "41.84450000",
    "longitude": "15.85712000",
    "native": null,
    "timezone": "Europe/Rome",
    "translations": {}
  },
  {
    "id": 137003,
    "name": "Casalnuovo Monterotaro",
    "state_id": 1771,
    "state_code": "FG",
    "country_id": 107,
    "country_code": "IT",
    "latitude": "41.61942000",
    "longitude": "15.10411000",
    "native": null,
    "timezone": "Europe/Rome",
    "translations": {}
  },
  {
    "id": 137011,
    "name": "Casalvecchio di Puglia",
    "state_id": 1771,
    "state_code": "FG",
    "country_id": 107,
    "country_code": "IT",
    "latitude": "41.59470000",
    "longitude": "15.10999000",
    "native": null,
    "timezone": "Europe/Rome",
    "translations": {}
  },
  {
    "id": 137267,
    "name": "Castelluccio dei Sauri",
    "state_id": 1771,
    "state_code": "FG",
    "country_id": 107,
    "country_code": "IT",
    "latitude": "41.30460000",
    "longitude": "15.47561000",
    "native": null,
    "timezone": "Europe/Rome",
    "translations": {}
  },
  {
    "id": 137266,
    "name": "Castelluccio Valmaggiore",
    "state_id": 1771,
    "state_code": "FG",
    "country_id": 107,
    "country_code": "IT",
    "latitude": "41.34290000",
    "longitude": "15.19944000",
    "native": null,
    "timezone": "Europe/Rome",
    "translations": {}
  },
  {
    "id": 137298,
    "name": "Castelnuovo della Daunia",
    "state_id": 1771,
    "state_code": "FG",
    "country_id": 107,
    "country_code": "IT",
    "latitude": "41.58139000",
    "longitude": "15.11796000",
    "native": null,
    "timezone": "Europe/Rome",
    "translations": {}
  },
  {
    "id": 137464,
    "name": "Celenza Valfortore",
    "state_id": 1771,
    "state_code": "FG",
    "country_id": 107,
    "country_code": "IT",
    "latitude": "41.56048000",
    "longitude": "14.97898000",
    "native": null,
    "timezone": "Europe/Rome",
    "translations": {}
  },
  {
    "id": 137476,
    "name": "Celle di San Vito",
    "state_id": 1771,
    "state_code": "FG",
    "country_id": 107,
    "country_code": "IT",
    "latitude": "41.32593000",
    "longitude": "15.18104000",
    "native": null,
    "timezone": "Europe/Rome",
    "translations": {}
  },
  {
    "id": 137550,
    "name": "Cerignola",
    "state_id": 1771,
    "state_code": "FG",
    "country_id": 107,
    "country_code": "IT",
    "latitude": "41.26523000",
    "longitude": "15.89559000",
    "native": null,
    "timezone": "Europe/Rome",
    "translations": {}
  },
  {
    "id": 137673,
    "name": "Chieuti",
    "state_id": 1771,
    "state_code": "FG",
    "country_id": 107,
    "country_code": "IT",
    "latitude": "41.84486000",
    "longitude": "15.16681000",
    "native": null,
    "timezone": "Europe/Rome",
    "translations": {}
  },
  {
    "id": 138244,
    "name": "Deliceto",
    "state_id": 1771,
    "state_code": "FG",
    "country_id": 107,
    "country_code": "IT",
    "latitude": "41.22289000",
    "longitude": "15.38447000",
    "native": null,
    "timezone": "Europe/Rome",
    "translations": {}
  },
  {
    "id": 138404,
    "name": "Faeto",
    "state_id": 1771,
    "state_code": "FG",
    "country_id": 107,
    "country_code": "IT",
    "latitude": "41.32489000",
    "longitude": "15.16045000",
    "native": null,
    "timezone": "Europe/Rome",
    "translations": {}
  },
  {
    "id": 138572,
    "name": "Foggia",
    "state_id": 1771,
    "state_code": "FG",
    "country_id": 107,
    "country_code": "IT",
    "latitude": "41.45845000",
    "longitude": "15.55188000",
    "native": null,
    "timezone": "Europe/Rome",
    "translations": {}
  },
  {
    "id": 139230,
    "name": "Ischitella",
    "state_id": 1771,
    "state_code": "FG",
    "country_id": 107,
    "country_code": "IT",
    "latitude": "41.90434000",
    "longitude": "15.89945000",
    "native": null,
    "timezone": "Europe/Rome",
    "translations": {}
  },
  {
    "id": 139255,
    "name": "Isole Tremiti",
    "state_id": 1771,
    "state_code": "FG",
    "country_id": 107,
    "country_code": "IT",
    "latitude": "42.12085000",
    "longitude": "15.50424000",
    "native": null,
    "timezone": "Europe/Rome",
    "translations": {}
  },
  {
    "id": 139469,
    "name": "Lesina",
    "state_id": 1771,
    "state_code": "FG",
    "country_id": 107,
    "country_code": "IT",
    "latitude": "41.86125000",
    "longitude": "15.35322000",
    "native": null,
    "timezone": "Europe/Rome",
    "translations": {}
  },
  {
    "id": 139631,
    "name": "Lucera",
    "state_id": 1771,
    "state_code": "FG",
    "country_id": 107,
    "country_code": "IT",
    "latitude": "41.50550000",
    "longitude": "15.33910000",
    "native": null,
    "timezone": "Europe/Rome",
    "translations": {}
  },
  {
    "id": 139796,
    "name": "Manfredonia",
    "state_id": 1771,
    "state_code": "FG",
    "country_id": 107,
    "country_code": "IT",
    "latitude": "41.63065000",
    "longitude": "15.91876000",
    "native": null,
    "timezone": "Europe/Rome",
    "translations": {}
  },
  {
    "id": 140001,
    "name": "Mattinata",
    "state_id": 1771,
    "state_code": "FG",
    "country_id": 107,
    "country_code": "IT",
    "latitude": "41.71112000",
    "longitude": "16.05087000",
    "native": null,
    "timezone": "Europe/Rome",
    "translations": {}
  },
  {
    "id": 140379,
    "name": "Monte Sant'Angelo",
    "state_id": 1771,
    "state_code": "FG",
    "country_id": 107,
    "country_code": "IT",
    "latitude": "41.70530000",
    "longitude": "15.96068000",
    "native": null,
    "timezone": "Europe/Rome",
    "translations": {}
  },
  {
    "id": 140471,
    "name": "Monteleone di Puglia",
    "state_id": 1771,
    "state_code": "FG",
    "country_id": 107,
    "country_code": "IT",
    "latitude": "41.16711000",
    "longitude": "15.25822000",
    "native": null,
    "timezone": "Europe/Rome",
    "translations": {}
  },
  {
    "id": 140659,
    "name": "Motta Montecorvino",
    "state_id": 1771,
    "state_code": "FG",
    "country_id": 107,
    "country_code": "IT",
    "latitude": "41.50743000",
    "longitude": "15.11414000",
    "native": null,
    "timezone": "Europe/Rome",
    "translations": {}
  },
  {
    "id": 140946,
    "name": "Ordona",
    "state_id": 1771,
    "state_code": "FG",
    "country_id": 107,
    "country_code": "IT",
    "latitude": "41.31501000",
    "longitude": "15.62832000",
    "native": null,
    "timezone": "Europe/Rome",
    "translations": {}
  },
  {
    "id": 140972,
    "name": "Orsara di Puglia",
    "state_id": 1771,
    "state_code": "FG",
    "country_id": 107,
    "country_code": "IT",
    "latitude": "41.28163000",
    "longitude": "15.26765000",
    "native": null,
    "timezone": "Europe/Rome",
    "translations": {}
  },
  {
    "id": 140977,
    "name": "Orta Nova",
    "state_id": 1771,
    "state_code": "FG",
    "country_id": 107,
    "country_code": "IT",
    "latitude": "41.32879000",
    "longitude": "15.70994000",
    "native": null,
    "timezone": "Europe/Rome",
    "translations": {}
  },
  {
    "id": 58282,
    "name": "Panni",
    "state_id": 1771,
    "state_code": "FG",
    "country_id": 107,
    "country_code": "IT",
    "latitude": "41.22082000",
    "longitude": "15.27560000",
    "native": null,
    "timezone": "Europe/Rome",
    "translations": {}
  },
  {
    "id": 58455,
    "name": "Peschici",
    "state_id": 1771,
    "state_code": "FG",
    "country_id": 107,
    "country_code": "IT",
    "latitude": "41.94521000",
    "longitude": "16.01612000",
    "native": null,
    "timezone": "Europe/Rome",
    "translations": {}
  },
  {
    "id": 58617,
    "name": "Pietramontecorvino",
    "state_id": 1771,
    "state_code": "FG",
    "country_id": 107,
    "country_code": "IT",
    "latitude": "41.54228000",
    "longitude": "15.12894000",
    "native": null,
    "timezone": "Europe/Rome",
    "translations": {}
  },
  {
    "id": 58755,
    "name": "Poggio Imperiale",
    "state_id": 1771,
    "state_code": "FG",
    "country_id": 107,
    "country_code": "IT",
    "latitude": "41.82503000",
    "longitude": "15.36680000",
    "native": null,
    "timezone": "Europe/Rome",
    "translations": {}
  },
  {
    "id": 59378,
    "name": "Rignano Garganico",
    "state_id": 1771,
    "state_code": "FG",
    "country_id": 107,
    "country_code": "IT",
    "latitude": "41.67934000",
    "longitude": "15.58835000",
    "native": null,
    "timezone": "Europe/Rome",
    "translations": {}
  },
  {
    "id": 59541,
    "name": "Rocchetta Sant'Antonio",
    "state_id": 1771,
    "state_code": "FG",
    "country_id": 107,
    "country_code": "IT",
    "latitude": "41.10326000",
    "longitude": "15.45993000",
    "native": null,
    "timezone": "Europe/Rome",
    "translations": {}
  },
  {
    "id": 59553,
    "name": "Rodi Garganico",
    "state_id": 1771,
    "state_code": "FG",
    "country_id": 107,
    "country_code": "IT",
    "latitude": "41.92745000",
    "longitude": "15.88217000",
    "native": null,
    "timezone": "Europe/Rome",
    "translations": {}
  },
  {
    "id": 59636,
    "name": "Roseto Valfortore",
    "state_id": 1771,
    "state_code": "FG",
    "country_id": 107,
    "country_code": "IT",
    "latitude": "41.37544000",
    "longitude": "15.09824000",
    "native": null,
    "timezone": "Europe/Rome",
    "translations": {}
  },
  {
    "id": 59988,
    "name": "San Giovanni Rotondo",
    "state_id": 1771,
    "state_code": "FG",
    "country_id": 107,
    "country_code": "IT",
    "latitude": "41.70643000",
    "longitude": "15.72770000",
    "native": null,
    "timezone": "Europe/Rome",
    "translations": {}
  },
  {
    "id": 60065,
    "name": "San Marco in Lamis",
    "state_id": 1771,
    "state_code": "FG",
    "country_id": 107,
    "country_code": "IT",
    "latitude": "41.71210000",
    "longitude": "15.63825000",
    "native": null,
    "timezone": "Europe/Rome",
    "translations": {}
  },
  {
    "id": 60066,
    "name": "San Marco la Catola",
    "state_id": 1771,
    "state_code": "FG",
    "country_id": 107,
    "country_code": "IT",
    "latitude": "41.52483000",
    "longitude": "15.00594000",
    "native": null,
    "timezone": "Europe/Rome",
    "translations": {}
  },
  {
    "id": 60161,
    "name": "San Paolo di Civitate",
    "state_id": 1771,
    "state_code": "FG",
    "country_id": 107,
    "country_code": "IT",
    "latitude": "41.73893000",
    "longitude": "15.26080000",
    "native": null,
    "timezone": "Europe/Rome",
    "translations": {}
  },
  {
    "id": 60244,
    "name": "San Severo",
    "state_id": 1771,
    "state_code": "FG",
    "country_id": 107,
    "country_code": "IT",
    "latitude": "41.68564000",
    "longitude": "15.38148000",
    "native": null,
    "timezone": "Europe/Rome",
    "translations": {}
  },
  {
    "id": 60310,
    "name": "Sannicandro Garganico",
    "state_id": 1771,
    "state_code": "FG",
    "country_id": 107,
    "country_code": "IT",
    "latitude": "41.83844000",
    "longitude": "15.56535000",
    "native": null,
    "timezone": "Europe/Rome",
    "translations": {}
  },
  {
    "id": 60324,
    "name": "Sant'Agata di Puglia",
    "state_id": 1771,
    "state_code": "FG",
    "country_id": 107,
    "country_code": "IT",
    "latitude": "41.15127000",
    "longitude": "15.37968000",
    "native": null,
    "timezone": "Europe/Rome",
    "translations": {}
  },
  {
    "id": 60758,
    "name": "Serracapriola",
    "state_id": 1771,
    "state_code": "FG",
    "country_id": 107,
    "country_code": "IT",
    "latitude": "41.80912000",
    "longitude": "15.16098000",
    "native": null,
    "timezone": "Europe/Rome",
    "translations": {}
  },
  {
    "id": 61079,
    "name": "Stornara",
    "state_id": 1771,
    "state_code": "FG",
    "country_id": 107,
    "country_code": "IT",
    "latitude": "41.28672000",
    "longitude": "15.77003000",
    "native": null,
    "timezone": "Europe/Rome",
    "translations": {}
  },
  {
    "id": 61080,
    "name": "Stornarella",
    "state_id": 1771,
    "state_code": "FG",
    "country_id": 107,
    "country_code": "IT",
    "latitude": "41.25591000",
    "longitude": "15.73023000",
    "native": null,
    "timezone": "Europe/Rome",
    "translations": {}
  },
  {
    "id": 61384,
    "name": "Torremaggiore",
    "state_id": 1771,
    "state_code": "FG",
    "country_id": 107,
    "country_code": "IT",
    "latitude": "41.68894000",
    "longitude": "15.29408000",
    "native": null,
    "timezone": "Europe/Rome",
    "translations": {}
  },
  {
    "id": 61549,
    "name": "Troia",
    "state_id": 1771,
    "state_code": "FG",
    "country_id": 107,
    "country_code": "IT",
    "latitude": "41.36428000",
    "longitude": "15.31730000",
    "native": null,
    "timezone": "Europe/Rome",
    "translations": {}
  },
  {
    "id": 61918,
    "name": "Vico del Gargano",
    "state_id": 1771,
    "state_code": "FG",
    "country_id": 107,
    "country_code": "IT",
    "latitude": "41.89661000",
    "longitude": "15.95682000",
    "native": null,
    "timezone": "Europe/Rome",
    "translations": {}
  },
  {
    "id": 61933,
    "name": "Vieste",
    "state_id": 1771,
    "state_code": "FG",
    "country_id": 107,
    "country_code": "IT",
    "latitude": "41.88209000",
    "longitude": "16.17139000",
    "native": null,
    "timezone": "Europe/Rome",
    "translations": {}
  },
  {
    "id": 62220,
    "name": "Volturara Appula",
    "state_id": 1771,
    "state_code": "FG",
    "country_id": 107,
    "country_code": "IT",
    "latitude": "41.49603000",
    "longitude": "15.05224000",
    "native": null,
    "timezone": "Europe/Rome",
    "translations": {}
  },
  {
    "id": 62222,
    "name": "Volturino",
    "state_id": 1771,
    "state_code": "FG",
    "country_id": 107,
    "country_code": "IT",
    "latitude": "41.47723000",
    "longitude": "15.12424000",
    "native": null,
    "timezone": "Europe/Rome",
    "translations": {}
  },
  {
    "id": 62237,
    "name": "Zapponeta",
    "state_id": 1771,
    "state_code": "FG",
    "country_id": 107,
    "country_code": "IT",
    "latitude": "41.45710000",
    "longitude": "15.95615000",
    "native": null,
    "timezone": "Europe/Rome",
    "translations": {}
  }
]