[
  {
    "id": 48349,
    "name": "Ballintoy Harbour",
    "state_id": 2316,
    "state_code": "CCG",
    "country_id": 232,
    "country_code": "GB",
    "latitude": "55.24422000",
    "longitude": "-6.36919000",
    "native": null,
    "timezone": "Europe/London",
    "translations": {}
  },
  {
    "id": 48351,
    "name": "Ballycastle",
    "state_id": 2316,
    "state_code": "CCG",
    "country_id": 232,
    "country_code": "GB",
    "latitude": "55.20444000",
    "longitude": "-6.24298000",
    "native": null,
    "timezone": "Europe/London",
    "translations": {}
  },
  {
    "id": 48356,
    "name": "Ballymoney",
    "state_id": 2316,
    "state_code": "CCG",
    "country_id": 232,
    "country_code": "GB",
    "latitude": "55.07080000",
    "longitude": "-6.51009000",
    "native": null,
    "timezone": "Europe/London",
    "translations": {}
  },
  {
    "id": 48358,
    "name": "Ballypatrick",
    "state_id": 2316,
    "state_code": "CCG",
    "country_id": 232,
    "country_code": "GB",
    "latitude": "55.18112000",
    "longitude": "-6.15020000",
    "native": null,
    "timezone": "Europe/London",
    "translations": {}
  },
  {
    "id": 48802,
    "name": "Bushmills",
    "state_id": 2316,
    "state_code": "CCG",
    "country_id": 232,
    "country_code": "GB",
    "latitude": "55.20493000",
    "longitude": "-6.51918000",
    "native": null,
    "timezone": "Europe/London",
    "translations": {}
  },
  {
    "id": 48885,
    "name": "Castlerock",
    "state_id": 2316,
    "state_code": "CCG",
    "country_id": 232,
    "country_code": "GB",
    "latitude": "55.15000000",
    "longitude": "-6.78333000",
    "native": null,
    "timezone": "Europe/London",
    "translations": {}
  },
  {
    "id": 48896,
    "name": "Causeway Coast and Glens",
    "state_id": 2316,
    "state_code": "CCG",
    "country_id": 232,
    "country_code": "GB",
    "latitude": "55.06014000",
    "longitude": "-6.59081000",
    "native": null,
    "timezone": "Europe/London",
    "translations": {}
  },
  {
    "id": 49067,
    "name": "Coleraine",
    "state_id": 2316,
    "state_code": "CCG",
    "country_id": 232,
    "country_code": "GB",
    "latitude": "55.13333000",
    "longitude": "-6.66667000",
    "native": null,
    "timezone": "Europe/London",
    "translations": {}
  },
  {
    "id": 49354,
    "name": "Dungiven",
    "state_id": 2316,
    "state_code": "CCG",
    "country_id": 232,
    "country_code": "GB",
    "latitude": "54.93333000",
    "longitude": "-6.91667000",
    "native": null,
    "timezone": "Europe/London",
    "translations": {}
  },
  {
    "id": 49359,
    "name": "Dunloy",
    "state_id": 2316,
    "state_code": "CCG",
    "country_id": 232,
    "country_code": "GB",
    "latitude": "55.01100000",
    "longitude": "-6.41087000",
    "native": null,
    "timezone": "Europe/London",
    "translations": {}
  },
  {
    "id": 49632,
    "name": "Garvagh",
    "state_id": 2316,
    "state_code": "CCG",
    "country_id": 232,
    "country_code": "GB",
    "latitude": "54.98333000",
    "longitude": "-6.66667000",
    "native": null,
    "timezone": "Europe/London",
    "translations": {}
  },
  {
    "id": 50152,
    "name": "Kilrea",
    "state_id": 2316,
    "state_code": "CCG",
    "country_id": 232,
    "country_code": "GB",
    "latitude": "54.95091000",
    "longitude": "-6.55695000",
    "native": null,
    "timezone": "Europe/London",
    "translations": {}
  },
  {
    "id": 50303,
    "name": "Limavady",
    "state_id": 2316,
    "state_code": "CCG",
    "country_id": 232,
    "country_code": "GB",
    "latitude": "55.05045000",
    "longitude": "-6.95074000",
    "native": null,
    "timezone": "Europe/London",
    "translations": {}
  },
  {
    "id": 50466,
    "name": "Maghera",
    "state_id": 2316,
    "state_code": "CCG",
    "country_id": 232,
    "country_code": "GB",
    "latitude": "54.84390000",
    "longitude": "-6.67145000",
    "native": null,
    "timezone": "Europe/London",
    "translations": {}
  },
  {
    "id": 50959,
    "name": "Portglenone",
    "state_id": 2316,
    "state_code": "CCG",
    "country_id": 232,
    "country_code": "GB",
    "latitude": "54.87147000",
    "longitude": "-6.47146000",
    "native": null,
    "timezone": "Europe/London",
    "translations": {}
  },
  {
    "id": 50968,
    "name": "Portrush",
    "state_id": 2316,
    "state_code": "CCG",
    "country_id": 232,
    "country_code": "GB",
    "latitude": "55.19592000",
    "longitude": "-6.64930000",
    "native": null,
    "timezone": "Europe/London",
    "translations": {}
  },
  {
    "id": 50973,
    "name": "Portstewart",
    "state_id": 2316,
    "state_code": "CCG",
    "country_id": 232,
    "country_code": "GB",
    "latitude": "55.18132000",
    "longitude": "-6.71402000",
    "native": null,
    "timezone": "Europe/London",
    "translations": {}
  }
]