[
  {
    "id": 135542,
    "name": "Aprilia",
    "state_id": 1674,
    "state_code": "LT",
    "country_id": 107,
    "country_code": "IT",
    "latitude": "41.59452000",
    "longitude": "12.65419000",
    "native": null,
    "timezone": "Europe/Rome",
    "translations": {}
  },
  {
    "id": 135895,
    "name": "Bassiano",
    "state_id": 1674,
    "state_code": "LT",
    "country_id": 107,
    "country_code": "IT",
    "latitude": "41.55154000",
    "longitude": "13.02732000",
    "native": null,
    "timezone": "Europe/Rome",
    "translations": {}
  },
  {
    "id": 135935,
    "name": "Bella Farnia",
    "state_id": 1674,
    "state_code": "LT",
    "country_id": 107,
    "country_code": "IT",
    "latitude": "41.36780000",
    "longitude": "12.97602000",
    "native": null,
    "timezone": "Europe/Rome",
    "translations": {}
  },
  {
    "id": 136172,
    "name": "Borgo Grappa",
    "state_id": 1674,
    "state_code": "LT",
    "country_id": 107,
    "country_code": "IT",
    "latitude": "41.40212000",
    "longitude": "12.96053000",
    "native": null,
    "timezone": "Europe/Rome",
    "translations": {}
  },
  {
    "id": 136173,
    "name": "Borgo Hermada",
    "state_id": 1674,
    "state_code": "LT",
    "country_id": 107,
    "country_code": "IT",
    "latitude": "41.30559000",
    "longitude": "13.17235000",
    "native": null,
    "timezone": "Europe/Rome",
    "translations": {}
  },
  {
    "id": 136178,
    "name": "Borgo Podgora",
    "state_id": 1674,
    "state_code": "LT",
    "country_id": 107,
    "country_code": "IT",
    "latitude": "41.51462000",
    "longitude": "12.85383000",
    "native": null,
    "timezone": "Europe/Rome",
    "translations": {}
  },
  {
    "id": 136180,
    "name": "Borgo Sabotino-Foce Verde",
    "state_id": 1674,
    "state_code": "LT",
    "country_id": 107,
    "country_code": "IT",
    "latitude": "41.41667000",
    "longitude": "12.83333000",
    "native": null,
    "timezone": "Europe/Rome",
    "translations": {}
  },
  {
    "id": 136186,
    "name": "Borgo San Michele",
    "state_id": 1674,
    "state_code": "LT",
    "country_id": 107,
    "country_code": "IT",
    "latitude": "41.43828000",
    "longitude": "12.97351000",
    "native": null,
    "timezone": "Europe/Rome",
    "translations": {}
  },
  {
    "id": 136646,
    "name": "Campodimele",
    "state_id": 1674,
    "state_code": "LT",
    "country_id": 107,
    "country_code": "IT",
    "latitude": "41.38822000",
    "longitude": "13.53081000",
    "native": null,
    "timezone": "Europe/Rome",
    "translations": {}
  },
  {
    "id": 136926,
    "name": "Carrara-Pontenuovo",
    "state_id": 1674,
    "state_code": "LT",
    "country_id": 107,
    "country_code": "IT",
    "latitude": "41.54045000",
    "longitude": "12.95468000",
    "native": null,
    "timezone": "Europe/Rome",
    "translations": {}
  },
  {
    "id": 137195,
    "name": "Castelforte",
    "state_id": 1674,
    "state_code": "LT",
    "country_id": 107,
    "country_code": "IT",
    "latitude": "41.29392000",
    "longitude": "13.83061000",
    "native": null,
    "timezone": "Europe/Rome",
    "translations": {}
  },
  {
    "id": 137762,
    "name": "Cisterna di Latina",
    "state_id": 1674,
    "state_code": "LT",
    "country_id": 107,
    "country_code": "IT",
    "latitude": "41.59080000",
    "longitude": "12.82808000",
    "native": null,
    "timezone": "Europe/Rome",
    "translations": {}
  },
  {
    "id": 138010,
    "name": "Cori",
    "state_id": 1674,
    "state_code": "LT",
    "country_id": 107,
    "country_code": "IT",
    "latitude": "41.64358000",
    "longitude": "12.91121000",
    "native": null,
    "timezone": "Europe/Rome",
    "translations": {}
  },
  {
    "id": 138588,
    "name": "Fondi",
    "state_id": 1674,
    "state_code": "LT",
    "country_id": 107,
    "country_code": "IT",
    "latitude": "41.35787000",
    "longitude": "13.42718000",
    "native": null,
    "timezone": "Europe/Rome",
    "translations": {}
  },
  {
    "id": 138636,
    "name": "Formia",
    "state_id": 1674,
    "state_code": "LT",
    "country_id": 107,
    "country_code": "IT",
    "latitude": "41.25632000",
    "longitude": "13.60888000",
    "native": null,
    "timezone": "Europe/Rome",
    "translations": {}
  },
  {
    "id": 138774,
    "name": "Gaeta",
    "state_id": 1674,
    "state_code": "LT",
    "country_id": 107,
    "country_code": "IT",
    "latitude": "41.21408000",
    "longitude": "13.57082000",
    "native": null,
    "timezone": "Europe/Rome",
    "translations": {}
  },
  {
    "id": 138990,
    "name": "Giulianello",
    "state_id": 1674,
    "state_code": "LT",
    "country_id": 107,
    "country_code": "IT",
    "latitude": "41.68610000",
    "longitude": "12.87917000",
    "native": null,
    "timezone": "Europe/Rome",
    "translations": {}
  },
  {
    "id": 139143,
    "name": "Grunuovo-Campomaggiore San Luca",
    "state_id": 1674,
    "state_code": "LT",
    "country_id": 107,
    "country_code": "IT",
    "latitude": "41.27228000",
    "longitude": "13.80684000",
    "native": null,
    "timezone": "Europe/Rome",
    "translations": {}
  },
  {
    "id": 139268,
    "name": "Itri",
    "state_id": 1674,
    "state_code": "LT",
    "country_id": 107,
    "country_code": "IT",
    "latitude": "41.29034000",
    "longitude": "13.53000000",
    "native": null,
    "timezone": "Europe/Rome",
    "translations": {}
  },
  {
    "id": 139390,
    "name": "Latina",
    "state_id": 1674,
    "state_code": "LT",
    "country_id": 107,
    "country_code": "IT",
    "latitude": "41.46614000",
    "longitude": "12.90430000",
    "native": null,
    "timezone": "Europe/Rome",
    "translations": {}
  },
  {
    "id": 139391,
    "name": "Latina Scalo",
    "state_id": 1674,
    "state_code": "LT",
    "country_id": 107,
    "country_code": "IT",
    "latitude": "41.53157000",
    "longitude": "12.94567000",
    "native": null,
    "timezone": "Europe/Rome",
    "translations": {}
  },
  {
    "id": 139426,
    "name": "Le Forna",
    "state_id": 1674,
    "state_code": "LT",
    "country_id": 107,
    "country_code": "IT",
    "latitude": "40.92475000",
    "longitude": "12.96896000",
    "native": null,
    "timezone": "Europe/Rome",
    "translations": {}
  },
  {
    "id": 139448,
    "name": "Lenola",
    "state_id": 1674,
    "state_code": "LT",
    "country_id": 107,
    "country_code": "IT",
    "latitude": "41.40485000",
    "longitude": "13.45934000",
    "native": null,
    "timezone": "Europe/Rome",
    "translations": {}
  },
  {
    "id": 139713,
    "name": "Maenza",
    "state_id": 1674,
    "state_code": "LT",
    "country_id": 107,
    "country_code": "IT",
    "latitude": "41.52402000",
    "longitude": "13.18344000",
    "native": null,
    "timezone": "Europe/Rome",
    "translations": {}
  },
  {
    "id": 139830,
    "name": "Maranola-Trivio",
    "state_id": 1674,
    "state_code": "LT",
    "country_id": 107,
    "country_code": "IT",
    "latitude": "41.28522000",
    "longitude": "13.62777000",
    "native": null,
    "timezone": "Europe/Rome",
    "translations": {}
  },
  {
    "id": 140162,
    "name": "Minturno",
    "state_id": 1674,
    "state_code": "LT",
    "country_id": 107,
    "country_code": "IT",
    "latitude": "41.26294000",
    "longitude": "13.74583000",
    "native": null,
    "timezone": "Europe/Rome",
    "translations": {}
  },
  {
    "id": 140212,
    "name": "Molella",
    "state_id": 1674,
    "state_code": "LT",
    "country_id": 107,
    "country_code": "IT",
    "latitude": "41.26009000",
    "longitude": "13.06221000",
    "native": null,
    "timezone": "Europe/Rome",
    "translations": {}
  },
  {
    "id": 140368,
    "name": "Monte San Biagio",
    "state_id": 1674,
    "state_code": "LT",
    "country_id": 107,
    "country_code": "IT",
    "latitude": "41.35360000",
    "longitude": "13.35184000",
    "native": null,
    "timezone": "Europe/Rome",
    "translations": {}
  },
  {
    "id": 140808,
    "name": "Norma",
    "state_id": 1674,
    "state_code": "LT",
    "country_id": 107,
    "country_code": "IT",
    "latitude": "41.58643000",
    "longitude": "12.97073000",
    "native": null,
    "timezone": "Europe/Rome",
    "translations": {}
  },
  {
    "id": 58401,
    "name": "Penitro",
    "state_id": 1674,
    "state_code": "LT",
    "country_id": 107,
    "country_code": "IT",
    "latitude": "41.27328000",
    "longitude": "13.69262000",
    "native": null,
    "timezone": "Europe/Rome",
    "translations": {}
  },
  {
    "id": 58888,
    "name": "Pontinia",
    "state_id": 1674,
    "state_code": "LT",
    "country_id": 107,
    "country_code": "IT",
    "latitude": "41.41097000",
    "longitude": "13.04259000",
    "native": null,
    "timezone": "Europe/Rome",
    "translations": {}
  },
  {
    "id": 58894,
    "name": "Ponza",
    "state_id": 1674,
    "state_code": "LT",
    "country_id": 107,
    "country_code": "IT",
    "latitude": "40.89541000",
    "longitude": "12.95889000",
    "native": null,
    "timezone": "Europe/Rome",
    "translations": {}
  },
  {
    "id": 59032,
    "name": "Prato di Coppola",
    "state_id": 1674,
    "state_code": "LT",
    "country_id": 107,
    "country_code": "IT",
    "latitude": "41.41750000",
    "longitude": "12.88157000",
    "native": null,
    "timezone": "Europe/Rome",
    "translations": {}
  },
  {
    "id": 59083,
    "name": "Priverno",
    "state_id": 1674,
    "state_code": "LT",
    "country_id": 107,
    "country_code": "IT",
    "latitude": "41.47047000",
    "longitude": "13.17867000",
    "native": null,
    "timezone": "Europe/Rome",
    "translations": {}
  },
  {
    "id": 59094,
    "name": "Prossedi",
    "state_id": 1674,
    "state_code": "LT",
    "country_id": 107,
    "country_code": "IT",
    "latitude": "41.51674000",
    "longitude": "13.26100000",
    "native": null,
    "timezone": "Europe/Rome",
    "translations": {}
  },
  {
    "id": 59472,
    "name": "Rocca Massima",
    "state_id": 1674,
    "state_code": "LT",
    "country_id": 107,
    "country_code": "IT",
    "latitude": "41.67907000",
    "longitude": "12.92116000",
    "native": null,
    "timezone": "Europe/Rome",
    "translations": {}
  },
  {
    "id": 59504,
    "name": "Roccagorga",
    "state_id": 1674,
    "state_code": "LT",
    "country_id": 107,
    "country_code": "IT",
    "latitude": "41.52511000",
    "longitude": "13.15510000",
    "native": null,
    "timezone": "Europe/Rome",
    "translations": {}
  },
  {
    "id": 59521,
    "name": "Roccasecca dei Volsci",
    "state_id": 1674,
    "state_code": "LT",
    "country_id": 107,
    "country_code": "IT",
    "latitude": "41.47852000",
    "longitude": "13.21280000",
    "native": null,
    "timezone": "Europe/Rome",
    "translations": {}
  },
  {
    "id": 59711,
    "name": "Sabaudia",
    "state_id": 1674,
    "state_code": "LT",
    "country_id": 107,
    "country_code": "IT",
    "latitude": "41.30025000",
    "longitude": "13.02815000",
    "native": null,
    "timezone": "Europe/Rome",
    "translations": {}
  },
  {
    "id": 59909,
    "name": "San Felice Circeo",
    "state_id": 1674,
    "state_code": "LT",
    "country_id": 107,
    "country_code": "IT",
    "latitude": "41.23716000",
    "longitude": "13.09416000",
    "native": null,
    "timezone": "Europe/Rome",
    "translations": {}
  },
  {
    "id": 60509,
    "name": "Santi Cosma e Damiano",
    "state_id": 1674,
    "state_code": "LT",
    "country_id": 107,
    "country_code": "IT",
    "latitude": "41.30091000",
    "longitude": "13.81565000",
    "native": null,
    "timezone": "Europe/Rome",
    "translations": {}
  },
  {
    "id": 60745,
    "name": "Sermoneta",
    "state_id": 1674,
    "state_code": "LT",
    "country_id": 107,
    "country_code": "IT",
    "latitude": "41.54919000",
    "longitude": "12.98481000",
    "native": null,
    "timezone": "Europe/Rome",
    "translations": {}
  },
  {
    "id": 60824,
    "name": "Sezze",
    "state_id": 1674,
    "state_code": "LT",
    "country_id": 107,
    "country_code": "IT",
    "latitude": "41.50032000",
    "longitude": "13.06176000",
    "native": null,
    "timezone": "Europe/Rome",
    "translations": {}
  },
  {
    "id": 60825,
    "name": "Sezze Scalo",
    "state_id": 1674,
    "state_code": "LT",
    "country_id": 107,
    "country_code": "IT",
    "latitude": "41.49701000",
    "longitude": "13.04257000",
    "native": null,
    "timezone": "Europe/Rome",
    "translations": {}
  },
  {
    "id": 60941,
    "name": "Sonnino",
    "state_id": 1674,
    "state_code": "LT",
    "country_id": 107,
    "country_code": "IT",
    "latitude": "41.41673000",
    "longitude": "13.24592000",
    "native": null,
    "timezone": "Europe/Rome",
    "translations": {}
  },
  {
    "id": 60998,
    "name": "Sperlonga",
    "state_id": 1674,
    "state_code": "LT",
    "country_id": 107,
    "country_code": "IT",
    "latitude": "41.25897000",
    "longitude": "13.43302000",
    "native": null,
    "timezone": "Europe/Rome",
    "translations": {}
  },
  {
    "id": 61235,
    "name": "Terracina",
    "state_id": 1674,
    "state_code": "LT",
    "country_id": 107,
    "country_code": "IT",
    "latitude": "41.29174000",
    "longitude": "13.24359000",
    "native": null,
    "timezone": "Europe/Rome",
    "translations": {}
  },
  {
    "id": 61828,
    "name": "Ventotene",
    "state_id": 1674,
    "state_code": "LT",
    "country_id": 107,
    "country_code": "IT",
    "latitude": "40.79404000",
    "longitude": "13.42777000",
    "native": null,
    "timezone": "Europe/Rome",
    "translations": {}
  }
]