[
  {
    "id": 39340,
    "name": "Alzonne",
    "state_id": 4977,
    "state_code": "11",
    "country_id": 75,
    "country_code": "FR",
    "latitude": "43.25338000",
    "longitude": "2.17808000",
    "native": null,
    "timezone": "Europe/Paris",
    "translations": {}
  },
  {
    "id": 39475,
    "name": "Argeliers",
    "state_id": 4977,
    "state_code": "11",
    "country_id": 75,
    "country_code": "FR",
    "latitude": "43.31217000",
    "longitude": "2.91046000",
    "native": null,
    "timezone": "Europe/Paris",
    "translations": {}
  },
  {
    "id": 39495,
    "name": "Armissan",
    "state_id": 4977,
    "state_code": "11",
    "country_id": 75,
    "country_code": "FR",
    "latitude": "43.18778000",
    "longitude": "3.09660000",
    "native": null,
    "timezone": "Europe/Paris",
    "translations": {}
  },
  {
    "id": 39535,
    "name": "Arzens",
    "state_id": 4977,
    "state_code": "11",
    "country_id": 75,
    "country_code": "FR",
    "latitude": "43.19838000",
    "longitude": "2.20954000",
    "native": null,
    "timezone": "Europe/Paris",
    "translations": {}
  },
  {
    "id": 39696,
    "name": "Azille",
    "state_id": 4977,
    "state_code": "11",
    "country_id": 75,
    "country_code": "FR",
    "latitude": "43.27691000",
    "longitude": "2.65981000",
    "native": null,
    "timezone": "Europe/Paris",
    "translations": {}
  },
  {
    "id": 39934,
    "name": "Belpech",
    "state_id": 4977,
    "state_code": "11",
    "country_id": 75,
    "country_code": "FR",
    "latitude": "43.19957000",
    "longitude": "1.75157000",
    "native": null,
    "timezone": "Europe/Paris",
    "translations": {}
  },
  {
    "id": 40037,
    "name": "Bizanet",
    "state_id": 4977,
    "state_code": "11",
    "country_id": 75,
    "country_code": "FR",
    "latitude": "43.16419000",
    "longitude": "2.87034000",
    "native": null,
    "timezone": "Europe/Paris",
    "translations": {}
  },
  {
    "id": 40039,
    "name": "Bize-Minervois",
    "state_id": 4977,
    "state_code": "11",
    "country_id": 75,
    "country_code": "FR",
    "latitude": "43.31656000",
    "longitude": "2.87134000",
    "native": null,
    "timezone": "Europe/Paris",
    "translations": {}
  },
  {
    "id": 40251,
    "name": "Bram",
    "state_id": 4977,
    "state_code": "11",
    "country_id": 75,
    "country_code": "FR",
    "latitude": "43.24376000",
    "longitude": "2.11341000",
    "native": null,
    "timezone": "Europe/Paris",
    "translations": {}
  },
  {
    "id": 40509,
    "name": "Canet",
    "state_id": 4977,
    "state_code": "11",
    "country_id": 75,
    "country_code": "FR",
    "latitude": "43.22744000",
    "longitude": "2.84800000",
    "native": null,
    "timezone": "Europe/Paris",
    "translations": {}
  },
  {
    "id": 40527,
    "name": "Capendu",
    "state_id": 4977,
    "state_code": "11",
    "country_id": 75,
    "country_code": "FR",
    "latitude": "43.18596000",
    "longitude": "2.55677000",
    "native": null,
    "timezone": "Europe/Paris",
    "translations": {}
  },
  {
    "id": 40539,
    "name": "Carcassonne",
    "state_id": 4977,
    "state_code": "11",
    "country_id": 75,
    "country_code": "FR",
    "latitude": "43.21351000",
    "longitude": "2.35162000",
    "native": null,
    "timezone": "Europe/Paris",
    "translations": {}
  },
  {
    "id": 40588,
    "name": "Castelnaudary",
    "state_id": 4977,
    "state_code": "11",
    "country_id": 75,
    "country_code": "FR",
    "latitude": "43.31829000",
    "longitude": "1.95449000",
    "native": null,
    "timezone": "Europe/Paris",
    "translations": {}
  },
  {
    "id": 40610,
    "name": "Caunes-Minervois",
    "state_id": 4977,
    "state_code": "11",
    "country_id": 75,
    "country_code": "FR",
    "latitude": "43.32555000",
    "longitude": "2.52541000",
    "native": null,
    "timezone": "Europe/Paris",
    "translations": {}
  },
  {
    "id": 40626,
    "name": "Cazilhac",
    "state_id": 4977,
    "state_code": "11",
    "country_id": 75,
    "country_code": "FR",
    "latitude": "43.18205000",
    "longitude": "2.36085000",
    "native": null,
    "timezone": "Europe/Paris",
    "translations": {}
  },
  {
    "id": 40684,
    "name": "Chalabre",
    "state_id": 4977,
    "state_code": "11",
    "country_id": 75,
    "country_code": "FR",
    "latitude": "42.98248000",
    "longitude": "2.00538000",
    "native": null,
    "timezone": "Europe/Paris",
    "translations": {}
  },
  {
    "id": 41153,
    "name": "Conques-sur-Orbiel",
    "state_id": 4977,
    "state_code": "11",
    "country_id": 75,
    "country_code": "FR",
    "latitude": "43.26667000",
    "longitude": "2.41667000",
    "native": null,
    "timezone": "Europe/Paris",
    "translations": {}
  },
  {
    "id": 41227,
    "name": "Couiza",
    "state_id": 4977,
    "state_code": "11",
    "country_id": 75,
    "country_code": "FR",
    "latitude": "42.94198000",
    "longitude": "2.25453000",
    "native": null,
    "timezone": "Europe/Paris",
    "translations": {}
  },
  {
    "id": 41265,
    "name": "Coursan",
    "state_id": 4977,
    "state_code": "11",
    "country_id": 75,
    "country_code": "FR",
    "latitude": "43.23370000",
    "longitude": "3.05712000",
    "native": null,
    "timezone": "Europe/Paris",
    "translations": {}
  },
  {
    "id": 41386,
    "name": "Cuxac-Cabardès",
    "state_id": 4977,
    "state_code": "11",
    "country_id": 75,
    "country_code": "FR",
    "latitude": "43.37087000",
    "longitude": "2.28369000",
    "native": null,
    "timezone": "Europe/Paris",
    "translations": {}
  },
  {
    "id": 161746,
    "name": "Cuxac-d'Aude",
    "state_id": 4977,
    "state_code": "11",
    "country_id": 75,
    "country_code": "FR",
    "latitude": "43.25710000",
    "longitude": "3.00930000",
    "native": null,
    "timezone": "Europe/Paris",
    "translations": {}
  },
  {
    "id": 41614,
    "name": "Département de l'Aude",
    "state_id": 4977,
    "state_code": "11",
    "country_id": 75,
    "country_code": "FR",
    "latitude": "43.08333000",
    "longitude": "2.50000000",
    "native": null,
    "timezone": "Europe/Paris",
    "translations": {}
  },
  {
    "id": 41719,
    "name": "Espéraza",
    "state_id": 4977,
    "state_code": "11",
    "country_id": 75,
    "country_code": "FR",
    "latitude": "42.93225000",
    "longitude": "2.22006000",
    "native": null,
    "timezone": "Europe/Paris",
    "translations": {}
  },
  {
    "id": 41760,
    "name": "Fabrezan",
    "state_id": 4977,
    "state_code": "11",
    "country_id": 75,
    "country_code": "FR",
    "latitude": "43.13581000",
    "longitude": "2.69814000",
    "native": null,
    "timezone": "Europe/Paris",
    "translations": {}
  },
  {
    "id": 41803,
    "name": "Ferrals-les-Corbières",
    "state_id": 4977,
    "state_code": "11",
    "country_id": 75,
    "country_code": "FR",
    "latitude": "43.15000000",
    "longitude": "2.73333000",
    "native": null,
    "timezone": "Europe/Paris",
    "translations": {}
  },
  {
    "id": 42099,
    "name": "Ginestas",
    "state_id": 4977,
    "state_code": "11",
    "country_id": 75,
    "country_code": "FR",
    "latitude": "43.26645000",
    "longitude": "2.87038000",
    "native": null,
    "timezone": "Europe/Paris",
    "translations": {}
  },
  {
    "id": 42230,
    "name": "Gruissan",
    "state_id": 4977,
    "state_code": "11",
    "country_id": 75,
    "country_code": "FR",
    "latitude": "43.10759000",
    "longitude": "3.08651000",
    "native": null,
    "timezone": "Europe/Paris",
    "translations": {}
  },
  {
    "id": 42827,
    "name": "La Palme",
    "state_id": 4977,
    "state_code": "11",
    "country_id": 75,
    "country_code": "FR",
    "latitude": "42.97518000",
    "longitude": "2.99243000",
    "native": null,
    "timezone": "Europe/Paris",
    "translations": {}
  },
  {
    "id": 43097,
    "name": "Laure-Minervois",
    "state_id": 4977,
    "state_code": "11",
    "country_id": 75,
    "country_code": "FR",
    "latitude": "43.27106000",
    "longitude": "2.52031000",
    "native": null,
    "timezone": "Europe/Paris",
    "translations": {}
  },
  {
    "id": 43109,
    "name": "Lavalette",
    "state_id": 4977,
    "state_code": "11",
    "country_id": 75,
    "country_code": "FR",
    "latitude": "43.18428000",
    "longitude": "2.26825000",
    "native": null,
    "timezone": "Europe/Paris",
    "translations": {}
  },
  {
    "id": 43445,
    "name": "Leucate",
    "state_id": 4977,
    "state_code": "11",
    "country_id": 75,
    "country_code": "FR",
    "latitude": "42.91056000",
    "longitude": "3.02944000",
    "native": null,
    "timezone": "Europe/Paris",
    "translations": {}
  },
  {
    "id": 43698,
    "name": "Lézignan-Corbières",
    "state_id": 4977,
    "state_code": "11",
    "country_id": 75,
    "country_code": "FR",
    "latitude": "43.19765000",
    "longitude": "2.76142000",
    "native": null,
    "timezone": "Europe/Paris",
    "translations": {}
  },
  {
    "id": 43496,
    "name": "Limoux",
    "state_id": 4977,
    "state_code": "11",
    "country_id": 75,
    "country_code": "FR",
    "latitude": "43.05487000",
    "longitude": "2.22173000",
    "native": null,
    "timezone": "Europe/Paris",
    "translations": {}
  },
  {
    "id": 43814,
    "name": "Marcorignan",
    "state_id": 4977,
    "state_code": "11",
    "country_id": 75,
    "country_code": "FR",
    "latitude": "43.22634000",
    "longitude": "2.92281000",
    "native": null,
    "timezone": "Europe/Paris",
    "translations": {}
  },
  {
    "id": 44244,
    "name": "Montgaillard",
    "state_id": 4977,
    "state_code": "11",
    "country_id": 75,
    "country_code": "FR",
    "latitude": "42.93333000",
    "longitude": "1.63333000",
    "native": null,
    "timezone": "Europe/Paris",
    "translations": {}
  },
  {
    "id": 44324,
    "name": "Montréal",
    "state_id": 4977,
    "state_code": "11",
    "country_id": 75,
    "country_code": "FR",
    "latitude": "43.19980000",
    "longitude": "2.14122000",
    "native": null,
    "timezone": "Europe/Paris",
    "translations": {}
  },
  {
    "id": 44407,
    "name": "Moussan",
    "state_id": 4977,
    "state_code": "11",
    "country_id": 75,
    "country_code": "FR",
    "latitude": "43.23091000",
    "longitude": "2.95000000",
    "native": null,
    "timezone": "Europe/Paris",
    "translations": {}
  },
  {
    "id": 44514,
    "name": "Narbonne",
    "state_id": 4977,
    "state_code": "11",
    "country_id": 75,
    "country_code": "FR",
    "latitude": "43.18396000",
    "longitude": "3.00141000",
    "native": null,
    "timezone": "Europe/Paris",
    "translations": {}
  },
  {
    "id": 44698,
    "name": "Névian",
    "state_id": 4977,
    "state_code": "11",
    "country_id": 75,
    "country_code": "FR",
    "latitude": "43.21238000",
    "longitude": "2.90286000",
    "native": null,
    "timezone": "Europe/Paris",
    "translations": {}
  },
  {
    "id": 44779,
    "name": "Ornaisons",
    "state_id": 4977,
    "state_code": "11",
    "country_id": 75,
    "country_code": "FR",
    "latitude": "43.18040000",
    "longitude": "2.83689000",
    "native": null,
    "timezone": "Europe/Paris",
    "translations": {}
  },
  {
    "id": 44814,
    "name": "Ouveillan",
    "state_id": 4977,
    "state_code": "11",
    "country_id": 75,
    "country_code": "FR",
    "latitude": "43.28915000",
    "longitude": "2.97124000",
    "native": null,
    "timezone": "Europe/Paris",
    "translations": {}
  },
  {
    "id": 44833,
    "name": "Palaja",
    "state_id": 4977,
    "state_code": "11",
    "country_id": 75,
    "country_code": "FR",
    "latitude": "43.17363000",
    "longitude": "2.38462000",
    "native": null,
    "timezone": "Europe/Paris",
    "translations": {}
  },
  {
    "id": 44892,
    "name": "Pennautier",
    "state_id": 4977,
    "state_code": "11",
    "country_id": 75,
    "country_code": "FR",
    "latitude": "43.24513000",
    "longitude": "2.31892000",
    "native": null,
    "timezone": "Europe/Paris",
    "translations": {}
  },
  {
    "id": 45349,
    "name": "Pépieux",
    "state_id": 4977,
    "state_code": "11",
    "country_id": 75,
    "country_code": "FR",
    "latitude": "43.29735000",
    "longitude": "2.67952000",
    "native": null,
    "timezone": "Europe/Paris",
    "translations": {}
  },
  {
    "id": 44931,
    "name": "Peyriac-de-Mer",
    "state_id": 4977,
    "state_code": "11",
    "country_id": 75,
    "country_code": "FR",
    "latitude": "43.08720000",
    "longitude": "2.95831000",
    "native": null,
    "timezone": "Europe/Paris",
    "translations": {}
  },
  {
    "id": 44930,
    "name": "Peyriac-Minervois",
    "state_id": 4977,
    "state_code": "11",
    "country_id": 75,
    "country_code": "FR",
    "latitude": "43.29068000",
    "longitude": "2.56613000",
    "native": null,
    "timezone": "Europe/Paris",
    "translations": {}
  },
  {
    "id": 44936,
    "name": "Pezens",
    "state_id": 4977,
    "state_code": "11",
    "country_id": 75,
    "country_code": "FR",
    "latitude": "43.25446000",
    "longitude": "2.26868000",
    "native": null,
    "timezone": "Europe/Paris",
    "translations": {}
  },
  {
    "id": 45236,
    "name": "Port-la-Nouvelle",
    "state_id": 4977,
    "state_code": "11",
    "country_id": 75,
    "country_code": "FR",
    "latitude": "43.01991000",
    "longitude": "3.04366000",
    "native": null,
    "timezone": "Europe/Paris",
    "translations": {}
  },
  {
    "id": 45239,
    "name": "Portel-des-Corbières",
    "state_id": 4977,
    "state_code": "11",
    "country_id": 75,
    "country_code": "FR",
    "latitude": "43.05000000",
    "longitude": "2.91667000",
    "native": null,
    "timezone": "Europe/Paris",
    "translations": {}
  },
  {
    "id": 45318,
    "name": "Puicheric",
    "state_id": 4977,
    "state_code": "11",
    "country_id": 75,
    "country_code": "FR",
    "latitude": "43.22380000",
    "longitude": "2.62455000",
    "native": null,
    "timezone": "Europe/Paris",
    "translations": {}
  },
  {
    "id": 45386,
    "name": "Quillan",
    "state_id": 4977,
    "state_code": "11",
    "country_id": 75,
    "country_code": "FR",
    "latitude": "42.87579000",
    "longitude": "2.18176000",
    "native": null,
    "timezone": "Europe/Paris",
    "translations": {}
  },
  {
    "id": 45506,
    "name": "Rieux-Minervois",
    "state_id": 4977,
    "state_code": "11",
    "country_id": 75,
    "country_code": "FR",
    "latitude": "43.28194000",
    "longitude": "2.58687000",
    "native": null,
    "timezone": "Europe/Paris",
    "translations": {}
  },
  {
    "id": 46249,
    "name": "Saint-Marcel-sur-Aude",
    "state_id": 4977,
    "state_code": "11",
    "country_id": 75,
    "country_code": "FR",
    "latitude": "43.25000000",
    "longitude": "2.93333000",
    "native": null,
    "timezone": "Europe/Paris",
    "translations": {}
  },
  {
    "id": 46263,
    "name": "Saint-Martin-Lalande",
    "state_id": 4977,
    "state_code": "11",
    "country_id": 75,
    "country_code": "FR",
    "latitude": "43.29928000",
    "longitude": "2.02004000",
    "native": null,
    "timezone": "Europe/Paris",
    "translations": {}
  },
  {
    "id": 46360,
    "name": "Saint-Nazaire-d’Aude",
    "state_id": 4977,
    "state_code": "11",
    "country_id": 75,
    "country_code": "FR",
    "latitude": "43.24518000",
    "longitude": "2.89443000",
    "native": null,
    "timezone": "Europe/Paris",
    "translations": {}
  },
  {
    "id": 162023,
    "name": "Sallèles-d'Aude",
    "state_id": 4977,
    "state_code": "11",
    "country_id": 75,
    "country_code": "FR",
    "latitude": "43.27120000",
    "longitude": "2.93420000",
    "native": null,
    "timezone": "Europe/Paris",
    "translations": {}
  },
  {
    "id": 162022,
    "name": "Salles-d'Aude",
    "state_id": 4977,
    "state_code": "11",
    "country_id": 75,
    "country_code": "FR",
    "latitude": "43.23490000",
    "longitude": "3.10820000",
    "native": null,
    "timezone": "Europe/Paris",
    "translations": {}
  },
  {
    "id": 46991,
    "name": "Sigean",
    "state_id": 4977,
    "state_code": "11",
    "country_id": 75,
    "country_code": "FR",
    "latitude": "43.02777000",
    "longitude": "2.97916000",
    "native": null,
    "timezone": "Europe/Paris",
    "translations": {}
  },
  {
    "id": 47389,
    "name": "Trèbes",
    "state_id": 4977,
    "state_code": "11",
    "country_id": 75,
    "country_code": "FR",
    "latitude": "43.21064000",
    "longitude": "2.44165000",
    "native": null,
    "timezone": "Europe/Paris",
    "translations": {}
  },
  {
    "id": 47743,
    "name": "Villegailhenc",
    "state_id": 4977,
    "state_code": "11",
    "country_id": 75,
    "country_code": "FR",
    "latitude": "43.26867000",
    "longitude": "2.35469000",
    "native": null,
    "timezone": "Europe/Paris",
    "translations": {}
  },
  {
    "id": 47755,
    "name": "Villemoustaussou",
    "state_id": 4977,
    "state_code": "11",
    "country_id": 75,
    "country_code": "FR",
    "latitude": "43.25186000",
    "longitude": "2.36552000",
    "native": null,
    "timezone": "Europe/Paris",
    "translations": {}
  },
  {
    "id": 47772,
    "name": "Villeneuve-la-Comptal",
    "state_id": 4977,
    "state_code": "11",
    "country_id": 75,
    "country_code": "FR",
    "latitude": "43.28833000",
    "longitude": "1.91773000",
    "native": null,
    "timezone": "Europe/Paris",
    "translations": {}
  },
  {
    "id": 47790,
    "name": "Villepinte",
    "state_id": 4977,
    "state_code": "11",
    "country_id": 75,
    "country_code": "FR",
    "latitude": "43.28213000",
    "longitude": "2.08760000",
    "native": null,
    "timezone": "Europe/Paris",
    "translations": {}
  },
  {
    "id": 47842,
    "name": "Vinassan",
    "state_id": 4977,
    "state_code": "11",
    "country_id": 75,
    "country_code": "FR",
    "latitude": "43.20443000",
    "longitude": "3.07463000",
    "native": null,
    "timezone": "Europe/Paris",
    "translations": {}
  }
]