[
  {
    "id": 5822,
    "name": "Adélie Land",
    "country_id": 78,
    "country_code": "TF",
    "fips_code": null,
    "iso2": "01",
    "type": "district",
    "latitude": "-66.66277778",
    "longitude": "140.00111111",
    "native": "Terre Adélie",
    "timezone": "Antarctica/DumontDUrville",
    "translations": {}
  },
  {
    "id": 5823,
    "name": "Crozet Islands",
    "country_id": 78,
    "country_code": "TF",
    "fips_code": null,
    "iso2": "02",
    "type": "district",
    "latitude": "-46.43250000",
    "longitude": "51.85763889",
    "native": "Îles Crozet",
    "timezone": "Indian/Kerguelen",
    "translations": {}
  },
  {
    "id": 5824,
    "name": "Kerguelen Islands",
    "country_id": 78,
    "country_code": "TF",
    "fips_code": null,
    "iso2": "03",
    "type": "district",
    "latitude": "-49.35000000",
    "longitude": "70.21888889",
    "native": "Archipel des Kerguelen",
    "timezone": "Indian/Kerguelen",
    "translations": {}
  },
  {
    "id": 5825,
    "name": "Saint-Paul and Amsterdam Islands",
    "country_id": 78,
    "country_code": "TF",
    "fips_code": null,
    "iso2": "04",
    "type": "district",
    "latitude": "-37.79555556",
    "longitude": "77.57333333",
    "native": "Îles Saint-Paul et Amsterdam",
    "timezone": "Indian/Kerguelen",
    "translations": {}
  },
  {
    "id": 5826,
    "name": "Scattered Islands",
    "country_id": 78,
    "country_code": "TF",
    "fips_code": null,
    "iso2": "05",
    "type": "district",
    "latitude": "-15.89222222",
    "longitude": "54.52083333",
    "native": "Îles Éparses",
    "timezone": "Indian/Reunion",
    "translations": {}
  }
]