[
  {
    "id": 135438,
    "name": "Altidona",
    "state_id": 1744,
    "state_code": "FM",
    "country_id": 107,
    "country_code": "IT",
    "latitude": "43.10787000",
    "longitude": "13.79617000",
    "native": null,
    "timezone": "Europe/Rome",
    "translations": {}
  },
  {
    "id": 135457,
    "name": "Amandola",
    "state_id": 1744,
    "state_code": "FM",
    "country_id": 107,
    "country_code": "IT",
    "latitude": "42.97826000",
    "longitude": "13.35453000",
    "native": null,
    "timezone": "Europe/Rome",
    "translations": {}
  },
  {
    "id": 135954,
    "name": "Belmonte Piceno",
    "state_id": 1744,
    "state_code": "FM",
    "country_id": 107,
    "country_code": "IT",
    "latitude": "43.09175000",
    "longitude": "13.53938000",
    "native": null,
    "timezone": "Europe/Rome",
    "translations": {}
  },
  {
    "id": 136621,
    "name": "Campiglione",
    "state_id": 1744,
    "state_code": "FM",
    "country_id": 107,
    "country_code": "IT",
    "latitude": "43.17630000",
    "longitude": "13.67043000",
    "native": null,
    "timezone": "Europe/Rome",
    "translations": {}
  },
  {
    "id": 136652,
    "name": "Campofilone",
    "state_id": 1744,
    "state_code": "FM",
    "country_id": 107,
    "country_code": "IT",
    "latitude": "43.08100000",
    "longitude": "13.82153000",
    "native": null,
    "timezone": "Europe/Rome",
    "translations": {}
  },
  {
    "id": 136780,
    "name": "Capodarco",
    "state_id": 1744,
    "state_code": "FM",
    "country_id": 107,
    "country_code": "IT",
    "latitude": "43.18985000",
    "longitude": "13.75935000",
    "native": null,
    "timezone": "Europe/Rome",
    "translations": {}
  },
  {
    "id": 137050,
    "name": "Cascinare",
    "state_id": 1744,
    "state_code": "FM",
    "country_id": 107,
    "country_code": "IT",
    "latitude": "43.26434000",
    "longitude": "13.71181000",
    "native": null,
    "timezone": "Europe/Rome",
    "translations": {}
  },
  {
    "id": 137067,
    "name": "Casette d'Ete",
    "state_id": 1744,
    "state_code": "FM",
    "country_id": 107,
    "country_code": "IT",
    "latitude": "43.25385000",
    "longitude": "13.68319000",
    "native": null,
    "timezone": "Europe/Rome",
    "translations": {}
  },
  {
    "id": 138421,
    "name": "Falerone",
    "state_id": 1744,
    "state_code": "FM",
    "country_id": 107,
    "country_code": "IT",
    "latitude": "43.10429000",
    "longitude": "13.47189000",
    "native": null,
    "timezone": "Europe/Rome",
    "translations": {}
  },
  {
    "id": 138483,
    "name": "Fermo",
    "state_id": 1744,
    "state_code": "FM",
    "country_id": 107,
    "country_code": "IT",
    "latitude": "43.16296000",
    "longitude": "13.72274000",
    "native": null,
    "timezone": "Europe/Rome",
    "translations": {}
  },
  {
    "id": 138697,
    "name": "Francavilla d'Ete",
    "state_id": 1744,
    "state_code": "FM",
    "country_id": 107,
    "country_code": "IT",
    "latitude": "43.18837000",
    "longitude": "13.54033000",
    "native": null,
    "timezone": "Europe/Rome",
    "translations": {}
  },
  {
    "id": 139124,
    "name": "Grottazzolina",
    "state_id": 1744,
    "state_code": "FM",
    "country_id": 107,
    "country_code": "IT",
    "latitude": "43.11880000",
    "longitude": "13.60691000",
    "native": null,
    "timezone": "Europe/Rome",
    "translations": {}
  },
  {
    "id": 139367,
    "name": "Lapedona",
    "state_id": 1744,
    "state_code": "FM",
    "country_id": 107,
    "country_code": "IT",
    "latitude": "43.10920000",
    "longitude": "13.77063000",
    "native": null,
    "timezone": "Europe/Rome",
    "translations": {}
  },
  {
    "id": 139505,
    "name": "Lido di Fermo",
    "state_id": 1744,
    "state_code": "FM",
    "country_id": 107,
    "country_code": "IT",
    "latitude": "43.20556000",
    "longitude": "13.78467000",
    "native": null,
    "timezone": "Europe/Rome",
    "translations": {}
  },
  {
    "id": 139729,
    "name": "Magliano di Tenna",
    "state_id": 1744,
    "state_code": "FM",
    "country_id": 107,
    "country_code": "IT",
    "latitude": "43.13795000",
    "longitude": "13.58718000",
    "native": null,
    "timezone": "Europe/Rome",
    "translations": {}
  },
  {
    "id": 139875,
    "name": "Marina di Altidona",
    "state_id": 1744,
    "state_code": "FM",
    "country_id": 107,
    "country_code": "IT",
    "latitude": "43.10602000",
    "longitude": "13.83454000",
    "native": null,
    "timezone": "Europe/Rome",
    "translations": {}
  },
  {
    "id": 139968,
    "name": "Massa Fermana",
    "state_id": 1744,
    "state_code": "FM",
    "country_id": 107,
    "country_code": "IT",
    "latitude": "43.14691000",
    "longitude": "13.47597000",
    "native": null,
    "timezone": "Europe/Rome",
    "translations": {}
  },
  {
    "id": 140298,
    "name": "Monsampietro Morico",
    "state_id": 1744,
    "state_code": "FM",
    "country_id": 107,
    "country_code": "IT",
    "latitude": "43.06775000",
    "longitude": "13.55568000",
    "native": null,
    "timezone": "Europe/Rome",
    "translations": {}
  },
  {
    "id": 140345,
    "name": "Montappone",
    "state_id": 1744,
    "state_code": "FM",
    "country_id": 107,
    "country_code": "IT",
    "latitude": "43.13617000",
    "longitude": "13.46932000",
    "native": null,
    "timezone": "Europe/Rome",
    "translations": {}
  },
  {
    "id": 140358,
    "name": "Monte Giberto",
    "state_id": 1744,
    "state_code": "FM",
    "country_id": 107,
    "country_code": "IT",
    "latitude": "43.09092000",
    "longitude": "13.63133000",
    "native": null,
    "timezone": "Europe/Rome",
    "translations": {}
  },
  {
    "id": 140365,
    "name": "Monte Rinaldo",
    "state_id": 1744,
    "state_code": "FM",
    "country_id": 107,
    "country_code": "IT",
    "latitude": "43.02825000",
    "longitude": "13.58198000",
    "native": null,
    "timezone": "Europe/Rome",
    "translations": {}
  },
  {
    "id": 140376,
    "name": "Monte San Pietrangeli",
    "state_id": 1744,
    "state_code": "FM",
    "country_id": 107,
    "country_code": "IT",
    "latitude": "43.18959000",
    "longitude": "13.57718000",
    "native": null,
    "timezone": "Europe/Rome",
    "translations": {}
  },
  {
    "id": 140381,
    "name": "Monte Urano",
    "state_id": 1744,
    "state_code": "FM",
    "country_id": 107,
    "country_code": "IT",
    "latitude": "43.19039000",
    "longitude": "13.66180000",
    "native": null,
    "timezone": "Europe/Rome",
    "translations": {}
  },
  {
    "id": 140382,
    "name": "Monte Vidon Combatte",
    "state_id": 1744,
    "state_code": "FM",
    "country_id": 107,
    "country_code": "IT",
    "latitude": "43.04895000",
    "longitude": "13.63119000",
    "native": null,
    "timezone": "Europe/Rome",
    "translations": {}
  },
  {
    "id": 140383,
    "name": "Monte Vidon Corrado",
    "state_id": 1744,
    "state_code": "FM",
    "country_id": 107,
    "country_code": "IT",
    "latitude": "43.12087000",
    "longitude": "13.48931000",
    "native": null,
    "timezone": "Europe/Rome",
    "translations": {}
  },
  {
    "id": 140431,
    "name": "Montefalcone Appennino",
    "state_id": 1744,
    "state_code": "FM",
    "country_id": 107,
    "country_code": "IT",
    "latitude": "42.99005000",
    "longitude": "13.45688000",
    "native": null,
    "timezone": "Europe/Rome",
    "translations": {}
  },
  {
    "id": 140446,
    "name": "Montefortino",
    "state_id": 1744,
    "state_code": "FM",
    "country_id": 107,
    "country_code": "IT",
    "latitude": "42.94351000",
    "longitude": "13.34417000",
    "native": null,
    "timezone": "Europe/Rome",
    "translations": {}
  },
  {
    "id": 140455,
    "name": "Montegiorgio",
    "state_id": 1744,
    "state_code": "FM",
    "country_id": 107,
    "country_code": "IT",
    "latitude": "43.12988000",
    "longitude": "13.53925000",
    "native": null,
    "timezone": "Europe/Rome",
    "translations": {}
  },
  {
    "id": 140456,
    "name": "Montegranaro",
    "state_id": 1744,
    "state_code": "FM",
    "country_id": 107,
    "country_code": "IT",
    "latitude": "43.23099000",
    "longitude": "13.63047000",
    "native": null,
    "timezone": "Europe/Rome",
    "translations": {}
  },
  {
    "id": 140470,
    "name": "Monteleone di Fermo",
    "state_id": 1744,
    "state_code": "FM",
    "country_id": 107,
    "country_code": "IT",
    "latitude": "43.04785000",
    "longitude": "13.52948000",
    "native": null,
    "timezone": "Europe/Rome",
    "translations": {}
  },
  {
    "id": 140479,
    "name": "Montelparo",
    "state_id": 1744,
    "state_code": "FM",
    "country_id": 107,
    "country_code": "IT",
    "latitude": "43.01755000",
    "longitude": "13.53698000",
    "native": null,
    "timezone": "Europe/Rome",
    "translations": {}
  },
  {
    "id": 140528,
    "name": "Monterubbiano",
    "state_id": 1744,
    "state_code": "FM",
    "country_id": 107,
    "country_code": "IT",
    "latitude": "43.08560000",
    "longitude": "13.71911000",
    "native": null,
    "timezone": "Europe/Rome",
    "translations": {}
  },
  {
    "id": 140589,
    "name": "Montottone",
    "state_id": 1744,
    "state_code": "FM",
    "country_id": 107,
    "country_code": "IT",
    "latitude": "43.06205000",
    "longitude": "13.59009000",
    "native": null,
    "timezone": "Europe/Rome",
    "translations": {}
  },
  {
    "id": 140610,
    "name": "Moresco",
    "state_id": 1744,
    "state_code": "FM",
    "country_id": 107,
    "country_code": "IT",
    "latitude": "43.08666000",
    "longitude": "13.73041000",
    "native": null,
    "timezone": "Europe/Rome",
    "translations": {}
  },
  {
    "id": 140984,
    "name": "Ortezzano",
    "state_id": 1744,
    "state_code": "FM",
    "country_id": 107,
    "country_code": "IT",
    "latitude": "43.03042000",
    "longitude": "13.60531000",
    "native": null,
    "timezone": "Europe/Rome",
    "translations": {}
  },
  {
    "id": 58376,
    "name": "Pedaso",
    "state_id": 1744,
    "state_code": "FM",
    "country_id": 107,
    "country_code": "IT",
    "latitude": "43.09839000",
    "longitude": "13.84083000",
    "native": null,
    "timezone": "Europe/Rome",
    "translations": {}
  },
  {
    "id": 58484,
    "name": "Petritoli",
    "state_id": 1744,
    "state_code": "FM",
    "country_id": 107,
    "country_code": "IT",
    "latitude": "43.06809000",
    "longitude": "13.66385000",
    "native": null,
    "timezone": "Europe/Rome",
    "translations": {}
  },
  {
    "id": 58519,
    "name": "Piane",
    "state_id": 1744,
    "state_code": "FM",
    "country_id": 107,
    "country_code": "IT",
    "latitude": "43.09703000",
    "longitude": "13.49502000",
    "native": null,
    "timezone": "Europe/Rome",
    "translations": {}
  },
  {
    "id": 58521,
    "name": "Piane di Montegiorgio",
    "state_id": 1744,
    "state_code": "FM",
    "country_id": 107,
    "country_code": "IT",
    "latitude": "43.11587000",
    "longitude": "13.56669000",
    "native": null,
    "timezone": "Europe/Rome",
    "translations": {}
  },
  {
    "id": 58898,
    "name": "Ponzano di Fermo",
    "state_id": 1744,
    "state_code": "FM",
    "country_id": 107,
    "country_code": "IT",
    "latitude": "43.10390000",
    "longitude": "13.65979000",
    "native": null,
    "timezone": "Europe/Rome",
    "translations": {}
  },
  {
    "id": 58934,
    "name": "Porto San Giorgio",
    "state_id": 1744,
    "state_code": "FM",
    "country_id": 107,
    "country_code": "IT",
    "latitude": "43.17784000",
    "longitude": "13.79411000",
    "native": null,
    "timezone": "Europe/Rome",
    "translations": {}
  },
  {
    "id": 58935,
    "name": "Porto Sant'Elpidio",
    "state_id": 1744,
    "state_code": "FM",
    "country_id": 107,
    "country_code": "IT",
    "latitude": "43.25297000",
    "longitude": "13.75970000",
    "native": null,
    "timezone": "Europe/Rome",
    "translations": {}
  },
  {
    "id": 59101,
    "name": "Province of Fermo",
    "state_id": 1744,
    "state_code": "FM",
    "country_id": 107,
    "country_code": "IT",
    "latitude": "43.16537000",
    "longitude": "13.72424000",
    "native": null,
    "timezone": "Europe/Rome",
    "translations": {}
  },
  {
    "id": 59283,
    "name": "Rapagnano",
    "state_id": 1744,
    "state_code": "FM",
    "country_id": 107,
    "country_code": "IT",
    "latitude": "43.15985000",
    "longitude": "13.58873000",
    "native": null,
    "timezone": "Europe/Rome",
    "translations": {}
  },
  {
    "id": 60256,
    "name": "San Tommaso Tre Archi",
    "state_id": 1744,
    "state_code": "FM",
    "country_id": 107,
    "country_code": "IT",
    "latitude": "43.22771000",
    "longitude": "13.77503000",
    "native": null,
    "timezone": "Europe/Rome",
    "translations": {}
  },
  {
    "id": 60289,
    "name": "San Vittoria in Matenano",
    "state_id": 1744,
    "state_code": "FM",
    "country_id": 107,
    "country_code": "IT",
    "latitude": "43.01975000",
    "longitude": "13.49618000",
    "native": null,
    "timezone": "Europe/Rome",
    "translations": {}
  },
  {
    "id": 60399,
    "name": "Sant'Elpidio a Mare",
    "state_id": 1744,
    "state_code": "FM",
    "country_id": 107,
    "country_code": "IT",
    "latitude": "43.23024000",
    "longitude": "13.68819000",
    "native": null,
    "timezone": "Europe/Rome",
    "translations": {}
  },
  {
    "id": 60786,
    "name": "Servigliano",
    "state_id": 1744,
    "state_code": "FM",
    "country_id": 107,
    "country_code": "IT",
    "latitude": "43.07993000",
    "longitude": "13.49268000",
    "native": null,
    "timezone": "Europe/Rome",
    "translations": {}
  },
  {
    "id": 60889,
    "name": "Smerillo",
    "state_id": 1744,
    "state_code": "FM",
    "country_id": 107,
    "country_code": "IT",
    "latitude": "43.00515000",
    "longitude": "13.44498000",
    "native": null,
    "timezone": "Europe/Rome",
    "translations": {}
  },
  {
    "id": 61362,
    "name": "Torre San Patrizio",
    "state_id": 1744,
    "state_code": "FM",
    "country_id": 107,
    "country_code": "IT",
    "latitude": "43.18311000",
    "longitude": "13.61113000",
    "native": null,
    "timezone": "Europe/Rome",
    "translations": {}
  }
]