[
  {
    "id": 135522,
    "name": "Antronapiana",
    "state_id": 1726,
    "state_code": "VB",
    "country_id": 107,
    "country_code": "IT",
    "latitude": "46.06091000",
    "longitude": "8.11519000",
    "native": null,
    "timezone": "Europe/Rome",
    "translations": {}
  },
  {
    "id": 135528,
    "name": "Anzola d'Ossola",
    "state_id": 1726,
    "state_code": "VB",
    "country_id": 107,
    "country_code": "IT",
    "latitude": "45.98897000",
    "longitude": "8.34531000",
    "native": null,
    "timezone": "Europe/Rome",
    "translations": {}
  },
  {
    "id": 135608,
    "name": "Arizzano",
    "state_id": 1726,
    "state_code": "VB",
    "country_id": 107,
    "country_code": "IT",
    "latitude": "45.95738000",
    "longitude": "8.58292000",
    "native": null,
    "timezone": "Europe/Rome",
    "translations": {}
  },
  {
    "id": 135622,
    "name": "Arola",
    "state_id": 1726,
    "state_code": "VB",
    "country_id": 107,
    "country_code": "IT",
    "latitude": "45.80867000",
    "longitude": "8.35808000",
    "native": null,
    "timezone": "Europe/Rome",
    "translations": {}
  },
  {
    "id": 135688,
    "name": "Aurano",
    "state_id": 1726,
    "state_code": "VB",
    "country_id": 107,
    "country_code": "IT",
    "latitude": "46.00038000",
    "longitude": "8.58822000",
    "native": null,
    "timezone": "Europe/Rome",
    "translations": {}
  },
  {
    "id": 135728,
    "name": "Baceno",
    "state_id": 1726,
    "state_code": "VB",
    "country_id": 107,
    "country_code": "IT",
    "latitude": "46.26062000",
    "longitude": "8.31874000",
    "native": null,
    "timezone": "Europe/Rome",
    "translations": {}
  },
  {
    "id": 135804,
    "name": "Bannio",
    "state_id": 1726,
    "state_code": "VB",
    "country_id": 107,
    "country_code": "IT",
    "latitude": "45.98397000",
    "longitude": "8.14611000",
    "native": null,
    "timezone": "Europe/Rome",
    "translations": {}
  },
  {
    "id": 135914,
    "name": "Baveno",
    "state_id": 1726,
    "state_code": "VB",
    "country_id": 107,
    "country_code": "IT",
    "latitude": "45.90818000",
    "longitude": "8.50033000",
    "native": null,
    "timezone": "Europe/Rome",
    "translations": {}
  },
  {
    "id": 135922,
    "name": "Bee",
    "state_id": 1726,
    "state_code": "VB",
    "country_id": 107,
    "country_code": "IT",
    "latitude": "45.96328000",
    "longitude": "8.57542000",
    "native": null,
    "timezone": "Europe/Rome",
    "translations": {}
  },
  {
    "id": 135933,
    "name": "Belgirate",
    "state_id": 1726,
    "state_code": "VB",
    "country_id": 107,
    "country_code": "IT",
    "latitude": "45.84123000",
    "longitude": "8.57064000",
    "native": null,
    "timezone": "Europe/Rome",
    "translations": {}
  },
  {
    "id": 136023,
    "name": "Beura",
    "state_id": 1726,
    "state_code": "VB",
    "country_id": 107,
    "country_code": "IT",
    "latitude": "46.07964000",
    "longitude": "8.29826000",
    "native": null,
    "timezone": "Europe/Rome",
    "translations": {}
  },
  {
    "id": 136357,
    "name": "Brovello",
    "state_id": 1726,
    "state_code": "VB",
    "country_id": 107,
    "country_code": "IT",
    "latitude": "45.84246000",
    "longitude": "8.53189000",
    "native": null,
    "timezone": "Europe/Rome",
    "translations": {}
  },
  {
    "id": 136358,
    "name": "Brovello-Carpugnino",
    "state_id": 1726,
    "state_code": "VB",
    "country_id": 107,
    "country_code": "IT",
    "latitude": "45.84247000",
    "longitude": "8.53173000",
    "native": null,
    "timezone": "Europe/Rome",
    "translations": {}
  },
  {
    "id": 136492,
    "name": "Calasca-Castiglione",
    "state_id": 1726,
    "state_code": "VB",
    "country_id": 107,
    "country_code": "IT",
    "latitude": "46.02081000",
    "longitude": "8.21451000",
    "native": null,
    "timezone": "Europe/Rome",
    "translations": {}
  },
  {
    "id": 136574,
    "name": "Cambiasca",
    "state_id": 1726,
    "state_code": "VB",
    "country_id": 107,
    "country_code": "IT",
    "latitude": "45.96238000",
    "longitude": "8.54462000",
    "native": null,
    "timezone": "Europe/Rome",
    "translations": {}
  },
  {
    "id": 136720,
    "name": "Cannero Riviera",
    "state_id": 1726,
    "state_code": "VB",
    "country_id": 107,
    "country_code": "IT",
    "latitude": "46.02200000",
    "longitude": "8.67933000",
    "native": null,
    "timezone": "Europe/Rome",
    "translations": {}
  },
  {
    "id": 136726,
    "name": "Cannobio",
    "state_id": 1726,
    "state_code": "VB",
    "country_id": 107,
    "country_code": "IT",
    "latitude": "46.06233000",
    "longitude": "8.69628000",
    "native": null,
    "timezone": "Europe/Rome",
    "translations": {}
  },
  {
    "id": 136808,
    "name": "Caprezzo",
    "state_id": 1726,
    "state_code": "VB",
    "country_id": 107,
    "country_code": "IT",
    "latitude": "45.98198000",
    "longitude": "8.56282000",
    "native": null,
    "timezone": "Europe/Rome",
    "translations": {}
  },
  {
    "id": 136974,
    "name": "Casale Corte Cerro",
    "state_id": 1726,
    "state_code": "VB",
    "country_id": 107,
    "country_code": "IT",
    "latitude": "45.91545000",
    "longitude": "8.41407000",
    "native": null,
    "timezone": "Europe/Rome",
    "translations": {}
  },
  {
    "id": 137408,
    "name": "Cavaglio-Spoccia",
    "state_id": 1726,
    "state_code": "VB",
    "country_id": 107,
    "country_code": "IT",
    "latitude": "46.07108000",
    "longitude": "8.63072000",
    "native": null,
    "timezone": "Europe/Rome",
    "translations": {}
  },
  {
    "id": 137509,
    "name": "Ceppo Morelli",
    "state_id": 1726,
    "state_code": "VB",
    "country_id": 107,
    "country_code": "IT",
    "latitude": "45.97114000",
    "longitude": "8.06688000",
    "native": null,
    "timezone": "Europe/Rome",
    "translations": {}
  },
  {
    "id": 137607,
    "name": "Cesara",
    "state_id": 1726,
    "state_code": "VB",
    "country_id": 107,
    "country_code": "IT",
    "latitude": "45.83379000",
    "longitude": "8.36777000",
    "native": null,
    "timezone": "Europe/Rome",
    "translations": {}
  },
  {
    "id": 138088,
    "name": "Cossogno",
    "state_id": 1726,
    "state_code": "VB",
    "country_id": 107,
    "country_code": "IT",
    "latitude": "45.96408000",
    "longitude": "8.50962000",
    "native": null,
    "timezone": "Europe/Rome",
    "translations": {}
  },
  {
    "id": 138127,
    "name": "Craveggia",
    "state_id": 1726,
    "state_code": "VB",
    "country_id": 107,
    "country_code": "IT",
    "latitude": "46.14124000",
    "longitude": "8.48907000",
    "native": null,
    "timezone": "Europe/Rome",
    "translations": {}
  },
  {
    "id": 138153,
    "name": "Crevoladossola",
    "state_id": 1726,
    "state_code": "VB",
    "country_id": 107,
    "country_code": "IT",
    "latitude": "46.14858000",
    "longitude": "8.29742000",
    "native": null,
    "timezone": "Europe/Rome",
    "translations": {}
  },
  {
    "id": 138162,
    "name": "Crodo",
    "state_id": 1726,
    "state_code": "VB",
    "country_id": 107,
    "country_code": "IT",
    "latitude": "46.21726000",
    "longitude": "8.32238000",
    "native": null,
    "timezone": "Europe/Rome",
    "translations": {}
  },
  {
    "id": 138207,
    "name": "Cursolo",
    "state_id": 1726,
    "state_code": "VB",
    "country_id": 107,
    "country_code": "IT",
    "latitude": "46.09858000",
    "longitude": "8.56822000",
    "native": null,
    "timezone": "Europe/Rome",
    "translations": {}
  },
  {
    "id": 138292,
    "name": "Domodossola",
    "state_id": 1726,
    "state_code": "VB",
    "country_id": 107,
    "country_code": "IT",
    "latitude": "46.11650000",
    "longitude": "8.29313000",
    "native": null,
    "timezone": "Europe/Rome",
    "translations": {}
  },
  {
    "id": 138335,
    "name": "Druogno",
    "state_id": 1726,
    "state_code": "VB",
    "country_id": 107,
    "country_code": "IT",
    "latitude": "46.13421000",
    "longitude": "8.43276000",
    "native": null,
    "timezone": "Europe/Rome",
    "translations": {}
  },
  {
    "id": 138423,
    "name": "Falmenta",
    "state_id": 1726,
    "state_code": "VB",
    "country_id": 107,
    "country_code": "IT",
    "latitude": "46.07309000",
    "longitude": "8.58944000",
    "native": null,
    "timezone": "Europe/Rome",
    "translations": {}
  },
  {
    "id": 138634,
    "name": "Formazza",
    "state_id": 1726,
    "state_code": "VB",
    "country_id": 107,
    "country_code": "IT",
    "latitude": "46.37689000",
    "longitude": "8.42571000",
    "native": null,
    "timezone": "Europe/Rome",
    "translations": {}
  },
  {
    "id": 138766,
    "name": "Gabbio-Cereda-Ramate",
    "state_id": 1726,
    "state_code": "VB",
    "country_id": 107,
    "country_code": "IT",
    "latitude": "45.90959000",
    "longitude": "8.42113000",
    "native": null,
    "timezone": "Europe/Rome",
    "translations": {}
  },
  {
    "id": 138917,
    "name": "Germagno",
    "state_id": 1726,
    "state_code": "VB",
    "country_id": 107,
    "country_code": "IT",
    "latitude": "45.89257000",
    "longitude": "8.38772000",
    "native": null,
    "timezone": "Europe/Rome",
    "translations": {}
  },
  {
    "id": 138933,
    "name": "Ghiffa",
    "state_id": 1726,
    "state_code": "VB",
    "country_id": 107,
    "country_code": "IT",
    "latitude": "45.95298000",
    "longitude": "8.60430000",
    "native": null,
    "timezone": "Europe/Rome",
    "translations": {}
  },
  {
    "id": 138959,
    "name": "Gignese",
    "state_id": 1726,
    "state_code": "VB",
    "country_id": 107,
    "country_code": "IT",
    "latitude": "45.86396000",
    "longitude": "8.50943000",
    "native": null,
    "timezone": "Europe/Rome",
    "translations": {}
  },
  {
    "id": 139023,
    "name": "Gonte",
    "state_id": 1726,
    "state_code": "VB",
    "country_id": 107,
    "country_code": "IT",
    "latitude": "45.99519000",
    "longitude": "8.64982000",
    "native": null,
    "timezone": "Europe/Rome",
    "translations": {}
  },
  {
    "id": 139080,
    "name": "Gravellona Toce",
    "state_id": 1726,
    "state_code": "VB",
    "country_id": 107,
    "country_code": "IT",
    "latitude": "45.92859000",
    "longitude": "8.43209000",
    "native": null,
    "timezone": "Europe/Rome",
    "translations": {}
  },
  {
    "id": 139183,
    "name": "Gurro",
    "state_id": 1726,
    "state_code": "VB",
    "country_id": 107,
    "country_code": "IT",
    "latitude": "46.08498000",
    "longitude": "8.56772000",
    "native": null,
    "timezone": "Europe/Rome",
    "translations": {}
  },
  {
    "id": 139209,
    "name": "Intragna",
    "state_id": 1726,
    "state_code": "VB",
    "country_id": 107,
    "country_code": "IT",
    "latitude": "45.99468000",
    "longitude": "8.57392000",
    "native": null,
    "timezone": "Europe/Rome",
    "translations": {}
  },
  {
    "id": 139605,
    "name": "Loreglia",
    "state_id": 1726,
    "state_code": "VB",
    "country_id": 107,
    "country_code": "IT",
    "latitude": "45.90687000",
    "longitude": "8.37132000",
    "native": null,
    "timezone": "Europe/Rome",
    "translations": {}
  },
  {
    "id": 139705,
    "name": "Macugnaga",
    "state_id": 1726,
    "state_code": "VB",
    "country_id": 107,
    "country_code": "IT",
    "latitude": "45.96929000",
    "longitude": "7.96783000",
    "native": null,
    "timezone": "Europe/Rome",
    "translations": {}
  },
  {
    "id": 139710,
    "name": "Madonna del Sasso",
    "state_id": 1726,
    "state_code": "VB",
    "country_id": 107,
    "country_code": "IT",
    "latitude": "45.79217000",
    "longitude": "8.36952000",
    "native": null,
    "timezone": "Europe/Rome",
    "translations": {}
  },
  {
    "id": 139762,
    "name": "Malesco",
    "state_id": 1726,
    "state_code": "VB",
    "country_id": 107,
    "country_code": "IT",
    "latitude": "46.12800000",
    "longitude": "8.49801000",
    "native": null,
    "timezone": "Europe/Rome",
    "translations": {}
  },
  {
    "id": 139957,
    "name": "Masera",
    "state_id": 1726,
    "state_code": "VB",
    "country_id": 107,
    "country_code": "IT",
    "latitude": "46.13888000",
    "longitude": "8.32526000",
    "native": null,
    "timezone": "Europe/Rome",
    "translations": {}
  },
  {
    "id": 139990,
    "name": "Massiola",
    "state_id": 1726,
    "state_code": "VB",
    "country_id": 107,
    "country_code": "IT",
    "latitude": "45.91247000",
    "longitude": "8.32012000",
    "native": null,
    "timezone": "Europe/Rome",
    "translations": {}
  },
  {
    "id": 140084,
    "name": "Mergozzo",
    "state_id": 1726,
    "state_code": "VB",
    "country_id": 107,
    "country_code": "IT",
    "latitude": "45.96229000",
    "longitude": "8.45403000",
    "native": null,
    "timezone": "Europe/Rome",
    "translations": {}
  },
  {
    "id": 140129,
    "name": "Miazzina",
    "state_id": 1726,
    "state_code": "VB",
    "country_id": 107,
    "country_code": "IT",
    "latitude": "45.97566000",
    "longitude": "8.52308000",
    "native": null,
    "timezone": "Europe/Rome",
    "translations": {}
  },
  {
    "id": 140424,
    "name": "Montecrestese",
    "state_id": 1726,
    "state_code": "VB",
    "country_id": 107,
    "country_code": "IT",
    "latitude": "46.16448000",
    "longitude": "8.32621000",
    "native": null,
    "timezone": "Europe/Rome",
    "translations": {}
  },
  {
    "id": 140536,
    "name": "Montescheno",
    "state_id": 1726,
    "state_code": "VB",
    "country_id": 107,
    "country_code": "IT",
    "latitude": "46.06658000",
    "longitude": "8.23192000",
    "native": null,
    "timezone": "Europe/Rome",
    "translations": {}
  },
  {
    "id": 140804,
    "name": "Nonio",
    "state_id": 1726,
    "state_code": "VB",
    "country_id": 107,
    "country_code": "IT",
    "latitude": "45.84577000",
    "longitude": "8.37752000",
    "native": null,
    "timezone": "Europe/Rome",
    "translations": {}
  },
  {
    "id": 140879,
    "name": "Oggebbio",
    "state_id": 1726,
    "state_code": "VB",
    "country_id": 107,
    "country_code": "IT",
    "latitude": "45.99088000",
    "longitude": "8.64663000",
    "native": null,
    "timezone": "Europe/Rome",
    "translations": {}
  },
  {
    "id": 140918,
    "name": "Omegna",
    "state_id": 1726,
    "state_code": "VB",
    "country_id": 107,
    "country_code": "IT",
    "latitude": "45.88002000",
    "longitude": "8.40665000",
    "native": null,
    "timezone": "Europe/Rome",
    "translations": {}
  },
  {
    "id": 140964,
    "name": "Ornavasso",
    "state_id": 1726,
    "state_code": "VB",
    "country_id": 107,
    "country_code": "IT",
    "latitude": "45.96795000",
    "longitude": "8.41584000",
    "native": null,
    "timezone": "Europe/Rome",
    "translations": {}
  },
  {
    "id": 58249,
    "name": "Pallanza-Intra-Suna",
    "state_id": 1726,
    "state_code": "VB",
    "country_id": 107,
    "country_code": "IT",
    "latitude": "45.93778000",
    "longitude": "8.57088000",
    "native": null,
    "timezone": "Europe/Rome",
    "translations": {}
  },
  {
    "id": 58250,
    "name": "Pallanzeno",
    "state_id": 1726,
    "state_code": "VB",
    "country_id": 107,
    "country_code": "IT",
    "latitude": "46.04202000",
    "longitude": "8.25949000",
    "native": null,
    "timezone": "Europe/Rome",
    "translations": {}
  },
  {
    "id": 58593,
    "name": "Piedimulera",
    "state_id": 1726,
    "state_code": "VB",
    "country_id": 107,
    "country_code": "IT",
    "latitude": "46.02408000",
    "longitude": "8.25897000",
    "native": null,
    "timezone": "Europe/Rome",
    "translations": {}
  },
  {
    "id": 58642,
    "name": "Pieve Vergonte",
    "state_id": 1726,
    "state_code": "VB",
    "country_id": 107,
    "country_code": "IT",
    "latitude": "46.01298000",
    "longitude": "8.26082000",
    "native": null,
    "timezone": "Europe/Rome",
    "translations": {}
  },
  {
    "id": 59054,
    "name": "Premeno",
    "state_id": 1726,
    "state_code": "VB",
    "country_id": 107,
    "country_code": "IT",
    "latitude": "45.97818000",
    "longitude": "8.59587000",
    "native": null,
    "timezone": "Europe/Rome",
    "translations": {}
  },
  {
    "id": 59056,
    "name": "Premia",
    "state_id": 1726,
    "state_code": "VB",
    "country_id": 107,
    "country_code": "IT",
    "latitude": "46.26807000",
    "longitude": "8.33830000",
    "native": null,
    "timezone": "Europe/Rome",
    "translations": {}
  },
  {
    "id": 59059,
    "name": "Premosello-Chiovenda",
    "state_id": 1726,
    "state_code": "VB",
    "country_id": 107,
    "country_code": "IT",
    "latitude": "46.00380000",
    "longitude": "8.32973000",
    "native": null,
    "timezone": "Europe/Rome",
    "translations": {}
  },
  {
    "id": 59221,
    "name": "Quarna Sopra",
    "state_id": 1726,
    "state_code": "VB",
    "country_id": 107,
    "country_code": "IT",
    "latitude": "45.87307000",
    "longitude": "8.37355000",
    "native": null,
    "timezone": "Europe/Rome",
    "translations": {}
  },
  {
    "id": 59222,
    "name": "Quarna Sotto",
    "state_id": 1726,
    "state_code": "VB",
    "country_id": 107,
    "country_code": "IT",
    "latitude": "45.86917000",
    "longitude": "8.36332000",
    "native": null,
    "timezone": "Europe/Rome",
    "translations": {}
  },
  {
    "id": 59303,
    "name": "Re",
    "state_id": 1726,
    "state_code": "VB",
    "country_id": 107,
    "country_code": "IT",
    "latitude": "46.13148000",
    "longitude": "8.54569000",
    "native": null,
    "timezone": "Europe/Rome",
    "translations": {}
  },
  {
    "id": 59835,
    "name": "San Bernardino Verbano",
    "state_id": 1726,
    "state_code": "VB",
    "country_id": 107,
    "country_code": "IT",
    "latitude": "45.95638000",
    "longitude": "8.51922000",
    "native": null,
    "timezone": "Europe/Rome",
    "translations": {}
  },
  {
    "id": 60037,
    "name": "San Lorenzo",
    "state_id": 1726,
    "state_code": "VB",
    "country_id": 107,
    "country_code": "IT",
    "latitude": "46.12720000",
    "longitude": "8.20065000",
    "native": null,
    "timezone": "Europe/Rome",
    "translations": {}
  },
  {
    "id": 60466,
    "name": "Santa Maria Maggiore",
    "state_id": 1726,
    "state_code": "VB",
    "country_id": 107,
    "country_code": "IT",
    "latitude": "46.13683000",
    "longitude": "8.46108000",
    "native": null,
    "timezone": "Europe/Rome",
    "translations": {}
  },
  {
    "id": 60510,
    "name": "Santino",
    "state_id": 1726,
    "state_code": "VB",
    "country_id": 107,
    "country_code": "IT",
    "latitude": "45.95606000",
    "longitude": "8.51914000",
    "native": null,
    "timezone": "Europe/Rome",
    "translations": {}
  },
  {
    "id": 60733,
    "name": "Seppiana",
    "state_id": 1726,
    "state_code": "VB",
    "country_id": 107,
    "country_code": "IT",
    "latitude": "46.05828000",
    "longitude": "8.21661000",
    "native": null,
    "timezone": "Europe/Rome",
    "translations": {}
  },
  {
    "id": 61038,
    "name": "Staffa",
    "state_id": 1726,
    "state_code": "VB",
    "country_id": 107,
    "country_code": "IT",
    "latitude": "45.96855000",
    "longitude": "7.96708000",
    "native": null,
    "timezone": "Europe/Rome",
    "translations": {}
  },
  {
    "id": 61093,
    "name": "Stresa",
    "state_id": 1726,
    "state_code": "VB",
    "country_id": 107,
    "country_code": "IT",
    "latitude": "45.88158000",
    "longitude": "8.53834000",
    "native": null,
    "timezone": "Europe/Rome",
    "translations": {}
  },
  {
    "id": 61294,
    "name": "Toceno",
    "state_id": 1726,
    "state_code": "VB",
    "country_id": 107,
    "country_code": "IT",
    "latitude": "46.14468000",
    "longitude": "8.46902000",
    "native": null,
    "timezone": "Europe/Rome",
    "translations": {}
  },
  {
    "id": 61442,
    "name": "Trarego",
    "state_id": 1726,
    "state_code": "VB",
    "country_id": 107,
    "country_code": "IT",
    "latitude": "46.03435000",
    "longitude": "8.66998000",
    "native": null,
    "timezone": "Europe/Rome",
    "translations": {}
  },
  {
    "id": 61446,
    "name": "Trasquera",
    "state_id": 1726,
    "state_code": "VB",
    "country_id": 107,
    "country_code": "IT",
    "latitude": "46.21338000",
    "longitude": "8.21271000",
    "native": null,
    "timezone": "Europe/Rome",
    "translations": {}
  },
  {
    "id": 61553,
    "name": "Trontano",
    "state_id": 1726,
    "state_code": "VB",
    "country_id": 107,
    "country_code": "IT",
    "latitude": "46.12248000",
    "longitude": "8.33322000",
    "native": null,
    "timezone": "Europe/Rome",
    "translations": {}
  },
  {
    "id": 61741,
    "name": "Valstrona",
    "state_id": 1726,
    "state_code": "VB",
    "country_id": 107,
    "country_code": "IT",
    "latitude": "45.90767000",
    "longitude": "8.34322000",
    "native": null,
    "timezone": "Europe/Rome",
    "translations": {}
  },
  {
    "id": 61755,
    "name": "Vanzone",
    "state_id": 1726,
    "state_code": "VB",
    "country_id": 107,
    "country_code": "IT",
    "latitude": "45.97785000",
    "longitude": "8.10826000",
    "native": null,
    "timezone": "Europe/Rome",
    "translations": {}
  },
  {
    "id": 61776,
    "name": "Varzo",
    "state_id": 1726,
    "state_code": "VB",
    "country_id": 107,
    "country_code": "IT",
    "latitude": "46.20736000",
    "longitude": "8.25267000",
    "native": null,
    "timezone": "Europe/Rome",
    "translations": {}
  },
  {
    "id": 61834,
    "name": "Verbania",
    "state_id": 1726,
    "state_code": "VB",
    "country_id": 107,
    "country_code": "IT",
    "latitude": "45.92136000",
    "longitude": "8.55183000",
    "native": null,
    "timezone": "Europe/Rome",
    "translations": {}
  },
  {
    "id": 61936,
    "name": "Viganella",
    "state_id": 1726,
    "state_code": "VB",
    "country_id": 107,
    "country_code": "IT",
    "latitude": "46.05173000",
    "longitude": "8.19374000",
    "native": null,
    "timezone": "Europe/Rome",
    "translations": {}
  },
  {
    "id": 61966,
    "name": "Vignone",
    "state_id": 1726,
    "state_code": "VB",
    "country_id": 107,
    "country_code": "IT",
    "latitude": "45.96118000",
    "longitude": "8.56372000",
    "native": null,
    "timezone": "Europe/Rome",
    "translations": {}
  },
  {
    "id": 62053,
    "name": "Villadossola",
    "state_id": 1726,
    "state_code": "VB",
    "country_id": 107,
    "country_code": "IT",
    "latitude": "46.07080000",
    "longitude": "8.26709000",
    "native": null,
    "timezone": "Europe/Rome",
    "translations": {}
  },
  {
    "id": 62152,
    "name": "Villette",
    "state_id": 1726,
    "state_code": "VB",
    "country_id": 107,
    "country_code": "IT",
    "latitude": "46.13188000",
    "longitude": "8.53422000",
    "native": null,
    "timezone": "Europe/Rome",
    "translations": {}
  },
  {
    "id": 62203,
    "name": "Vogogna",
    "state_id": 1726,
    "state_code": "VB",
    "country_id": 107,
    "country_code": "IT",
    "latitude": "46.01002000",
    "longitude": "8.29137000",
    "native": null,
    "timezone": "Europe/Rome",
    "translations": {}
  }
]