[
  {
    "id": 39337,
    "name": "Althen-des-Paluds",
    "state_id": 5052,
    "state_code": "84",
    "country_id": 75,
    "country_code": "FR",
    "latitude": "44.00405000",
    "longitude": "4.95861000",
    "native": null,
    "timezone": "Europe/Paris",
    "translations": {}
  },
  {
    "id": 39429,
    "name": "Ansouis",
    "state_id": 5052,
    "state_code": "84",
    "country_id": 75,
    "country_code": "FR",
    "latitude": "43.73771000",
    "longitude": "5.46356000",
    "native": null,
    "timezone": "Europe/Paris",
    "translations": {}
  },
  {
    "id": 39446,
    "name": "Apt",
    "state_id": 5052,
    "state_code": "84",
    "country_id": 75,
    "country_code": "FR",
    "latitude": "43.87638000",
    "longitude": "5.39635000",
    "native": null,
    "timezone": "Europe/Paris",
    "translations": {}
  },
  {
    "id": 39578,
    "name": "Aubignan",
    "state_id": 5052,
    "state_code": "84",
    "country_id": 75,
    "country_code": "FR",
    "latitude": "44.09971000",
    "longitude": "5.02526000",
    "native": null,
    "timezone": "Europe/Paris",
    "translations": {}
  },
  {
    "id": 39669,
    "name": "Avignon",
    "state_id": 5052,
    "state_code": "84",
    "country_id": 75,
    "country_code": "FR",
    "latitude": "43.94834000",
    "longitude": "4.80892000",
    "native": null,
    "timezone": "Europe/Paris",
    "translations": {}
  },
  {
    "id": 39857,
    "name": "Beaumes-de-Venise",
    "state_id": 5052,
    "state_code": "84",
    "country_id": 75,
    "country_code": "FR",
    "latitude": "44.12227000",
    "longitude": "5.03065000",
    "native": null,
    "timezone": "Europe/Paris",
    "translations": {}
  },
  {
    "id": 39864,
    "name": "Beaumont-de-Pertuis",
    "state_id": 5052,
    "state_code": "84",
    "country_id": 75,
    "country_code": "FR",
    "latitude": "43.73737000",
    "longitude": "5.68959000",
    "native": null,
    "timezone": "Europe/Paris",
    "translations": {}
  },
  {
    "id": 40413,
    "name": "Bédarrides",
    "state_id": 5052,
    "state_code": "84",
    "country_id": 75,
    "country_code": "FR",
    "latitude": "44.04022000",
    "longitude": "4.89819000",
    "native": null,
    "timezone": "Europe/Paris",
    "translations": {}
  },
  {
    "id": 40414,
    "name": "Bédoin",
    "state_id": 5052,
    "state_code": "84",
    "country_id": 75,
    "country_code": "FR",
    "latitude": "44.12432000",
    "longitude": "5.18040000",
    "native": null,
    "timezone": "Europe/Paris",
    "translations": {}
  },
  {
    "id": 40105,
    "name": "Bollène",
    "state_id": 5052,
    "state_code": "84",
    "country_id": 75,
    "country_code": "FR",
    "latitude": "44.28124000",
    "longitude": "4.74891000",
    "native": null,
    "timezone": "Europe/Paris",
    "translations": {}
  },
  {
    "id": 40127,
    "name": "Bonnieux",
    "state_id": 5052,
    "state_code": "84",
    "country_id": 75,
    "country_code": "FR",
    "latitude": "43.82396000",
    "longitude": "5.30759000",
    "native": null,
    "timezone": "Europe/Paris",
    "translations": {}
  },
  {
    "id": 40453,
    "name": "Cadenet",
    "state_id": 5052,
    "state_code": "84",
    "country_id": 75,
    "country_code": "FR",
    "latitude": "43.73500000",
    "longitude": "5.37339000",
    "native": null,
    "timezone": "Europe/Paris",
    "translations": {}
  },
  {
    "id": 40454,
    "name": "Caderousse",
    "state_id": 5052,
    "state_code": "84",
    "country_id": 75,
    "country_code": "FR",
    "latitude": "44.10327000",
    "longitude": "4.75672000",
    "native": null,
    "timezone": "Europe/Paris",
    "translations": {}
  },
  {
    "id": 40481,
    "name": "Camaret-sur-Aigues",
    "state_id": 5052,
    "state_code": "84",
    "country_id": 75,
    "country_code": "FR",
    "latitude": "44.16375000",
    "longitude": "4.87310000",
    "native": null,
    "timezone": "Europe/Paris",
    "translations": {}
  },
  {
    "id": 40554,
    "name": "Caromb",
    "state_id": 5052,
    "state_code": "84",
    "country_id": 75,
    "country_code": "FR",
    "latitude": "44.11106000",
    "longitude": "5.10738000",
    "native": null,
    "timezone": "Europe/Paris",
    "translations": {}
  },
  {
    "id": 40555,
    "name": "Carpentras",
    "state_id": 5052,
    "state_code": "84",
    "country_id": 75,
    "country_code": "FR",
    "latitude": "44.05507000",
    "longitude": "5.04813000",
    "native": null,
    "timezone": "Europe/Paris",
    "translations": {}
  },
  {
    "id": 40609,
    "name": "Caumont-sur-Durance",
    "state_id": 5052,
    "state_code": "84",
    "country_id": 75,
    "country_code": "FR",
    "latitude": "43.89356000",
    "longitude": "4.94745000",
    "native": null,
    "timezone": "Europe/Paris",
    "translations": {}
  },
  {
    "id": 40617,
    "name": "Cavaillon",
    "state_id": 5052,
    "state_code": "84",
    "country_id": 75,
    "country_code": "FR",
    "latitude": "43.83125000",
    "longitude": "5.03586000",
    "native": null,
    "timezone": "Europe/Paris",
    "translations": {}
  },
  {
    "id": 40961,
    "name": "Châteauneuf-de-Gadagne",
    "state_id": 5052,
    "state_code": "84",
    "country_id": 75,
    "country_code": "FR",
    "latitude": "43.92683000",
    "longitude": "4.94453000",
    "native": null,
    "timezone": "Europe/Paris",
    "translations": {}
  },
  {
    "id": 40964,
    "name": "Châteauneuf-du-Pape",
    "state_id": 5052,
    "state_code": "84",
    "country_id": 75,
    "country_code": "FR",
    "latitude": "44.05638000",
    "longitude": "4.83244000",
    "native": null,
    "timezone": "Europe/Paris",
    "translations": {}
  },
  {
    "id": 40892,
    "name": "Cheval-Blanc",
    "state_id": 5052,
    "state_code": "84",
    "country_id": 75,
    "country_code": "FR",
    "latitude": "43.80189000",
    "longitude": "5.06229000",
    "native": null,
    "timezone": "Europe/Paris",
    "translations": {}
  },
  {
    "id": 41269,
    "name": "Courthézon",
    "state_id": 5052,
    "state_code": "84",
    "country_id": 75,
    "country_code": "FR",
    "latitude": "44.08760000",
    "longitude": "4.88407000",
    "native": null,
    "timezone": "Europe/Paris",
    "translations": {}
  },
  {
    "id": 41358,
    "name": "Cucuron",
    "state_id": 5052,
    "state_code": "84",
    "country_id": 75,
    "country_code": "FR",
    "latitude": "43.77298000",
    "longitude": "5.43858000",
    "native": null,
    "timezone": "Europe/Paris",
    "translations": {}
  },
  {
    "id": 41647,
    "name": "Département du Vaucluse",
    "state_id": 5052,
    "state_code": "84",
    "country_id": 75,
    "country_code": "FR",
    "latitude": "44.00000000",
    "longitude": "5.16667000",
    "native": null,
    "timezone": "Europe/Paris",
    "translations": {}
  },
  {
    "id": 41678,
    "name": "Entraigues-sur-la-Sorgue",
    "state_id": 5052,
    "state_code": "84",
    "country_id": 75,
    "country_code": "FR",
    "latitude": "44.00320000",
    "longitude": "4.92657000",
    "native": null,
    "timezone": "Europe/Paris",
    "translations": {}
  },
  {
    "id": 42041,
    "name": "Gargas",
    "state_id": 5052,
    "state_code": "84",
    "country_id": 75,
    "country_code": "FR",
    "latitude": "43.90196000",
    "longitude": "5.35814000",
    "native": null,
    "timezone": "Europe/Paris",
    "translations": {}
  },
  {
    "id": 42136,
    "name": "Gordes",
    "state_id": 5052,
    "state_code": "84",
    "country_id": 75,
    "country_code": "FR",
    "latitude": "43.91290000",
    "longitude": "5.19892000",
    "native": null,
    "timezone": "Europe/Paris",
    "translations": {}
  },
  {
    "id": 42148,
    "name": "Goult",
    "state_id": 5052,
    "state_code": "84",
    "country_id": 75,
    "country_code": "FR",
    "latitude": "43.86297000",
    "longitude": "5.24390000",
    "native": null,
    "timezone": "Europe/Paris",
    "translations": {}
  },
  {
    "id": 42169,
    "name": "Grambois",
    "state_id": 5052,
    "state_code": "84",
    "country_id": 75,
    "country_code": "FR",
    "latitude": "43.76233000",
    "longitude": "5.58860000",
    "native": null,
    "timezone": "Europe/Paris",
    "translations": {}
  },
  {
    "id": 42213,
    "name": "Grillon",
    "state_id": 5052,
    "state_code": "84",
    "country_id": 75,
    "country_code": "FR",
    "latitude": "44.39508000",
    "longitude": "4.92954000",
    "native": null,
    "timezone": "Europe/Paris",
    "translations": {}
  },
  {
    "id": 42558,
    "name": "Jonquerettes",
    "state_id": 5052,
    "state_code": "84",
    "country_id": 75,
    "country_code": "FR",
    "latitude": "43.94655000",
    "longitude": "4.93286000",
    "native": null,
    "timezone": "Europe/Paris",
    "translations": {}
  },
  {
    "id": 42559,
    "name": "Jonquières",
    "state_id": 5052,
    "state_code": "84",
    "country_id": 75,
    "country_code": "FR",
    "latitude": "44.11603000",
    "longitude": "4.89989000",
    "native": null,
    "timezone": "Europe/Paris",
    "translations": {}
  },
  {
    "id": 43707,
    "name": "L’Isle-sur-la-Sorgue",
    "state_id": 5052,
    "state_code": "84",
    "country_id": 75,
    "country_code": "FR",
    "latitude": "43.91971000",
    "longitude": "5.05141000",
    "native": null,
    "timezone": "Europe/Paris",
    "translations": {}
  },
  {
    "id": 42636,
    "name": "La Bastide-des-Jourdans",
    "state_id": 5052,
    "state_code": "84",
    "country_id": 75,
    "country_code": "FR",
    "latitude": "43.78531000",
    "longitude": "5.63446000",
    "native": null,
    "timezone": "Europe/Paris",
    "translations": {}
  },
  {
    "id": 161827,
    "name": "La Tour-d'Aigues",
    "state_id": 5052,
    "state_code": "84",
    "country_id": 75,
    "country_code": "FR",
    "latitude": "43.71280000",
    "longitude": "5.56820000",
    "native": null,
    "timezone": "Europe/Paris",
    "translations": {}
  },
  {
    "id": 42956,
    "name": "Lagnes",
    "state_id": 5052,
    "state_code": "84",
    "country_id": 75,
    "country_code": "FR",
    "latitude": "43.89348000",
    "longitude": "5.11454000",
    "native": null,
    "timezone": "Europe/Paris",
    "translations": {}
  },
  {
    "id": 43059,
    "name": "Lapalud",
    "state_id": 5052,
    "state_code": "84",
    "country_id": 75,
    "country_code": "FR",
    "latitude": "44.30780000",
    "longitude": "4.68946000",
    "native": null,
    "timezone": "Europe/Paris",
    "translations": {}
  },
  {
    "id": 43099,
    "name": "Lauris",
    "state_id": 5052,
    "state_code": "84",
    "country_id": 75,
    "country_code": "FR",
    "latitude": "43.74716000",
    "longitude": "5.31346000",
    "native": null,
    "timezone": "Europe/Paris",
    "translations": {}
  },
  {
    "id": 43275,
    "name": "Le Pontet",
    "state_id": 5052,
    "state_code": "84",
    "country_id": 75,
    "country_code": "FR",
    "latitude": "43.96119000",
    "longitude": "4.86008000",
    "native": null,
    "timezone": "Europe/Paris",
    "translations": {}
  },
  {
    "id": 43316,
    "name": "Le Thor",
    "state_id": 5052,
    "state_code": "84",
    "country_id": 75,
    "country_code": "FR",
    "latitude": "43.92943000",
    "longitude": "4.99543000",
    "native": null,
    "timezone": "Europe/Paris",
    "translations": {}
  },
  {
    "id": 43588,
    "name": "Loriol-du-Comtat",
    "state_id": 5052,
    "state_code": "84",
    "country_id": 75,
    "country_code": "FR",
    "latitude": "44.07653000",
    "longitude": "5.00065000",
    "native": null,
    "timezone": "Europe/Paris",
    "translations": {}
  },
  {
    "id": 43609,
    "name": "Lourmarin",
    "state_id": 5052,
    "state_code": "84",
    "country_id": 75,
    "country_code": "FR",
    "latitude": "43.76385000",
    "longitude": "5.36264000",
    "native": null,
    "timezone": "Europe/Paris",
    "translations": {}
  },
  {
    "id": 43751,
    "name": "Malaucène",
    "state_id": 5052,
    "state_code": "84",
    "country_id": 75,
    "country_code": "FR",
    "latitude": "44.17393000",
    "longitude": "5.13213000",
    "native": null,
    "timezone": "Europe/Paris",
    "translations": {}
  },
  {
    "id": 43754,
    "name": "Malemort-du-Comtat",
    "state_id": 5052,
    "state_code": "84",
    "country_id": 75,
    "country_code": "FR",
    "latitude": "44.02096000",
    "longitude": "5.15961000",
    "native": null,
    "timezone": "Europe/Paris",
    "translations": {}
  },
  {
    "id": 43972,
    "name": "Mazan",
    "state_id": 5052,
    "state_code": "84",
    "country_id": 75,
    "country_code": "FR",
    "latitude": "44.05696000",
    "longitude": "5.12680000",
    "native": null,
    "timezone": "Europe/Paris",
    "translations": {}
  },
  {
    "id": 44462,
    "name": "Ménerbes",
    "state_id": 5052,
    "state_code": "84",
    "country_id": 75,
    "country_code": "FR",
    "latitude": "43.83242000",
    "longitude": "5.20597000",
    "native": null,
    "timezone": "Europe/Paris",
    "translations": {}
  },
  {
    "id": 44475,
    "name": "Mérindol",
    "state_id": 5052,
    "state_code": "84",
    "country_id": 75,
    "country_code": "FR",
    "latitude": "43.75516000",
    "longitude": "5.20357000",
    "native": null,
    "timezone": "Europe/Paris",
    "translations": {}
  },
  {
    "id": 44139,
    "name": "Mondragon",
    "state_id": 5052,
    "state_code": "84",
    "country_id": 75,
    "country_code": "FR",
    "latitude": "44.23831000",
    "longitude": "4.71286000",
    "native": null,
    "timezone": "Europe/Paris",
    "translations": {}
  },
  {
    "id": 44229,
    "name": "Monteux",
    "state_id": 5052,
    "state_code": "84",
    "country_id": 75,
    "country_code": "FR",
    "latitude": "44.03618000",
    "longitude": "4.99630000",
    "native": null,
    "timezone": "Europe/Paris",
    "translations": {}
  },
  {
    "id": 44234,
    "name": "Montfavet",
    "state_id": 5052,
    "state_code": "84",
    "country_id": 75,
    "country_code": "FR",
    "latitude": "43.93335000",
    "longitude": "4.87342000",
    "native": null,
    "timezone": "Europe/Paris",
    "translations": {}
  },
  {
    "id": 44355,
    "name": "Morières-lès-Avignon",
    "state_id": 5052,
    "state_code": "84",
    "country_id": 75,
    "country_code": "FR",
    "latitude": "43.94030000",
    "longitude": "4.90110000",
    "native": null,
    "timezone": "Europe/Paris",
    "translations": {}
  },
  {
    "id": 44359,
    "name": "Mormoiron",
    "state_id": 5052,
    "state_code": "84",
    "country_id": 75,
    "country_code": "FR",
    "latitude": "44.06810000",
    "longitude": "5.18312000",
    "native": null,
    "timezone": "Europe/Paris",
    "translations": {}
  },
  {
    "id": 44362,
    "name": "Mornas",
    "state_id": 5052,
    "state_code": "84",
    "country_id": 75,
    "country_code": "FR",
    "latitude": "44.20242000",
    "longitude": "4.72763000",
    "native": null,
    "timezone": "Europe/Paris",
    "translations": {}
  },
  {
    "id": 44748,
    "name": "Oppède le Vieux",
    "state_id": 5052,
    "state_code": "84",
    "country_id": 75,
    "country_code": "FR",
    "latitude": "43.82844000",
    "longitude": "5.16132000",
    "native": null,
    "timezone": "Europe/Paris",
    "translations": {}
  },
  {
    "id": 44753,
    "name": "Orange",
    "state_id": 5052,
    "state_code": "84",
    "country_id": 75,
    "country_code": "FR",
    "latitude": "44.13806000",
    "longitude": "4.81025000",
    "native": null,
    "timezone": "Europe/Paris",
    "translations": {}
  },
  {
    "id": 44898,
    "name": "Pernes-les-Fontaines",
    "state_id": 5052,
    "state_code": "84",
    "country_id": 75,
    "country_code": "FR",
    "latitude": "43.99802000",
    "longitude": "5.05906000",
    "native": null,
    "timezone": "Europe/Paris",
    "translations": {}
  },
  {
    "id": 44911,
    "name": "Pertuis",
    "state_id": 5052,
    "state_code": "84",
    "country_id": 75,
    "country_code": "FR",
    "latitude": "43.69415000",
    "longitude": "5.50291000",
    "native": null,
    "timezone": "Europe/Paris",
    "translations": {}
  },
  {
    "id": 44974,
    "name": "Piolenc",
    "state_id": 5052,
    "state_code": "84",
    "country_id": 75,
    "country_code": "FR",
    "latitude": "44.17765000",
    "longitude": "4.76157000",
    "native": null,
    "timezone": "Europe/Paris",
    "translations": {}
  },
  {
    "id": 45537,
    "name": "Robion",
    "state_id": 5052,
    "state_code": "84",
    "country_id": 75,
    "country_code": "FR",
    "latitude": "43.84697000",
    "longitude": "5.11017000",
    "native": null,
    "timezone": "Europe/Paris",
    "translations": {}
  },
  {
    "id": 45699,
    "name": "Sablet",
    "state_id": 5052,
    "state_code": "84",
    "country_id": 75,
    "country_code": "FR",
    "latitude": "44.19265000",
    "longitude": "5.00566000",
    "native": null,
    "timezone": "Europe/Paris",
    "translations": {}
  },
  {
    "id": 45715,
    "name": "Saignon",
    "state_id": 5052,
    "state_code": "84",
    "country_id": 75,
    "country_code": "FR",
    "latitude": "43.86308000",
    "longitude": "5.42838000",
    "native": null,
    "timezone": "Europe/Paris",
    "translations": {}
  },
  {
    "id": 46522,
    "name": "Saint-Saturnin-lès-Apt",
    "state_id": 5052,
    "state_code": "84",
    "country_id": 75,
    "country_code": "FR",
    "latitude": "43.93333000",
    "longitude": "5.38333000",
    "native": null,
    "timezone": "Europe/Paris",
    "translations": {}
  },
  {
    "id": 46523,
    "name": "Saint-Saturnin-lès-Avignon",
    "state_id": 5052,
    "state_code": "84",
    "country_id": 75,
    "country_code": "FR",
    "latitude": "43.95501000",
    "longitude": "4.92548000",
    "native": null,
    "timezone": "Europe/Paris",
    "translations": {}
  },
  {
    "id": 46675,
    "name": "Sainte-Cécile-les-Vignes",
    "state_id": 5052,
    "state_code": "84",
    "country_id": 75,
    "country_code": "FR",
    "latitude": "44.24542000",
    "longitude": "4.88613000",
    "native": null,
    "timezone": "Europe/Paris",
    "translations": {}
  },
  {
    "id": 46816,
    "name": "Sarrians",
    "state_id": 5052,
    "state_code": "84",
    "country_id": 75,
    "country_code": "FR",
    "latitude": "44.08312000",
    "longitude": "4.97111000",
    "native": null,
    "timezone": "Europe/Paris",
    "translations": {}
  },
  {
    "id": 46844,
    "name": "Sault",
    "state_id": 5052,
    "state_code": "84",
    "country_id": 75,
    "country_code": "FR",
    "latitude": "44.08968000",
    "longitude": "5.40836000",
    "native": null,
    "timezone": "Europe/Paris",
    "translations": {}
  },
  {
    "id": 47145,
    "name": "Sérignan-du-Comtat",
    "state_id": 5052,
    "state_code": "84",
    "country_id": 75,
    "country_code": "FR",
    "latitude": "44.18915000",
    "longitude": "4.84379000",
    "native": null,
    "timezone": "Europe/Paris",
    "translations": {}
  },
  {
    "id": 47046,
    "name": "Sorgues",
    "state_id": 5052,
    "state_code": "84",
    "country_id": 75,
    "country_code": "FR",
    "latitude": "44.01023000",
    "longitude": "4.87381000",
    "native": null,
    "timezone": "Europe/Paris",
    "translations": {}
  },
  {
    "id": 47155,
    "name": "Taillades",
    "state_id": 5052,
    "state_code": "84",
    "country_id": 75,
    "country_code": "FR",
    "latitude": "43.83762000",
    "longitude": "5.08951000",
    "native": null,
    "timezone": "Europe/Paris",
    "translations": {}
  },
  {
    "id": 47421,
    "name": "Uchaux",
    "state_id": 5052,
    "state_code": "84",
    "country_id": 75,
    "country_code": "FR",
    "latitude": "44.21667000",
    "longitude": "4.80000000",
    "native": null,
    "timezone": "Europe/Paris",
    "translations": {}
  },
  {
    "id": 47451,
    "name": "Vacqueyras",
    "state_id": 5052,
    "state_code": "84",
    "country_id": 75,
    "country_code": "FR",
    "latitude": "44.13835000",
    "longitude": "4.98332000",
    "native": null,
    "timezone": "Europe/Paris",
    "translations": {}
  },
  {
    "id": 47459,
    "name": "Vaison-la-Romaine",
    "state_id": 5052,
    "state_code": "84",
    "country_id": 75,
    "country_code": "FR",
    "latitude": "44.23896000",
    "longitude": "5.07461000",
    "native": null,
    "timezone": "Europe/Paris",
    "translations": {}
  },
  {
    "id": 47500,
    "name": "Valréas",
    "state_id": 5052,
    "state_code": "84",
    "country_id": 75,
    "country_code": "FR",
    "latitude": "44.38490000",
    "longitude": "4.99125000",
    "native": null,
    "timezone": "Europe/Paris",
    "translations": {}
  },
  {
    "id": 47554,
    "name": "Vedène",
    "state_id": 5052,
    "state_code": "84",
    "country_id": 75,
    "country_code": "FR",
    "latitude": "43.97744000",
    "longitude": "4.90428000",
    "native": null,
    "timezone": "Europe/Paris",
    "translations": {}
  },
  {
    "id": 47561,
    "name": "Velleron",
    "state_id": 5052,
    "state_code": "84",
    "country_id": 75,
    "country_code": "FR",
    "latitude": "43.95742000",
    "longitude": "5.02936000",
    "native": null,
    "timezone": "Europe/Paris",
    "translations": {}
  },
  {
    "id": 47564,
    "name": "Venasque",
    "state_id": 5052,
    "state_code": "84",
    "country_id": 75,
    "country_code": "FR",
    "latitude": "43.99595000",
    "longitude": "5.14666000",
    "native": null,
    "timezone": "Europe/Paris",
    "translations": {}
  },
  {
    "id": 47747,
    "name": "Villelaure",
    "state_id": 5052,
    "state_code": "84",
    "country_id": 75,
    "country_code": "FR",
    "latitude": "43.71075000",
    "longitude": "5.43422000",
    "native": null,
    "timezone": "Europe/Paris",
    "translations": {}
  },
  {
    "id": 47814,
    "name": "Villes-sur-Auzon",
    "state_id": 5052,
    "state_code": "84",
    "country_id": 75,
    "country_code": "FR",
    "latitude": "44.05669000",
    "longitude": "5.23430000",
    "native": null,
    "timezone": "Europe/Paris",
    "translations": {}
  },
  {
    "id": 47854,
    "name": "Violès",
    "state_id": 5052,
    "state_code": "84",
    "country_id": 75,
    "country_code": "FR",
    "latitude": "44.16176000",
    "longitude": "4.95483000",
    "native": null,
    "timezone": "Europe/Paris",
    "translations": {}
  },
  {
    "id": 47869,
    "name": "Visan",
    "state_id": 5052,
    "state_code": "84",
    "country_id": 75,
    "country_code": "FR",
    "latitude": "44.31468000",
    "longitude": "4.95033000",
    "native": null,
    "timezone": "Europe/Paris",
    "translations": {}
  }
]