[
  {
    "id": 39259,
    "name": "Agneaux",
    "state_id": 5018,
    "state_code": "50",
    "country_id": 75,
    "country_code": "FR",
    "latitude": "49.11905000",
    "longitude": "-1.10610000",
    "native": null,
    "timezone": "Europe/Paris",
    "translations": {}
  },
  {
    "id": 39262,
    "name": "Agon-Coutainville",
    "state_id": 5018,
    "state_code": "50",
    "country_id": 75,
    "country_code": "FR",
    "latitude": "49.04167000",
    "longitude": "-1.57500000",
    "native": null,
    "timezone": "Europe/Paris",
    "translations": {}
  },
  {
    "id": 39678,
    "name": "Avranches",
    "state_id": 5018,
    "state_code": "50",
    "country_id": 75,
    "country_code": "FR",
    "latitude": "48.68436000",
    "longitude": "-1.35686000",
    "native": null,
    "timezone": "Europe/Paris",
    "translations": {}
  },
  {
    "id": 39782,
    "name": "Barenton",
    "state_id": 5018,
    "state_code": "50",
    "country_id": 75,
    "country_code": "FR",
    "latitude": "48.60027000",
    "longitude": "-0.83258000",
    "native": null,
    "timezone": "Europe/Paris",
    "translations": {}
  },
  {
    "id": 39788,
    "name": "Barneville-Carteret",
    "state_id": 5018,
    "state_code": "50",
    "country_id": 75,
    "country_code": "FR",
    "latitude": "49.38333000",
    "longitude": "-1.75000000",
    "native": null,
    "timezone": "Europe/Paris",
    "translations": {}
  },
  {
    "id": 39789,
    "name": "Barneville-Plage",
    "state_id": 5018,
    "state_code": "50",
    "country_id": 75,
    "country_code": "FR",
    "latitude": "49.36786000",
    "longitude": "-1.76512000",
    "native": null,
    "timezone": "Europe/Paris",
    "translations": {}
  },
  {
    "id": 39861,
    "name": "Beaumont-Hague",
    "state_id": 5018,
    "state_code": "50",
    "country_id": 75,
    "country_code": "FR",
    "latitude": "49.66387000",
    "longitude": "-1.83822000",
    "native": null,
    "timezone": "Europe/Paris",
    "translations": {}
  },
  {
    "id": 40049,
    "name": "Blainville-sur-Mer",
    "state_id": 5018,
    "state_code": "50",
    "country_id": 75,
    "country_code": "FR",
    "latitude": "49.06599000",
    "longitude": "-1.58340000",
    "native": null,
    "timezone": "Europe/Paris",
    "translations": {}
  },
  {
    "id": 161701,
    "name": "Bourgvallées",
    "state_id": 5018,
    "state_code": "50",
    "country_id": 75,
    "country_code": "FR",
    "latitude": "49.03650000",
    "longitude": "-1.13200000",
    "native": null,
    "timezone": "Europe/Paris",
    "translations": {}
  },
  {
    "id": 40356,
    "name": "Brécey",
    "state_id": 5018,
    "state_code": "50",
    "country_id": 75,
    "country_code": "FR",
    "latitude": "48.72413000",
    "longitude": "-1.16647000",
    "native": null,
    "timezone": "Europe/Paris",
    "translations": {}
  },
  {
    "id": 40358,
    "name": "Bréhal",
    "state_id": 5018,
    "state_code": "50",
    "country_id": 75,
    "country_code": "FR",
    "latitude": "48.89915000",
    "longitude": "-1.51225000",
    "native": null,
    "timezone": "Europe/Paris",
    "translations": {}
  },
  {
    "id": 40287,
    "name": "Bretteville",
    "state_id": 5018,
    "state_code": "50",
    "country_id": 75,
    "country_code": "FR",
    "latitude": "49.65440000",
    "longitude": "-1.52884000",
    "native": null,
    "timezone": "Europe/Paris",
    "translations": {}
  },
  {
    "id": 40303,
    "name": "Bricquebec",
    "state_id": 5018,
    "state_code": "50",
    "country_id": 75,
    "country_code": "FR",
    "latitude": "49.47008000",
    "longitude": "-1.63254000",
    "native": null,
    "timezone": "Europe/Paris",
    "translations": {}
  },
  {
    "id": 161705,
    "name": "Bricquebec-en-Cotentin",
    "state_id": 5018,
    "state_code": "50",
    "country_id": 75,
    "country_code": "FR",
    "latitude": "49.46210000",
    "longitude": "-1.66280000",
    "native": null,
    "timezone": "Europe/Paris",
    "translations": {}
  },
  {
    "id": 40329,
    "name": "Brix",
    "state_id": 5018,
    "state_code": "50",
    "country_id": 75,
    "country_code": "FR",
    "latitude": "49.54512000",
    "longitude": "-1.58012000",
    "native": null,
    "timezone": "Europe/Paris",
    "translations": {}
  },
  {
    "id": 40541,
    "name": "Carentan",
    "state_id": 5018,
    "state_code": "50",
    "country_id": 75,
    "country_code": "FR",
    "latitude": "49.30312000",
    "longitude": "-1.24806000",
    "native": null,
    "timezone": "Europe/Paris",
    "translations": {}
  },
  {
    "id": 161712,
    "name": "Carentan-les-Marais",
    "state_id": 5018,
    "state_code": "50",
    "country_id": 75,
    "country_code": "FR",
    "latitude": "49.30610000",
    "longitude": "-1.21180000",
    "native": null,
    "timezone": "Europe/Paris",
    "translations": {}
  },
  {
    "id": 41395,
    "name": "Cérences",
    "state_id": 5018,
    "state_code": "50",
    "country_id": 75,
    "country_code": "FR",
    "latitude": "48.91667000",
    "longitude": "-1.43470000",
    "native": null,
    "timezone": "Europe/Paris",
    "translations": {}
  },
  {
    "id": 40648,
    "name": "Cerisy-la-Salle",
    "state_id": 5018,
    "state_code": "50",
    "country_id": 75,
    "country_code": "FR",
    "latitude": "49.02622000",
    "longitude": "-1.28283000",
    "native": null,
    "timezone": "Europe/Paris",
    "translations": {}
  },
  {
    "id": 161721,
    "name": "Cherbourg-en-Cotentin",
    "state_id": 5018,
    "state_code": "50",
    "country_id": 75,
    "country_code": "FR",
    "latitude": "49.62770000",
    "longitude": "-1.63560000",
    "native": null,
    "timezone": "Europe/Paris",
    "translations": {}
  },
  {
    "id": 40881,
    "name": "Cherbourg-Octeville",
    "state_id": 5018,
    "state_code": "50",
    "country_id": 75,
    "country_code": "FR",
    "latitude": "49.63984000",
    "longitude": "-1.61636000",
    "native": null,
    "timezone": "Europe/Paris",
    "translations": {}
  },
  {
    "id": 41140,
    "name": "Condé-sur-Vire",
    "state_id": 5018,
    "state_code": "50",
    "country_id": 75,
    "country_code": "FR",
    "latitude": "49.05000000",
    "longitude": "-1.03333000",
    "native": null,
    "timezone": "Europe/Paris",
    "translations": {}
  },
  {
    "id": 41278,
    "name": "Coutances",
    "state_id": 5018,
    "state_code": "50",
    "country_id": 75,
    "country_code": "FR",
    "latitude": "49.04541000",
    "longitude": "-1.44518000",
    "native": null,
    "timezone": "Europe/Paris",
    "translations": {}
  },
  {
    "id": 41340,
    "name": "Créances",
    "state_id": 5018,
    "state_code": "50",
    "country_id": 75,
    "country_code": "FR",
    "latitude": "49.19873000",
    "longitude": "-1.56938000",
    "native": null,
    "timezone": "Europe/Paris",
    "translations": {}
  },
  {
    "id": 41480,
    "name": "Digosville",
    "state_id": 5018,
    "state_code": "50",
    "country_id": 75,
    "country_code": "FR",
    "latitude": "49.63104000",
    "longitude": "-1.52627000",
    "native": null,
    "timezone": "Europe/Paris",
    "translations": {}
  },
  {
    "id": 41534,
    "name": "Donville-les-Bains",
    "state_id": 5018,
    "state_code": "50",
    "country_id": 75,
    "country_code": "FR",
    "latitude": "48.84608000",
    "longitude": "-1.58315000",
    "native": null,
    "timezone": "Europe/Paris",
    "translations": {}
  },
  {
    "id": 41584,
    "name": "Ducey",
    "state_id": 5018,
    "state_code": "50",
    "country_id": 75,
    "country_code": "FR",
    "latitude": "48.61843000",
    "longitude": "-1.29052000",
    "native": null,
    "timezone": "Europe/Paris",
    "translations": {}
  },
  {
    "id": 161754,
    "name": "Ducey-Les Chéris",
    "state_id": 5018,
    "state_code": "50",
    "country_id": 75,
    "country_code": "FR",
    "latitude": "48.62000000",
    "longitude": "-1.26610000",
    "native": null,
    "timezone": "Europe/Paris",
    "translations": {}
  },
  {
    "id": 48087,
    "name": "Équeurdreville-Hainneville",
    "state_id": 5018,
    "state_code": "50",
    "country_id": 75,
    "country_code": "FR",
    "latitude": "49.64868000",
    "longitude": "-1.65306000",
    "native": null,
    "timezone": "Europe/Paris",
    "translations": {}
  },
  {
    "id": 41800,
    "name": "Fermanville",
    "state_id": 5018,
    "state_code": "50",
    "country_id": 75,
    "country_code": "FR",
    "latitude": "49.68673000",
    "longitude": "-1.46284000",
    "native": null,
    "timezone": "Europe/Paris",
    "translations": {}
  },
  {
    "id": 41828,
    "name": "Flamanville",
    "state_id": 5018,
    "state_code": "50",
    "country_id": 75,
    "country_code": "FR",
    "latitude": "49.53274000",
    "longitude": "-1.86560000",
    "native": null,
    "timezone": "Europe/Paris",
    "translations": {}
  },
  {
    "id": 42055,
    "name": "Gavray",
    "state_id": 5018,
    "state_code": "50",
    "country_id": 75,
    "country_code": "FR",
    "latitude": "48.91108000",
    "longitude": "-1.35059000",
    "native": null,
    "timezone": "Europe/Paris",
    "translations": {}
  },
  {
    "id": 161769,
    "name": "Gavray-sur-Sienne",
    "state_id": 5018,
    "state_code": "50",
    "country_id": 75,
    "country_code": "FR",
    "latitude": "48.89030000",
    "longitude": "-1.32440000",
    "native": null,
    "timezone": "Europe/Paris",
    "translations": {}
  },
  {
    "id": 42157,
    "name": "Gouville-sur-Mer",
    "state_id": 5018,
    "state_code": "50",
    "country_id": 75,
    "country_code": "FR",
    "latitude": "49.09611000",
    "longitude": "-1.57908000",
    "native": null,
    "timezone": "Europe/Paris",
    "translations": {}
  },
  {
    "id": 161777,
    "name": "Grandparigny",
    "state_id": 5018,
    "state_code": "50",
    "country_id": 75,
    "country_code": "FR",
    "latitude": "48.60710000",
    "longitude": "-1.06550000",
    "native": null,
    "timezone": "Europe/Paris",
    "translations": {}
  },
  {
    "id": 42185,
    "name": "Granville",
    "state_id": 5018,
    "state_code": "50",
    "country_id": 75,
    "country_code": "FR",
    "latitude": "48.83792000",
    "longitude": "-1.59714000",
    "native": null,
    "timezone": "Europe/Paris",
    "translations": {}
  },
  {
    "id": 42320,
    "name": "Hambye",
    "state_id": 5018,
    "state_code": "50",
    "country_id": 75,
    "country_code": "FR",
    "latitude": "48.94798000",
    "longitude": "-1.26417000",
    "native": null,
    "timezone": "Europe/Paris",
    "translations": {}
  },
  {
    "id": 42499,
    "name": "Isigny-le-Buat",
    "state_id": 5018,
    "state_code": "50",
    "country_id": 75,
    "country_code": "FR",
    "latitude": "48.61705000",
    "longitude": "-1.16993000",
    "native": null,
    "timezone": "Europe/Paris",
    "translations": {}
  },
  {
    "id": 42589,
    "name": "Jullouville",
    "state_id": 5018,
    "state_code": "50",
    "country_id": 75,
    "country_code": "FR",
    "latitude": "48.77576000",
    "longitude": "-1.56366000",
    "native": null,
    "timezone": "Europe/Paris",
    "translations": {}
  },
  {
    "id": 42768,
    "name": "La Glacerie",
    "state_id": 5018,
    "state_code": "50",
    "country_id": 75,
    "country_code": "FR",
    "latitude": "49.60517000",
    "longitude": "-1.58185000",
    "native": null,
    "timezone": "Europe/Paris",
    "translations": {}
  },
  {
    "id": 161819,
    "name": "La Hague",
    "state_id": 5018,
    "state_code": "50",
    "country_id": 75,
    "country_code": "FR",
    "latitude": "49.65460000",
    "longitude": "-1.82140000",
    "native": null,
    "timezone": "Europe/Paris",
    "translations": {}
  },
  {
    "id": 161820,
    "name": "La Haye",
    "state_id": 5018,
    "state_code": "50",
    "country_id": 75,
    "country_code": "FR",
    "latitude": "49.28730000",
    "longitude": "-1.59660000",
    "native": null,
    "timezone": "Europe/Paris",
    "translations": {}
  },
  {
    "id": 42782,
    "name": "La Haye-du-Puits",
    "state_id": 5018,
    "state_code": "50",
    "country_id": 75,
    "country_code": "FR",
    "latitude": "49.28973000",
    "longitude": "-1.54324000",
    "native": null,
    "timezone": "Europe/Paris",
    "translations": {}
  },
  {
    "id": 42781,
    "name": "La Haye-Pesnel",
    "state_id": 5018,
    "state_code": "50",
    "country_id": 75,
    "country_code": "FR",
    "latitude": "48.79561000",
    "longitude": "-1.39655000",
    "native": null,
    "timezone": "Europe/Paris",
    "translations": {}
  },
  {
    "id": 42800,
    "name": "La Meauffe",
    "state_id": 5018,
    "state_code": "50",
    "country_id": 75,
    "country_code": "FR",
    "latitude": "49.17643000",
    "longitude": "-1.11119000",
    "native": null,
    "timezone": "Europe/Paris",
    "translations": {}
  },
  {
    "id": 43308,
    "name": "Le Teilleul",
    "state_id": 5018,
    "state_code": "50",
    "country_id": 75,
    "country_code": "FR",
    "latitude": "48.53758000",
    "longitude": "-0.87304000",
    "native": null,
    "timezone": "Europe/Paris",
    "translations": {}
  },
  {
    "id": 43328,
    "name": "Le Val-Saint-Père",
    "state_id": 5018,
    "state_code": "50",
    "country_id": 75,
    "country_code": "FR",
    "latitude": "48.66177000",
    "longitude": "-1.37653000",
    "native": null,
    "timezone": "Europe/Paris",
    "translations": {}
  },
  {
    "id": 43400,
    "name": "Les Loges-Marchis",
    "state_id": 5018,
    "state_code": "50",
    "country_id": 75,
    "country_code": "FR",
    "latitude": "48.54132000",
    "longitude": "-1.08754000",
    "native": null,
    "timezone": "Europe/Paris",
    "translations": {}
  },
  {
    "id": 43421,
    "name": "Les Pieux",
    "state_id": 5018,
    "state_code": "50",
    "country_id": 75,
    "country_code": "FR",
    "latitude": "49.51286000",
    "longitude": "-1.80714000",
    "native": null,
    "timezone": "Europe/Paris",
    "translations": {}
  },
  {
    "id": 43442,
    "name": "Lessay",
    "state_id": 5018,
    "state_code": "50",
    "country_id": 75,
    "country_code": "FR",
    "latitude": "49.21703000",
    "longitude": "-1.53089000",
    "native": null,
    "timezone": "Europe/Paris",
    "translations": {}
  },
  {
    "id": 43771,
    "name": "Manche",
    "state_id": 5018,
    "state_code": "50",
    "country_id": 75,
    "country_code": "FR",
    "latitude": "49.03822000",
    "longitude": "-1.31865000",
    "native": null,
    "timezone": "Europe/Paris",
    "translations": {}
  },
  {
    "id": 43798,
    "name": "Marcey-les-Grèves",
    "state_id": 5018,
    "state_code": "50",
    "country_id": 75,
    "country_code": "FR",
    "latitude": "48.69673000",
    "longitude": "-1.39156000",
    "native": null,
    "timezone": "Europe/Paris",
    "translations": {}
  },
  {
    "id": 43840,
    "name": "Marigny",
    "state_id": 5018,
    "state_code": "50",
    "country_id": 75,
    "country_code": "FR",
    "latitude": "49.09952000",
    "longitude": "-1.24179000",
    "native": null,
    "timezone": "Europe/Paris",
    "translations": {}
  },
  {
    "id": 161883,
    "name": "Marigny-Le-Lozon",
    "state_id": 5018,
    "state_code": "50",
    "country_id": 75,
    "country_code": "FR",
    "latitude": "49.12560000",
    "longitude": "-1.26090000",
    "native": null,
    "timezone": "Europe/Paris",
    "translations": {}
  },
  {
    "id": 43919,
    "name": "Martinvast",
    "state_id": 5018,
    "state_code": "50",
    "country_id": 75,
    "country_code": "FR",
    "latitude": "49.59608000",
    "longitude": "-1.66434000",
    "native": null,
    "timezone": "Europe/Paris",
    "translations": {}
  },
  {
    "id": 44215,
    "name": "Montebourg",
    "state_id": 5018,
    "state_code": "50",
    "country_id": 75,
    "country_code": "FR",
    "latitude": "49.48774000",
    "longitude": "-1.38036000",
    "native": null,
    "timezone": "Europe/Paris",
    "translations": {}
  },
  {
    "id": 44282,
    "name": "Montmartin-sur-Mer",
    "state_id": 5018,
    "state_code": "50",
    "country_id": 75,
    "country_code": "FR",
    "latitude": "48.98861000",
    "longitude": "-1.52530000",
    "native": null,
    "timezone": "Europe/Paris",
    "translations": {}
  },
  {
    "id": 44372,
    "name": "Mortain",
    "state_id": 5018,
    "state_code": "50",
    "country_id": 75,
    "country_code": "FR",
    "latitude": "48.64782000",
    "longitude": "-0.94055000",
    "native": null,
    "timezone": "Europe/Paris",
    "translations": {}
  },
  {
    "id": 161910,
    "name": "Mortain-Bocage",
    "state_id": 5018,
    "state_code": "50",
    "country_id": 75,
    "country_code": "FR",
    "latitude": "48.60770000",
    "longitude": "-0.92590000",
    "native": null,
    "timezone": "Europe/Paris",
    "translations": {}
  },
  {
    "id": 44712,
    "name": "Octeville",
    "state_id": 5018,
    "state_code": "50",
    "country_id": 75,
    "country_code": "FR",
    "latitude": "49.62612000",
    "longitude": "-1.64349000",
    "native": null,
    "timezone": "Europe/Paris",
    "translations": {}
  },
  {
    "id": 44895,
    "name": "Percy",
    "state_id": 5018,
    "state_code": "50",
    "country_id": 75,
    "country_code": "FR",
    "latitude": "48.91714000",
    "longitude": "-1.18916000",
    "native": null,
    "timezone": "Europe/Paris",
    "translations": {}
  },
  {
    "id": 161929,
    "name": "Percy-en-Normandie",
    "state_id": 5018,
    "state_code": "50",
    "country_id": 75,
    "country_code": "FR",
    "latitude": "48.91740000",
    "longitude": "-1.19390000",
    "native": null,
    "timezone": "Europe/Paris",
    "translations": {}
  },
  {
    "id": 45352,
    "name": "Périers",
    "state_id": 5018,
    "state_code": "50",
    "country_id": 75,
    "country_code": "FR",
    "latitude": "49.18667000",
    "longitude": "-1.40762000",
    "native": null,
    "timezone": "Europe/Paris",
    "translations": {}
  },
  {
    "id": 44946,
    "name": "Picauville",
    "state_id": 5018,
    "state_code": "50",
    "country_id": 75,
    "country_code": "FR",
    "latitude": "49.37810000",
    "longitude": "-1.40048000",
    "native": null,
    "timezone": "Europe/Paris",
    "translations": {}
  },
  {
    "id": 44979,
    "name": "Pirou",
    "state_id": 5018,
    "state_code": "50",
    "country_id": 75,
    "country_code": "FR",
    "latitude": "49.18089000",
    "longitude": "-1.57384000",
    "native": null,
    "timezone": "Europe/Paris",
    "translations": {}
  },
  {
    "id": 45167,
    "name": "Pont-Hébert",
    "state_id": 5018,
    "state_code": "50",
    "country_id": 75,
    "country_code": "FR",
    "latitude": "49.16714000",
    "longitude": "-1.13428000",
    "native": null,
    "timezone": "Europe/Paris",
    "translations": {}
  },
  {
    "id": 45215,
    "name": "Pontorson",
    "state_id": 5018,
    "state_code": "50",
    "country_id": 75,
    "country_code": "FR",
    "latitude": "48.55316000",
    "longitude": "-1.50754000",
    "native": null,
    "timezone": "Europe/Paris",
    "translations": {}
  },
  {
    "id": 161947,
    "name": "Port-Bail-sur-Mer",
    "state_id": 5018,
    "state_code": "50",
    "country_id": 75,
    "country_code": "FR",
    "latitude": "49.34030000",
    "longitude": "-1.68880000",
    "native": null,
    "timezone": "Europe/Paris",
    "translations": {}
  },
  {
    "id": 45238,
    "name": "Portbail",
    "state_id": 5018,
    "state_code": "50",
    "country_id": 75,
    "country_code": "FR",
    "latitude": "49.33571000",
    "longitude": "-1.69560000",
    "native": null,
    "timezone": "Europe/Paris",
    "translations": {}
  },
  {
    "id": 45375,
    "name": "Querqueville",
    "state_id": 5018,
    "state_code": "50",
    "country_id": 75,
    "country_code": "FR",
    "latitude": "49.66251000",
    "longitude": "-1.69119000",
    "native": null,
    "timezone": "Europe/Paris",
    "translations": {}
  },
  {
    "id": 45381,
    "name": "Quettehou",
    "state_id": 5018,
    "state_code": "50",
    "country_id": 75,
    "country_code": "FR",
    "latitude": "49.59308000",
    "longitude": "-1.30352000",
    "native": null,
    "timezone": "Europe/Paris",
    "translations": {}
  },
  {
    "id": 45382,
    "name": "Quettreville-sur-Sienne",
    "state_id": 5018,
    "state_code": "50",
    "country_id": 75,
    "country_code": "FR",
    "latitude": "48.96802000",
    "longitude": "-1.46782000",
    "native": null,
    "timezone": "Europe/Paris",
    "translations": {}
  },
  {
    "id": 45696,
    "name": "Réville",
    "state_id": 5018,
    "state_code": "50",
    "country_id": 75,
    "country_code": "FR",
    "latitude": "49.61906000",
    "longitude": "-1.25868000",
    "native": null,
    "timezone": "Europe/Paris",
    "translations": {}
  },
  {
    "id": 45740,
    "name": "Saint-Amand",
    "state_id": 5018,
    "state_code": "50",
    "country_id": 75,
    "country_code": "FR",
    "latitude": "49.04338000",
    "longitude": "-0.96491000",
    "native": null,
    "timezone": "Europe/Paris",
    "translations": {}
  },
  {
    "id": 161973,
    "name": "Saint-Amand-Villages",
    "state_id": 5018,
    "state_code": "50",
    "country_id": 75,
    "country_code": "FR",
    "latitude": "49.04110000",
    "longitude": "-0.93060000",
    "native": null,
    "timezone": "Europe/Paris",
    "translations": {}
  },
  {
    "id": 46063,
    "name": "Saint-Hilaire-du-Harcouët",
    "state_id": 5018,
    "state_code": "50",
    "country_id": 75,
    "country_code": "FR",
    "latitude": "48.57700000",
    "longitude": "-1.09004000",
    "native": null,
    "timezone": "Europe/Paris",
    "translations": {}
  },
  {
    "id": 46052,
    "name": "Saint-Hilaire-Petitville",
    "state_id": 5018,
    "state_code": "50",
    "country_id": 75,
    "country_code": "FR",
    "latitude": "49.30250000",
    "longitude": "-1.21995000",
    "native": null,
    "timezone": "Europe/Paris",
    "translations": {}
  },
  {
    "id": 46078,
    "name": "Saint-James",
    "state_id": 5018,
    "state_code": "50",
    "country_id": 75,
    "country_code": "FR",
    "latitude": "48.52180000",
    "longitude": "-1.32629000",
    "native": null,
    "timezone": "Europe/Paris",
    "translations": {}
  },
  {
    "id": 161991,
    "name": "Saint-Jean-d'Elle",
    "state_id": 5018,
    "state_code": "50",
    "country_id": 75,
    "country_code": "FR",
    "latitude": "49.09340000",
    "longitude": "-0.95510000",
    "native": null,
    "timezone": "Europe/Paris",
    "translations": {}
  },
  {
    "id": 46106,
    "name": "Saint-Jean-des-Baisants",
    "state_id": 5018,
    "state_code": "50",
    "country_id": 75,
    "country_code": "FR",
    "latitude": "49.09371000",
    "longitude": "-0.97289000",
    "native": null,
    "timezone": "Europe/Paris",
    "translations": {}
  },
  {
    "id": 46107,
    "name": "Saint-Jean-des-Champs",
    "state_id": 5018,
    "state_code": "50",
    "country_id": 75,
    "country_code": "FR",
    "latitude": "48.82800000",
    "longitude": "-1.46487000",
    "native": null,
    "timezone": "Europe/Paris",
    "translations": {}
  },
  {
    "id": 46225,
    "name": "Saint-Lô",
    "state_id": 5018,
    "state_code": "50",
    "country_id": 75,
    "country_code": "FR",
    "latitude": "49.11624000",
    "longitude": "-1.09031000",
    "native": null,
    "timezone": "Europe/Paris",
    "translations": {}
  },
  {
    "id": 46273,
    "name": "Saint-Martin-de-Landelles",
    "state_id": 5018,
    "state_code": "50",
    "country_id": 75,
    "country_code": "FR",
    "latitude": "48.54530000",
    "longitude": "-1.17240000",
    "native": null,
    "timezone": "Europe/Paris",
    "translations": {}
  },
  {
    "id": 46387,
    "name": "Saint-Pair-sur-Mer",
    "state_id": 5018,
    "state_code": "50",
    "country_id": 75,
    "country_code": "FR",
    "latitude": "48.81455000",
    "longitude": "-1.56761000",
    "native": null,
    "timezone": "Europe/Paris",
    "translations": {}
  },
  {
    "id": 46453,
    "name": "Saint-Pierre-Église",
    "state_id": 5018,
    "state_code": "50",
    "country_id": 75,
    "country_code": "FR",
    "latitude": "49.66848000",
    "longitude": "-1.40358000",
    "native": null,
    "timezone": "Europe/Paris",
    "translations": {}
  },
  {
    "id": 46454,
    "name": "Saint-Planchers",
    "state_id": 5018,
    "state_code": "50",
    "country_id": 75,
    "country_code": "FR",
    "latitude": "48.82269000",
    "longitude": "-1.52598000",
    "native": null,
    "timezone": "Europe/Paris",
    "translations": {}
  },
  {
    "id": 46492,
    "name": "Saint-Quentin-sur-le-Homme",
    "state_id": 5018,
    "state_code": "50",
    "country_id": 75,
    "country_code": "FR",
    "latitude": "48.64751000",
    "longitude": "-1.31806000",
    "native": null,
    "timezone": "Europe/Paris",
    "translations": {}
  },
  {
    "id": 46538,
    "name": "Saint-Sauveur-le-Vicomte",
    "state_id": 5018,
    "state_code": "50",
    "country_id": 75,
    "country_code": "FR",
    "latitude": "49.38547000",
    "longitude": "-1.53310000",
    "native": null,
    "timezone": "Europe/Paris",
    "translations": {}
  },
  {
    "id": 46533,
    "name": "Saint-Sauveur-Lendelin",
    "state_id": 5018,
    "state_code": "50",
    "country_id": 75,
    "country_code": "FR",
    "latitude": "49.12988000",
    "longitude": "-1.41405000",
    "native": null,
    "timezone": "Europe/Paris",
    "translations": {}
  },
  {
    "id": 162017,
    "name": "Saint-Sauveur-Villages",
    "state_id": 5018,
    "state_code": "50",
    "country_id": 75,
    "country_code": "FR",
    "latitude": "49.13420000",
    "longitude": "-1.41170000",
    "native": null,
    "timezone": "Europe/Paris",
    "translations": {}
  },
  {
    "id": 46546,
    "name": "Saint-Senier-sous-Avranches",
    "state_id": 5018,
    "state_code": "50",
    "country_id": 75,
    "country_code": "FR",
    "latitude": "48.68399000",
    "longitude": "-1.33126000",
    "native": null,
    "timezone": "Europe/Paris",
    "translations": {}
  },
  {
    "id": 46595,
    "name": "Saint-Vaast-la-Hougue",
    "state_id": 5018,
    "state_code": "50",
    "country_id": 75,
    "country_code": "FR",
    "latitude": "49.58843000",
    "longitude": "-1.26931000",
    "native": null,
    "timezone": "Europe/Paris",
    "translations": {}
  },
  {
    "id": 46720,
    "name": "Sainte-Mère-Église",
    "state_id": 5018,
    "state_code": "50",
    "country_id": 75,
    "country_code": "FR",
    "latitude": "49.41000000",
    "longitude": "-1.31726000",
    "native": null,
    "timezone": "Europe/Paris",
    "translations": {}
  },
  {
    "id": 46821,
    "name": "Sartilly",
    "state_id": 5018,
    "state_code": "50",
    "country_id": 75,
    "country_code": "FR",
    "latitude": "48.75239000",
    "longitude": "-1.45678000",
    "native": null,
    "timezone": "Europe/Paris",
    "translations": {}
  },
  {
    "id": 162025,
    "name": "Sartilly-Baie-Bocage",
    "state_id": 5018,
    "state_code": "50",
    "country_id": 75,
    "country_code": "FR",
    "latitude": "48.74480000",
    "longitude": "-1.44410000",
    "native": null,
    "timezone": "Europe/Paris",
    "translations": {}
  },
  {
    "id": 47053,
    "name": "Sottevast",
    "state_id": 5018,
    "state_code": "50",
    "country_id": 75,
    "country_code": "FR",
    "latitude": "49.52374000",
    "longitude": "-1.59169000",
    "native": null,
    "timezone": "Europe/Paris",
    "translations": {}
  },
  {
    "id": 47083,
    "name": "Sourdeval",
    "state_id": 5018,
    "state_code": "50",
    "country_id": 75,
    "country_code": "FR",
    "latitude": "48.72312000",
    "longitude": "-0.92223000",
    "native": null,
    "timezone": "Europe/Paris",
    "translations": {}
  },
  {
    "id": 47122,
    "name": "Surtainville",
    "state_id": 5018,
    "state_code": "50",
    "country_id": 75,
    "country_code": "FR",
    "latitude": "49.45977000",
    "longitude": "-1.81298000",
    "native": null,
    "timezone": "Europe/Paris",
    "translations": {}
  },
  {
    "id": 162039,
    "name": "Tessy-Bocage",
    "state_id": 5018,
    "state_code": "50",
    "country_id": 75,
    "country_code": "FR",
    "latitude": "48.96290000",
    "longitude": "-1.05990000",
    "native": null,
    "timezone": "Europe/Paris",
    "translations": {}
  },
  {
    "id": 47212,
    "name": "Tessy-sur-Vire",
    "state_id": 5018,
    "state_code": "50",
    "country_id": 75,
    "country_code": "FR",
    "latitude": "48.97381000",
    "longitude": "-1.06087000",
    "native": null,
    "timezone": "Europe/Paris",
    "translations": {}
  },
  {
    "id": 47292,
    "name": "Tollevast",
    "state_id": 5018,
    "state_code": "50",
    "country_id": 75,
    "country_code": "FR",
    "latitude": "49.57437000",
    "longitude": "-1.62746000",
    "native": null,
    "timezone": "Europe/Paris",
    "translations": {}
  },
  {
    "id": 47303,
    "name": "Torigni-sur-Vire",
    "state_id": 5018,
    "state_code": "50",
    "country_id": 75,
    "country_code": "FR",
    "latitude": "49.03702000",
    "longitude": "-0.98214000",
    "native": null,
    "timezone": "Europe/Paris",
    "translations": {}
  },
  {
    "id": 162046,
    "name": "Torigny-les-Villes",
    "state_id": 5018,
    "state_code": "50",
    "country_id": 75,
    "country_code": "FR",
    "latitude": "48.99610000",
    "longitude": "-0.97400000",
    "native": null,
    "timezone": "Europe/Paris",
    "translations": {}
  },
  {
    "id": 47321,
    "name": "Tourlaville",
    "state_id": 5018,
    "state_code": "50",
    "country_id": 75,
    "country_code": "FR",
    "latitude": "49.63829000",
    "longitude": "-1.56639000",
    "native": null,
    "timezone": "Europe/Paris",
    "translations": {}
  },
  {
    "id": 47435,
    "name": "Urville-Nacqueville",
    "state_id": 5018,
    "state_code": "50",
    "country_id": 75,
    "country_code": "FR",
    "latitude": "49.67444000",
    "longitude": "-1.73664000",
    "native": null,
    "timezone": "Europe/Paris",
    "translations": {}
  },
  {
    "id": 47497,
    "name": "Valognes",
    "state_id": 5018,
    "state_code": "50",
    "country_id": 75,
    "country_code": "FR",
    "latitude": "49.50881000",
    "longitude": "-1.47047000",
    "native": null,
    "timezone": "Europe/Paris",
    "translations": {}
  },
  {
    "id": 47730,
    "name": "Villedieu-les-Poêles",
    "state_id": 5018,
    "state_code": "50",
    "country_id": 75,
    "country_code": "FR",
    "latitude": "48.83333000",
    "longitude": "-1.21667000",
    "native": null,
    "timezone": "Europe/Paris",
    "translations": {}
  },
  {
    "id": 162092,
    "name": "Villedieu-les-Poêles-Rouffigny",
    "state_id": 5018,
    "state_code": "50",
    "country_id": 75,
    "country_code": "FR",
    "latitude": "48.82470000",
    "longitude": "-1.23990000",
    "native": null,
    "timezone": "Europe/Paris",
    "translations": {}
  }
]