[
  {
    "id": 135440,
    "name": "Altino",
    "state_id": 1739,
    "state_code": "CH",
    "country_id": 107,
    "country_code": "IT",
    "latitude": "42.09954000",
    "longitude": "14.33267000",
    "native": null,
    "timezone": "Europe/Rome",
    "translations": {}
  },
  {
    "id": 135565,
    "name": "Archi",
    "state_id": 1739,
    "state_code": "CH",
    "country_id": 107,
    "country_code": "IT",
    "latitude": "42.09135000",
    "longitude": "14.38270000",
    "native": null,
    "timezone": "Europe/Rome",
    "translations": {}
  },
  {
    "id": 135597,
    "name": "Ari",
    "state_id": 1739,
    "state_code": "CH",
    "country_id": 107,
    "country_code": "IT",
    "latitude": "42.28967000",
    "longitude": "14.25856000",
    "native": null,
    "timezone": "Europe/Rome",
    "translations": {}
  },
  {
    "id": 135602,
    "name": "Arielli",
    "state_id": 1739,
    "state_code": "CH",
    "country_id": 107,
    "country_code": "IT",
    "latitude": "42.26003000",
    "longitude": "14.31004000",
    "native": null,
    "timezone": "Europe/Rome",
    "translations": {}
  },
  {
    "id": 135675,
    "name": "Atessa",
    "state_id": 1739,
    "state_code": "CH",
    "country_id": 107,
    "country_code": "IT",
    "latitude": "42.07018000",
    "longitude": "14.45049000",
    "native": null,
    "timezone": "Europe/Rome",
    "translations": {}
  },
  {
    "id": 136119,
    "name": "Bomba",
    "state_id": 1739,
    "state_code": "CH",
    "country_id": 107,
    "country_code": "IT",
    "latitude": "42.03343000",
    "longitude": "14.36656000",
    "native": null,
    "timezone": "Europe/Rome",
    "translations": {}
  },
  {
    "id": 136227,
    "name": "Borrello",
    "state_id": 1739,
    "state_code": "CH",
    "country_id": 107,
    "country_code": "IT",
    "latitude": "41.91730000",
    "longitude": "14.30535000",
    "native": null,
    "timezone": "Europe/Rome",
    "translations": {}
  },
  {
    "id": 136385,
    "name": "Bucchianico",
    "state_id": 1739,
    "state_code": "CH",
    "country_id": 107,
    "country_code": "IT",
    "latitude": "42.30368000",
    "longitude": "14.18377000",
    "native": null,
    "timezone": "Europe/Rome",
    "translations": {}
  },
  {
    "id": 136731,
    "name": "Canosa Sannita",
    "state_id": 1739,
    "state_code": "CH",
    "country_id": 107,
    "country_code": "IT",
    "latitude": "42.29629000",
    "longitude": "14.30514000",
    "native": null,
    "timezone": "Europe/Rome",
    "translations": {}
  },
  {
    "id": 136919,
    "name": "Carpineto Sinello",
    "state_id": 1739,
    "state_code": "CH",
    "country_id": 107,
    "country_code": "IT",
    "latitude": "42.01044000",
    "longitude": "14.50418000",
    "native": null,
    "timezone": "Europe/Rome",
    "translations": {}
  },
  {
    "id": 136945,
    "name": "Carunchio",
    "state_id": 1739,
    "state_code": "CH",
    "country_id": 107,
    "country_code": "IT",
    "latitude": "41.91761000",
    "longitude": "14.52683000",
    "native": null,
    "timezone": "Europe/Rome",
    "translations": {}
  },
  {
    "id": 136954,
    "name": "Casacanditella",
    "state_id": 1739,
    "state_code": "CH",
    "country_id": 107,
    "country_code": "IT",
    "latitude": "42.24643000",
    "longitude": "14.20040000",
    "native": null,
    "timezone": "Europe/Rome",
    "translations": {}
  },
  {
    "id": 136961,
    "name": "Casalanguida",
    "state_id": 1739,
    "state_code": "CH",
    "country_id": 107,
    "country_code": "IT",
    "latitude": "42.03752000",
    "longitude": "14.49613000",
    "native": null,
    "timezone": "Europe/Rome",
    "translations": {}
  },
  {
    "id": 136965,
    "name": "Casalbordino-Miracoli",
    "state_id": 1739,
    "state_code": "CH",
    "country_id": 107,
    "country_code": "IT",
    "latitude": "42.15354000",
    "longitude": "14.59912000",
    "native": null,
    "timezone": "Europe/Rome",
    "translations": {}
  },
  {
    "id": 136995,
    "name": "Casalincontrada",
    "state_id": 1739,
    "state_code": "CH",
    "country_id": 107,
    "country_code": "IT",
    "latitude": "42.29744000",
    "longitude": "14.13511000",
    "native": null,
    "timezone": "Europe/Rome",
    "translations": {}
  },
  {
    "id": 137083,
    "name": "Casoli",
    "state_id": 1739,
    "state_code": "CH",
    "country_id": 107,
    "country_code": "IT",
    "latitude": "42.61723000",
    "longitude": "13.97910000",
    "native": null,
    "timezone": "Europe/Rome",
    "translations": {}
  },
  {
    "id": 137136,
    "name": "Castel Frentano",
    "state_id": 1739,
    "state_code": "CH",
    "country_id": 107,
    "country_code": "IT",
    "latitude": "42.19875000",
    "longitude": "14.35643000",
    "native": null,
    "timezone": "Europe/Rome",
    "translations": {}
  },
  {
    "id": 137205,
    "name": "Castelguidone",
    "state_id": 1739,
    "state_code": "CH",
    "country_id": 107,
    "country_code": "IT",
    "latitude": "41.82258000",
    "longitude": "14.52286000",
    "native": null,
    "timezone": "Europe/Rome",
    "translations": {}
  },
  {
    "id": 137342,
    "name": "Castiglione Messer Marino",
    "state_id": 1739,
    "state_code": "CH",
    "country_id": 107,
    "country_code": "IT",
    "latitude": "41.86833000",
    "longitude": "14.44996000",
    "native": null,
    "timezone": "Europe/Rome",
    "translations": {}
  },
  {
    "id": 137465,
    "name": "Celenza sul Trigno",
    "state_id": 1739,
    "state_code": "CH",
    "country_id": 107,
    "country_code": "IT",
    "latitude": "41.87198000",
    "longitude": "14.57893000",
    "native": null,
    "timezone": "Europe/Rome",
    "translations": {}
  },
  {
    "id": 137672,
    "name": "Chieti",
    "state_id": 1739,
    "state_code": "CH",
    "country_id": 107,
    "country_code": "IT",
    "latitude": "42.34827000",
    "longitude": "14.16494000",
    "native": null,
    "timezone": "Europe/Rome",
    "translations": {}
  },
  {
    "id": 137789,
    "name": "Civitaluparella",
    "state_id": 1739,
    "state_code": "CH",
    "country_id": 107,
    "country_code": "IT",
    "latitude": "41.94490000",
    "longitude": "14.30135000",
    "native": null,
    "timezone": "Europe/Rome",
    "translations": {}
  },
  {
    "id": 137798,
    "name": "Civitella Messer Raimondo",
    "state_id": 1739,
    "state_code": "CH",
    "country_id": 107,
    "country_code": "IT",
    "latitude": "42.08893000",
    "longitude": "14.21701000",
    "native": null,
    "timezone": "Europe/Rome",
    "translations": {}
  },
  {
    "id": 137878,
    "name": "Colledimacine",
    "state_id": 1739,
    "state_code": "CH",
    "country_id": 107,
    "country_code": "IT",
    "latitude": "42.00370000",
    "longitude": "14.20079000",
    "native": null,
    "timezone": "Europe/Rome",
    "translations": {}
  },
  {
    "id": 137879,
    "name": "Colledimezzo",
    "state_id": 1739,
    "state_code": "CH",
    "country_id": 107,
    "country_code": "IT",
    "latitude": "41.98606000",
    "longitude": "14.38690000",
    "native": null,
    "timezone": "Europe/Rome",
    "translations": {}
  },
  {
    "id": 138129,
    "name": "Crecchio",
    "state_id": 1739,
    "state_code": "CH",
    "country_id": 107,
    "country_code": "IT",
    "latitude": "42.29778000",
    "longitude": "14.32656000",
    "native": null,
    "timezone": "Europe/Rome",
    "translations": {}
  },
  {
    "id": 138195,
    "name": "Cupello",
    "state_id": 1739,
    "state_code": "CH",
    "country_id": 107,
    "country_code": "IT",
    "latitude": "42.06936000",
    "longitude": "14.67054000",
    "native": null,
    "timezone": "Europe/Rome",
    "translations": {}
  },
  {
    "id": 138277,
    "name": "Dogliola",
    "state_id": 1739,
    "state_code": "CH",
    "country_id": 107,
    "country_code": "IT",
    "latitude": "41.94238000",
    "longitude": "14.63507000",
    "native": null,
    "timezone": "Europe/Rome",
    "translations": {}
  },
  {
    "id": 138422,
    "name": "Fallo",
    "state_id": 1739,
    "state_code": "CH",
    "country_id": 107,
    "country_code": "IT",
    "latitude": "41.93833000",
    "longitude": "14.32362000",
    "native": null,
    "timezone": "Europe/Rome",
    "translations": {}
  },
  {
    "id": 138437,
    "name": "Fara Filiorum Petri",
    "state_id": 1739,
    "state_code": "CH",
    "country_id": 107,
    "country_code": "IT",
    "latitude": "42.24152000",
    "longitude": "14.18026000",
    "native": null,
    "timezone": "Europe/Rome",
    "translations": {}
  },
  {
    "id": 138441,
    "name": "Fara San Martino",
    "state_id": 1739,
    "state_code": "CH",
    "country_id": 107,
    "country_code": "IT",
    "latitude": "42.09248000",
    "longitude": "14.20896000",
    "native": null,
    "timezone": "Europe/Rome",
    "translations": {}
  },
  {
    "id": 138527,
    "name": "Filetto",
    "state_id": 1739,
    "state_code": "CH",
    "country_id": 107,
    "country_code": "IT",
    "latitude": "42.22931000",
    "longitude": "14.24501000",
    "native": null,
    "timezone": "Europe/Rome",
    "translations": {}
  },
  {
    "id": 138669,
    "name": "Fossacesia",
    "state_id": 1739,
    "state_code": "CH",
    "country_id": 107,
    "country_code": "IT",
    "latitude": "42.24198000",
    "longitude": "14.48339000",
    "native": null,
    "timezone": "Europe/Rome",
    "translations": {}
  },
  {
    "id": 138690,
    "name": "Fraine",
    "state_id": 1739,
    "state_code": "CH",
    "country_id": 107,
    "country_code": "IT",
    "latitude": "41.90624000",
    "longitude": "14.48788000",
    "native": null,
    "timezone": "Europe/Rome",
    "translations": {}
  },
  {
    "id": 138696,
    "name": "Francavilla al Mare",
    "state_id": 1739,
    "state_code": "CH",
    "country_id": 107,
    "country_code": "IT",
    "latitude": "42.42158000",
    "longitude": "14.28217000",
    "native": null,
    "timezone": "Europe/Rome",
    "translations": {}
  },
  {
    "id": 138730,
    "name": "Fresagrandinaria",
    "state_id": 1739,
    "state_code": "CH",
    "country_id": 107,
    "country_code": "IT",
    "latitude": "41.97900000",
    "longitude": "14.66211000",
    "native": null,
    "timezone": "Europe/Rome",
    "translations": {}
  },
  {
    "id": 138736,
    "name": "Frisa",
    "state_id": 1739,
    "state_code": "CH",
    "country_id": 107,
    "country_code": "IT",
    "latitude": "42.26572000",
    "longitude": "14.37625000",
    "native": null,
    "timezone": "Europe/Rome",
    "translations": {}
  },
  {
    "id": 138755,
    "name": "Furci",
    "state_id": 1739,
    "state_code": "CH",
    "country_id": 107,
    "country_code": "IT",
    "latitude": "42.00746000",
    "longitude": "14.58802000",
    "native": null,
    "timezone": "Europe/Rome",
    "translations": {}
  },
  {
    "id": 138832,
    "name": "Gamberale",
    "state_id": 1739,
    "state_code": "CH",
    "country_id": 107,
    "country_code": "IT",
    "latitude": "41.90529000",
    "longitude": "14.20845000",
    "native": null,
    "timezone": "Europe/Rome",
    "translations": {}
  },
  {
    "id": 138926,
    "name": "Gessopalena",
    "state_id": 1739,
    "state_code": "CH",
    "country_id": 107,
    "country_code": "IT",
    "latitude": "42.05521000",
    "longitude": "14.27367000",
    "native": null,
    "timezone": "Europe/Rome",
    "translations": {}
  },
  {
    "id": 138985,
    "name": "Gissi",
    "state_id": 1739,
    "state_code": "CH",
    "country_id": 107,
    "country_code": "IT",
    "latitude": "42.01803000",
    "longitude": "14.54484000",
    "native": null,
    "timezone": "Europe/Rome",
    "translations": {}
  },
  {
    "id": 138991,
    "name": "Giuliano Teatino",
    "state_id": 1739,
    "state_code": "CH",
    "country_id": 107,
    "country_code": "IT",
    "latitude": "42.31220000",
    "longitude": "14.28082000",
    "native": null,
    "timezone": "Europe/Rome",
    "translations": {}
  },
  {
    "id": 139163,
    "name": "Guardiagrele",
    "state_id": 1739,
    "state_code": "CH",
    "country_id": 107,
    "country_code": "IT",
    "latitude": "42.19406000",
    "longitude": "14.21939000",
    "native": null,
    "timezone": "Europe/Rome",
    "translations": {}
  },
  {
    "id": 139181,
    "name": "Guilmi",
    "state_id": 1739,
    "state_code": "CH",
    "country_id": 107,
    "country_code": "IT",
    "latitude": "41.99653000",
    "longitude": "14.47882000",
    "native": null,
    "timezone": "Europe/Rome",
    "translations": {}
  },
  {
    "id": 139341,
    "name": "Lama dei Peligni",
    "state_id": 1739,
    "state_code": "CH",
    "country_id": 107,
    "country_code": "IT",
    "latitude": "42.04214000",
    "longitude": "14.18678000",
    "native": null,
    "timezone": "Europe/Rome",
    "translations": {}
  },
  {
    "id": 139354,
    "name": "Lanciano",
    "state_id": 1739,
    "state_code": "CH",
    "country_id": 107,
    "country_code": "IT",
    "latitude": "42.22718000",
    "longitude": "14.39024000",
    "native": null,
    "timezone": "Europe/Rome",
    "translations": {}
  },
  {
    "id": 139451,
    "name": "Lentella",
    "state_id": 1739,
    "state_code": "CH",
    "country_id": 107,
    "country_code": "IT",
    "latitude": "41.99576000",
    "longitude": "14.67692000",
    "native": null,
    "timezone": "Europe/Rome",
    "translations": {}
  },
  {
    "id": 139480,
    "name": "Lettopalena",
    "state_id": 1739,
    "state_code": "CH",
    "country_id": 107,
    "country_code": "IT",
    "latitude": "42.00251000",
    "longitude": "14.15652000",
    "native": null,
    "timezone": "Europe/Rome",
    "translations": {}
  },
  {
    "id": 139538,
    "name": "Liscia",
    "state_id": 1739,
    "state_code": "CH",
    "country_id": 107,
    "country_code": "IT",
    "latitude": "41.95524000",
    "longitude": "14.55532000",
    "native": null,
    "timezone": "Europe/Rome",
    "translations": {}
  },
  {
    "id": 139895,
    "name": "Marina di San Vito",
    "state_id": 1739,
    "state_code": "CH",
    "country_id": 107,
    "country_code": "IT",
    "latitude": "42.30514000",
    "longitude": "14.44844000",
    "native": null,
    "timezone": "Europe/Rome",
    "translations": {}
  },
  {
    "id": 139897,
    "name": "Marina di Vasto",
    "state_id": 1739,
    "state_code": "CH",
    "country_id": 107,
    "country_code": "IT",
    "latitude": "42.09373000",
    "longitude": "14.72683000",
    "native": null,
    "timezone": "Europe/Rome",
    "translations": {}
  },
  {
    "id": 140132,
    "name": "Miglianico",
    "state_id": 1739,
    "state_code": "CH",
    "country_id": 107,
    "country_code": "IT",
    "latitude": "42.35773000",
    "longitude": "14.29179000",
    "native": null,
    "timezone": "Europe/Rome",
    "translations": {}
  },
  {
    "id": 140350,
    "name": "Montazzoli",
    "state_id": 1739,
    "state_code": "CH",
    "country_id": 107,
    "country_code": "IT",
    "latitude": "41.94887000",
    "longitude": "14.43069000",
    "native": null,
    "timezone": "Europe/Rome",
    "translations": {}
  },
  {
    "id": 140390,
    "name": "Montebello sul Sangro",
    "state_id": 1739,
    "state_code": "CH",
    "country_id": 107,
    "country_code": "IT",
    "latitude": "41.98663000",
    "longitude": "14.32402000",
    "native": null,
    "timezone": "Europe/Rome",
    "translations": {}
  },
  {
    "id": 140436,
    "name": "Monteferrante",
    "state_id": 1739,
    "state_code": "CH",
    "country_id": 107,
    "country_code": "IT",
    "latitude": "41.95396000",
    "longitude": "14.38856000",
    "native": null,
    "timezone": "Europe/Rome",
    "translations": {}
  },
  {
    "id": 140465,
    "name": "Montelapiano",
    "state_id": 1739,
    "state_code": "CH",
    "country_id": 107,
    "country_code": "IT",
    "latitude": "41.96267000",
    "longitude": "14.34212000",
    "native": null,
    "timezone": "Europe/Rome",
    "translations": {}
  },
  {
    "id": 140504,
    "name": "Montenerodomo",
    "state_id": 1739,
    "state_code": "CH",
    "country_id": 107,
    "country_code": "IT",
    "latitude": "41.97682000",
    "longitude": "14.25177000",
    "native": null,
    "timezone": "Europe/Rome",
    "translations": {}
  },
  {
    "id": 140505,
    "name": "Monteodorisio",
    "state_id": 1739,
    "state_code": "CH",
    "country_id": 107,
    "country_code": "IT",
    "latitude": "42.08485000",
    "longitude": "14.65386000",
    "native": null,
    "timezone": "Europe/Rome",
    "translations": {}
  },
  {
    "id": 140671,
    "name": "Mozzagrogna",
    "state_id": 1739,
    "state_code": "CH",
    "country_id": 107,
    "country_code": "IT",
    "latitude": "42.21267000",
    "longitude": "14.44258000",
    "native": null,
    "timezone": "Europe/Rome",
    "translations": {}
  },
  {
    "id": 140975,
    "name": "Orsogna",
    "state_id": 1739,
    "state_code": "CH",
    "country_id": 107,
    "country_code": "IT",
    "latitude": "42.22344000",
    "longitude": "14.28085000",
    "native": null,
    "timezone": "Europe/Rome",
    "translations": {}
  },
  {
    "id": 140987,
    "name": "Ortona",
    "state_id": 1739,
    "state_code": "CH",
    "country_id": 107,
    "country_code": "IT",
    "latitude": "42.35087000",
    "longitude": "14.40342000",
    "native": null,
    "timezone": "Europe/Rome",
    "translations": {}
  },
  {
    "id": 58209,
    "name": "Paglieta",
    "state_id": 1739,
    "state_code": "CH",
    "country_id": 107,
    "country_code": "IT",
    "latitude": "42.16139000",
    "longitude": "14.50306000",
    "native": null,
    "timezone": "Europe/Rome",
    "translations": {}
  },
  {
    "id": 58238,
    "name": "Palena",
    "state_id": 1739,
    "state_code": "CH",
    "country_id": 107,
    "country_code": "IT",
    "latitude": "41.98353000",
    "longitude": "14.13696000",
    "native": null,
    "timezone": "Europe/Rome",
    "translations": {}
  },
  {
    "id": 58260,
    "name": "Palmoli",
    "state_id": 1739,
    "state_code": "CH",
    "country_id": 107,
    "country_code": "IT",
    "latitude": "41.93944000",
    "longitude": "14.58142000",
    "native": null,
    "timezone": "Europe/Rome",
    "translations": {}
  },
  {
    "id": 58264,
    "name": "Palombaro",
    "state_id": 1739,
    "state_code": "CH",
    "country_id": 107,
    "country_code": "IT",
    "latitude": "42.12323000",
    "longitude": "14.22989000",
    "native": null,
    "timezone": "Europe/Rome",
    "translations": {}
  },
  {
    "id": 58406,
    "name": "Pennadomo",
    "state_id": 1739,
    "state_code": "CH",
    "country_id": 107,
    "country_code": "IT",
    "latitude": "42.00394000",
    "longitude": "14.32338000",
    "native": null,
    "timezone": "Europe/Rome",
    "translations": {}
  },
  {
    "id": 58407,
    "name": "Pennapiedimonte",
    "state_id": 1739,
    "state_code": "CH",
    "country_id": 107,
    "country_code": "IT",
    "latitude": "42.15563000",
    "longitude": "14.19432000",
    "native": null,
    "timezone": "Europe/Rome",
    "translations": {}
  },
  {
    "id": 58411,
    "name": "Perano",
    "state_id": 1739,
    "state_code": "CH",
    "country_id": 107,
    "country_code": "IT",
    "latitude": "42.10460000",
    "longitude": "14.39581000",
    "native": null,
    "timezone": "Europe/Rome",
    "translations": {}
  },
  {
    "id": 58612,
    "name": "Pietraferrazzana",
    "state_id": 1739,
    "state_code": "CH",
    "country_id": 107,
    "country_code": "IT",
    "latitude": "41.96943000",
    "longitude": "14.37451000",
    "native": null,
    "timezone": "Europe/Rome",
    "translations": {}
  },
  {
    "id": 58727,
    "name": "Pizzoferrato",
    "state_id": 1739,
    "state_code": "CH",
    "country_id": 107,
    "country_code": "IT",
    "latitude": "41.92244000",
    "longitude": "14.23632000",
    "native": null,
    "timezone": "Europe/Rome",
    "translations": {}
  },
  {
    "id": 58768,
    "name": "Poggiofiorito",
    "state_id": 1739,
    "state_code": "CH",
    "country_id": 107,
    "country_code": "IT",
    "latitude": "42.25414000",
    "longitude": "14.32082000",
    "native": null,
    "timezone": "Europe/Rome",
    "translations": {}
  },
  {
    "id": 58802,
    "name": "Pollutri",
    "state_id": 1739,
    "state_code": "CH",
    "country_id": 107,
    "country_code": "IT",
    "latitude": "42.13784000",
    "longitude": "14.59172000",
    "native": null,
    "timezone": "Europe/Rome",
    "translations": {}
  },
  {
    "id": 59069,
    "name": "Pretoro",
    "state_id": 1739,
    "state_code": "CH",
    "country_id": 107,
    "country_code": "IT",
    "latitude": "42.21923000",
    "longitude": "14.14248000",
    "native": null,
    "timezone": "Europe/Rome",
    "translations": {}
  },
  {
    "id": 59212,
    "name": "Quadri",
    "state_id": 1739,
    "state_code": "CH",
    "country_id": 107,
    "country_code": "IT",
    "latitude": "41.92402000",
    "longitude": "14.28768000",
    "native": null,
    "timezone": "Europe/Rome",
    "translations": {}
  },
  {
    "id": 59285,
    "name": "Rapino",
    "state_id": 1739,
    "state_code": "CH",
    "country_id": 107,
    "country_code": "IT",
    "latitude": "42.20931000",
    "longitude": "14.18493000",
    "native": null,
    "timezone": "Europe/Rome",
    "translations": {}
  },
  {
    "id": 59399,
    "name": "Ripa Teatina",
    "state_id": 1739,
    "state_code": "CH",
    "country_id": 107,
    "country_code": "IT",
    "latitude": "42.36603000",
    "longitude": "14.24441000",
    "native": null,
    "timezone": "Europe/Rome",
    "translations": {}
  },
  {
    "id": 59478,
    "name": "Rocca San Giovanni",
    "state_id": 1739,
    "state_code": "CH",
    "country_id": 107,
    "country_code": "IT",
    "latitude": "42.24604000",
    "longitude": "14.46162000",
    "native": null,
    "timezone": "Europe/Rome",
    "translations": {}
  },
  {
    "id": 59518,
    "name": "Roccascalegna",
    "state_id": 1739,
    "state_code": "CH",
    "country_id": 107,
    "country_code": "IT",
    "latitude": "42.06212000",
    "longitude": "14.30802000",
    "native": null,
    "timezone": "Europe/Rome",
    "translations": {}
  },
  {
    "id": 59524,
    "name": "Roccaspinalveti-Santa Giusta",
    "state_id": 1739,
    "state_code": "CH",
    "country_id": 107,
    "country_code": "IT",
    "latitude": "41.94233000",
    "longitude": "14.47092000",
    "native": null,
    "timezone": "Europe/Rome",
    "translations": {}
  },
  {
    "id": 59567,
    "name": "Roio del Sangro",
    "state_id": 1739,
    "state_code": "CH",
    "country_id": 107,
    "country_code": "IT",
    "latitude": "41.91153000",
    "longitude": "14.37382000",
    "native": null,
    "timezone": "Europe/Rome",
    "translations": {}
  },
  {
    "id": 59634,
    "name": "Rosello",
    "state_id": 1739,
    "state_code": "CH",
    "country_id": 107,
    "country_code": "IT",
    "latitude": "41.90116000",
    "longitude": "14.34919000",
    "native": null,
    "timezone": "Europe/Rome",
    "translations": {}
  },
  {
    "id": 59792,
    "name": "Salvo Marina",
    "state_id": 1739,
    "state_code": "CH",
    "country_id": 107,
    "country_code": "IT",
    "latitude": "42.07037000",
    "longitude": "14.76597000",
    "native": null,
    "timezone": "Europe/Rome",
    "translations": {}
  },
  {
    "id": 59849,
    "name": "San Buono",
    "state_id": 1739,
    "state_code": "CH",
    "country_id": 107,
    "country_code": "IT",
    "latitude": "41.98140000",
    "longitude": "14.56818000",
    "native": null,
    "timezone": "Europe/Rome",
    "translations": {}
  },
  {
    "id": 59986,
    "name": "San Giovanni Lipioni",
    "state_id": 1739,
    "state_code": "CH",
    "country_id": 107,
    "country_code": "IT",
    "latitude": "41.84383000",
    "longitude": "14.56271000",
    "native": null,
    "timezone": "Europe/Rome",
    "translations": {}
  },
  {
    "id": 60097,
    "name": "San Martino sulla Marrucina",
    "state_id": 1739,
    "state_code": "CH",
    "country_id": 107,
    "country_code": "IT",
    "latitude": "42.22419000",
    "longitude": "14.21577000",
    "native": null,
    "timezone": "Europe/Rome",
    "translations": {}
  },
  {
    "id": 60222,
    "name": "San Rocco",
    "state_id": 1739,
    "state_code": "CH",
    "country_id": 107,
    "country_code": "IT",
    "latitude": "42.24294000",
    "longitude": "14.12891000",
    "native": null,
    "timezone": "Europe/Rome",
    "translations": {}
  },
  {
    "id": 60234,
    "name": "San Salvo",
    "state_id": 1739,
    "state_code": "CH",
    "country_id": 107,
    "country_code": "IT",
    "latitude": "42.04413000",
    "longitude": "14.73335000",
    "native": null,
    "timezone": "Europe/Rome",
    "translations": {}
  },
  {
    "id": 60275,
    "name": "San Vito Chietino",
    "state_id": 1739,
    "state_code": "CH",
    "country_id": 107,
    "country_code": "IT",
    "latitude": "42.29014000",
    "longitude": "14.44270000",
    "native": null,
    "timezone": "Europe/Rome",
    "translations": {}
  },
  {
    "id": 60403,
    "name": "Sant'Eusanio del Sangro",
    "state_id": 1739,
    "state_code": "CH",
    "country_id": 107,
    "country_code": "IT",
    "latitude": "42.16908000",
    "longitude": "14.32776000",
    "native": null,
    "timezone": "Europe/Rome",
    "translations": {}
  },
  {
    "id": 60463,
    "name": "Santa Maria Imbaro",
    "state_id": 1739,
    "state_code": "CH",
    "country_id": 107,
    "country_code": "IT",
    "latitude": "42.21999000",
    "longitude": "14.45027000",
    "native": null,
    "timezone": "Europe/Rome",
    "translations": {}
  },
  {
    "id": 60640,
    "name": "Scerni",
    "state_id": 1739,
    "state_code": "CH",
    "country_id": 107,
    "country_code": "IT",
    "latitude": "42.10418000",
    "longitude": "14.57428000",
    "native": null,
    "timezone": "Europe/Rome",
    "translations": {}
  },
  {
    "id": 60643,
    "name": "Schiavi di Abruzzo",
    "state_id": 1739,
    "state_code": "CH",
    "country_id": 107,
    "country_code": "IT",
    "latitude": "41.81311000",
    "longitude": "14.48655000",
    "native": null,
    "timezone": "Europe/Rome",
    "translations": {}
  },
  {
    "id": 60704,
    "name": "Selva",
    "state_id": 1739,
    "state_code": "CH",
    "country_id": 107,
    "country_code": "IT",
    "latitude": "42.11442000",
    "longitude": "14.34425000",
    "native": null,
    "timezone": "Europe/Rome",
    "translations": {}
  },
  {
    "id": 61163,
    "name": "Taranta Peligna",
    "state_id": 1739,
    "state_code": "CH",
    "country_id": 107,
    "country_code": "IT",
    "latitude": "42.02052000",
    "longitude": "14.17103000",
    "native": null,
    "timezone": "Europe/Rome",
    "translations": {}
  },
  {
    "id": 61301,
    "name": "Tollo",
    "state_id": 1739,
    "state_code": "CH",
    "country_id": 107,
    "country_code": "IT",
    "latitude": "42.34542000",
    "longitude": "14.32360000",
    "native": null,
    "timezone": "Europe/Rome",
    "translations": {}
  },
  {
    "id": 61330,
    "name": "Torino di Sangro",
    "state_id": 1739,
    "state_code": "CH",
    "country_id": 107,
    "country_code": "IT",
    "latitude": "42.19100000",
    "longitude": "14.54272000",
    "native": null,
    "timezone": "Europe/Rome",
    "translations": {}
  },
  {
    "id": 61334,
    "name": "Tornareccio",
    "state_id": 1739,
    "state_code": "CH",
    "country_id": 107,
    "country_code": "IT",
    "latitude": "42.03763000",
    "longitude": "14.41525000",
    "native": null,
    "timezone": "Europe/Rome",
    "translations": {}
  },
  {
    "id": 61380,
    "name": "Torrebruna",
    "state_id": 1739,
    "state_code": "CH",
    "country_id": 107,
    "country_code": "IT",
    "latitude": "41.86742000",
    "longitude": "14.54148000",
    "native": null,
    "timezone": "Europe/Rome",
    "translations": {}
  },
  {
    "id": 61392,
    "name": "Torrevecchia",
    "state_id": 1739,
    "state_code": "CH",
    "country_id": 107,
    "country_code": "IT",
    "latitude": "42.38274000",
    "longitude": "14.21331000",
    "native": null,
    "timezone": "Europe/Rome",
    "translations": {}
  },
  {
    "id": 61401,
    "name": "Torricella Peligna",
    "state_id": 1739,
    "state_code": "CH",
    "country_id": 107,
    "country_code": "IT",
    "latitude": "42.02397000",
    "longitude": "14.25854000",
    "native": null,
    "timezone": "Europe/Rome",
    "translations": {}
  },
  {
    "id": 61473,
    "name": "Treglio",
    "state_id": 1739,
    "state_code": "CH",
    "country_id": 107,
    "country_code": "IT",
    "latitude": "42.26184000",
    "longitude": "14.42315000",
    "native": null,
    "timezone": "Europe/Rome",
    "translations": {}
  },
  {
    "id": 61563,
    "name": "Tufillo",
    "state_id": 1739,
    "state_code": "CH",
    "country_id": 107,
    "country_code": "IT",
    "latitude": "41.91685000",
    "longitude": "14.62558000",
    "native": null,
    "timezone": "Europe/Rome",
    "translations": {}
  },
  {
    "id": 61626,
    "name": "Vacri",
    "state_id": 1739,
    "state_code": "CH",
    "country_id": 107,
    "country_code": "IT",
    "latitude": "42.29764000",
    "longitude": "14.22901000",
    "native": null,
    "timezone": "Europe/Rome",
    "translations": {}
  },
  {
    "id": 61781,
    "name": "Vasto",
    "state_id": 1739,
    "state_code": "CH",
    "country_id": 107,
    "country_code": "IT",
    "latitude": "42.11150000",
    "longitude": "14.70649000",
    "native": null,
    "timezone": "Europe/Rome",
    "translations": {}
  },
  {
    "id": 61988,
    "name": "Villa Caldari",
    "state_id": 1739,
    "state_code": "CH",
    "country_id": 107,
    "country_code": "IT",
    "latitude": "42.29566000",
    "longitude": "14.36157000",
    "native": null,
    "timezone": "Europe/Rome",
    "translations": {}
  },
  {
    "id": 62026,
    "name": "Villa Santa Maria",
    "state_id": 1739,
    "state_code": "CH",
    "country_id": 107,
    "country_code": "IT",
    "latitude": "41.95130000",
    "longitude": "14.35148000",
    "native": null,
    "timezone": "Europe/Rome",
    "translations": {}
  },
  {
    "id": 62078,
    "name": "Villalfonsina",
    "state_id": 1739,
    "state_code": "CH",
    "country_id": 107,
    "country_code": "IT",
    "latitude": "42.16038000",
    "longitude": "14.56932000",
    "native": null,
    "timezone": "Europe/Rome",
    "translations": {}
  },
  {
    "id": 62080,
    "name": "Villamagna",
    "state_id": 1739,
    "state_code": "CH",
    "country_id": 107,
    "country_code": "IT",
    "latitude": "42.32984000",
    "longitude": "14.23689000",
    "native": null,
    "timezone": "Europe/Rome",
    "translations": {}
  }
]