[
  {
    "id": 135312,
    "name": "Agordo",
    "state_id": 1689,
    "state_code": "BL",
    "country_id": 107,
    "country_code": "IT",
    "latitude": "46.28201000",
    "longitude": "12.03608000",
    "native": null,
    "timezone": "Europe/Rome",
    "translations": {}
  },
  {
    "id": 135415,
    "name": "Alleghe",
    "state_id": 1689,
    "state_code": "BL",
    "country_id": 107,
    "country_code": "IT",
    "latitude": "46.40718000",
    "longitude": "12.02336000",
    "native": null,
    "timezone": "Europe/Rome",
    "translations": {}
  },
  {
    "id": 135639,
    "name": "Arsiè",
    "state_id": 1689,
    "state_code": "BL",
    "country_id": 107,
    "country_code": "IT",
    "latitude": "45.98211000",
    "longitude": "11.75794000",
    "native": null,
    "timezone": "Europe/Rome",
    "translations": {}
  },
  {
    "id": 135693,
    "name": "Auronzo",
    "state_id": 1689,
    "state_code": "BL",
    "country_id": 107,
    "country_code": "IT",
    "latitude": "46.55920000",
    "longitude": "12.42456000",
    "native": null,
    "timezone": "Europe/Rome",
    "translations": {}
  },
  {
    "id": 135949,
    "name": "Belluno",
    "state_id": 1689,
    "state_code": "BL",
    "country_id": 107,
    "country_code": "IT",
    "latitude": "46.14262000",
    "longitude": "12.21560000",
    "native": null,
    "timezone": "Europe/Rome",
    "translations": {}
  },
  {
    "id": 136146,
    "name": "Borca",
    "state_id": 1689,
    "state_code": "BL",
    "country_id": 107,
    "country_code": "IT",
    "latitude": "46.43452000",
    "longitude": "12.22230000",
    "native": null,
    "timezone": "Europe/Rome",
    "translations": {}
  },
  {
    "id": 136232,
    "name": "Bortolot",
    "state_id": 1689,
    "state_code": "BL",
    "country_id": 107,
    "country_code": "IT",
    "latitude": "46.38608000",
    "longitude": "12.17371000",
    "native": null,
    "timezone": "Europe/Rome",
    "translations": {}
  },
  {
    "id": 136487,
    "name": "Calalzo di Cadore",
    "state_id": 1689,
    "state_code": "BL",
    "country_id": 107,
    "country_code": "IT",
    "latitude": "46.44643000",
    "longitude": "12.38176000",
    "native": null,
    "timezone": "Europe/Rome",
    "translations": {}
  },
  {
    "id": 136689,
    "name": "Canale d'Agordo",
    "state_id": 1689,
    "state_code": "BL",
    "country_id": 107,
    "country_code": "IT",
    "latitude": "46.35693000",
    "longitude": "11.91429000",
    "native": null,
    "timezone": "Europe/Rome",
    "translations": {}
  },
  {
    "id": 136704,
    "name": "Candide",
    "state_id": 1689,
    "state_code": "BL",
    "country_id": 107,
    "country_code": "IT",
    "latitude": "46.58913000",
    "longitude": "12.51476000",
    "native": null,
    "timezone": "Europe/Rome",
    "translations": {}
  },
  {
    "id": 137362,
    "name": "Castion",
    "state_id": 1689,
    "state_code": "BL",
    "country_id": 107,
    "country_code": "IT",
    "latitude": "46.12147000",
    "longitude": "12.23507000",
    "native": null,
    "timezone": "Europe/Rome",
    "translations": {}
  },
  {
    "id": 137463,
    "name": "Celat-San Tomaso Agordino",
    "state_id": 1689,
    "state_code": "BL",
    "country_id": 107,
    "country_code": "IT",
    "latitude": "46.38072000",
    "longitude": "11.97439000",
    "native": null,
    "timezone": "Europe/Rome",
    "translations": {}
  },
  {
    "id": 137489,
    "name": "Cencenighe Agordino",
    "state_id": 1689,
    "state_code": "BL",
    "country_id": 107,
    "country_code": "IT",
    "latitude": "46.35184000",
    "longitude": "11.96823000",
    "native": null,
    "timezone": "Europe/Rome",
    "translations": {}
  },
  {
    "id": 137615,
    "name": "Cesiomaggiore",
    "state_id": 1689,
    "state_code": "BL",
    "country_id": 107,
    "country_code": "IT",
    "latitude": "46.08675000",
    "longitude": "11.98539000",
    "native": null,
    "timezone": "Europe/Rome",
    "translations": {}
  },
  {
    "id": 137706,
    "name": "Cibiana",
    "state_id": 1689,
    "state_code": "BL",
    "country_id": 107,
    "country_code": "IT",
    "latitude": "46.38856000",
    "longitude": "12.28658000",
    "native": null,
    "timezone": "Europe/Rome",
    "translations": {}
  },
  {
    "id": 137865,
    "name": "Colle Santa Lucia",
    "state_id": 1689,
    "state_code": "BL",
    "country_id": 107,
    "country_code": "IT",
    "latitude": "46.44852000",
    "longitude": "12.01399000",
    "native": null,
    "timezone": "Europe/Rome",
    "translations": {}
  },
  {
    "id": 138067,
    "name": "Cortina d'Ampezzo",
    "state_id": 1689,
    "state_code": "BL",
    "country_id": 107,
    "country_code": "IT",
    "latitude": "46.53690000",
    "longitude": "12.13903000",
    "native": null,
    "timezone": "Europe/Rome",
    "translations": {}
  },
  {
    "id": 138227,
    "name": "Danta",
    "state_id": 1689,
    "state_code": "BL",
    "country_id": 107,
    "country_code": "IT",
    "latitude": "46.56700000",
    "longitude": "12.52055000",
    "native": null,
    "timezone": "Europe/Rome",
    "translations": {}
  },
  {
    "id": 138289,
    "name": "Domegge di Cadore",
    "state_id": 1689,
    "state_code": "BL",
    "country_id": 107,
    "country_code": "IT",
    "latitude": "46.45666000",
    "longitude": "12.40724000",
    "native": null,
    "timezone": "Europe/Rome",
    "translations": {}
  },
  {
    "id": 138296,
    "name": "Don",
    "state_id": 1689,
    "state_code": "BL",
    "country_id": 107,
    "country_code": "IT",
    "latitude": "46.22144000",
    "longitude": "11.95598000",
    "native": null,
    "timezone": "Europe/Rome",
    "translations": {}
  },
  {
    "id": 138413,
    "name": "Falcade Alto",
    "state_id": 1689,
    "state_code": "BL",
    "country_id": 107,
    "country_code": "IT",
    "latitude": "46.35549000",
    "longitude": "11.85712000",
    "native": null,
    "timezone": "Europe/Rome",
    "translations": {}
  },
  {
    "id": 138451,
    "name": "Farra d'Alpago",
    "state_id": 1689,
    "state_code": "BL",
    "country_id": 107,
    "country_code": "IT",
    "latitude": "46.12079000",
    "longitude": "12.35876000",
    "native": null,
    "timezone": "Europe/Rome",
    "translations": {}
  },
  {
    "id": 138475,
    "name": "Feltre",
    "state_id": 1689,
    "state_code": "BL",
    "country_id": 107,
    "country_code": "IT",
    "latitude": "46.02085000",
    "longitude": "11.90031000",
    "native": null,
    "timezone": "Europe/Rome",
    "translations": {}
  },
  {
    "id": 138615,
    "name": "Fonzaso",
    "state_id": 1689,
    "state_code": "BL",
    "country_id": 107,
    "country_code": "IT",
    "latitude": "46.01640000",
    "longitude": "11.79897000",
    "native": null,
    "timezone": "Europe/Rome",
    "translations": {}
  },
  {
    "id": 138657,
    "name": "Forno di Zoldo",
    "state_id": 1689,
    "state_code": "BL",
    "country_id": 107,
    "country_code": "IT",
    "latitude": "46.35010000",
    "longitude": "12.17913000",
    "native": null,
    "timezone": "Europe/Rome",
    "translations": {}
  },
  {
    "id": 138763,
    "name": "Fusine",
    "state_id": 1689,
    "state_code": "BL",
    "country_id": 107,
    "country_code": "IT",
    "latitude": "46.37589000",
    "longitude": "12.12547000",
    "native": null,
    "timezone": "Europe/Rome",
    "translations": {}
  },
  {
    "id": 139043,
    "name": "Gosaldo",
    "state_id": 1689,
    "state_code": "BL",
    "country_id": 107,
    "country_code": "IT",
    "latitude": "46.22142000",
    "longitude": "11.95570000",
    "native": null,
    "timezone": "Europe/Rome",
    "translations": {}
  },
  {
    "id": 139308,
    "name": "La Valle Agordina",
    "state_id": 1689,
    "state_code": "BL",
    "country_id": 107,
    "country_code": "IT",
    "latitude": "46.28198000",
    "longitude": "12.06844000",
    "native": null,
    "timezone": "Europe/Rome",
    "translations": {}
  },
  {
    "id": 139347,
    "name": "Lamon",
    "state_id": 1689,
    "state_code": "BL",
    "country_id": 107,
    "country_code": "IT",
    "latitude": "46.04717000",
    "longitude": "11.74991000",
    "native": null,
    "timezone": "Europe/Rome",
    "translations": {}
  },
  {
    "id": 139348,
    "name": "Lamosano",
    "state_id": 1689,
    "state_code": "BL",
    "country_id": 107,
    "country_code": "IT",
    "latitude": "46.17276000",
    "longitude": "12.38691000",
    "native": null,
    "timezone": "Europe/Rome",
    "translations": {}
  },
  {
    "id": 139452,
    "name": "Lentiai",
    "state_id": 1689,
    "state_code": "BL",
    "country_id": 107,
    "country_code": "IT",
    "latitude": "46.04504000",
    "longitude": "12.02053000",
    "native": null,
    "timezone": "Europe/Rome",
    "translations": {}
  },
  {
    "id": 139515,
    "name": "Limana",
    "state_id": 1689,
    "state_code": "BL",
    "country_id": 107,
    "country_code": "IT",
    "latitude": "46.10039000",
    "longitude": "12.18552000",
    "native": null,
    "timezone": "Europe/Rome",
    "translations": {}
  },
  {
    "id": 139548,
    "name": "Livinallongo del Col di Lana",
    "state_id": 1689,
    "state_code": "BL",
    "country_id": 107,
    "country_code": "IT",
    "latitude": "46.48162000",
    "longitude": "11.95399000",
    "native": null,
    "timezone": "Europe/Rome",
    "translations": {}
  },
  {
    "id": 139591,
    "name": "Longarone",
    "state_id": 1689,
    "state_code": "BL",
    "country_id": 107,
    "country_code": "IT",
    "latitude": "46.26579000",
    "longitude": "12.29992000",
    "native": null,
    "timezone": "Europe/Rome",
    "translations": {}
  },
  {
    "id": 139606,
    "name": "Lorenzago di Cadore",
    "state_id": 1689,
    "state_code": "BL",
    "country_id": 107,
    "country_code": "IT",
    "latitude": "46.47954000",
    "longitude": "12.45984000",
    "native": null,
    "timezone": "Europe/Rome",
    "translations": {}
  },
  {
    "id": 139624,
    "name": "Lozzo di Cadore",
    "state_id": 1689,
    "state_code": "BL",
    "country_id": 107,
    "country_code": "IT",
    "latitude": "46.48644000",
    "longitude": "12.44493000",
    "native": null,
    "timezone": "Europe/Rome",
    "translations": {}
  },
  {
    "id": 140034,
    "name": "Mel",
    "state_id": 1689,
    "state_code": "BL",
    "country_id": 107,
    "country_code": "IT",
    "latitude": "46.06379000",
    "longitude": "12.09000000",
    "native": null,
    "timezone": "Europe/Rome",
    "translations": {}
  },
  {
    "id": 141022,
    "name": "Ospitale di Cadore",
    "state_id": 1689,
    "state_code": "BL",
    "country_id": 107,
    "country_code": "IT",
    "latitude": "46.32808000",
    "longitude": "12.32263000",
    "native": null,
    "timezone": "Europe/Rome",
    "translations": {}
  },
  {
    "id": 58377,
    "name": "Pedavena",
    "state_id": 1689,
    "state_code": "BL",
    "country_id": 107,
    "country_code": "IT",
    "latitude": "46.03951000",
    "longitude": "11.88310000",
    "native": null,
    "timezone": "Europe/Rome",
    "translations": {}
  },
  {
    "id": 58412,
    "name": "Perarolo di Cadore",
    "state_id": 1689,
    "state_code": "BL",
    "country_id": 107,
    "country_code": "IT",
    "latitude": "46.39383000",
    "longitude": "12.35636000",
    "native": null,
    "timezone": "Europe/Rome",
    "translations": {}
  },
  {
    "id": 58583,
    "name": "Pie' Falcade",
    "state_id": 1689,
    "state_code": "BL",
    "country_id": 107,
    "country_code": "IT",
    "latitude": "46.35660000",
    "longitude": "11.87207000",
    "native": null,
    "timezone": "Europe/Rome",
    "translations": {}
  },
  {
    "id": 58645,
    "name": "Pieve d'Alpago",
    "state_id": 1689,
    "state_code": "BL",
    "country_id": 107,
    "country_code": "IT",
    "latitude": "46.16658000",
    "longitude": "12.35344000",
    "native": null,
    "timezone": "Europe/Rome",
    "translations": {}
  },
  {
    "id": 58649,
    "name": "Pieve di Cadore",
    "state_id": 1689,
    "state_code": "BL",
    "country_id": 107,
    "country_code": "IT",
    "latitude": "46.42466000",
    "longitude": "12.36416000",
    "native": null,
    "timezone": "Europe/Rome",
    "translations": {}
  },
  {
    "id": 58860,
    "name": "Ponte nelle Alpi",
    "state_id": 1689,
    "state_code": "BL",
    "country_id": 107,
    "country_code": "IT",
    "latitude": "46.18083000",
    "longitude": "12.28333000",
    "native": null,
    "timezone": "Europe/Rome",
    "translations": {}
  },
  {
    "id": 58861,
    "name": "Ponte nelle Alpi-Polpet",
    "state_id": 1689,
    "state_code": "BL",
    "country_id": 107,
    "country_code": "IT",
    "latitude": "46.18833000",
    "longitude": "12.27833000",
    "native": null,
    "timezone": "Europe/Rome",
    "translations": {}
  },
  {
    "id": 59206,
    "name": "Puos d'Alpago",
    "state_id": 1689,
    "state_code": "BL",
    "country_id": 107,
    "country_code": "IT",
    "latitude": "46.14154000",
    "longitude": "12.36176000",
    "native": null,
    "timezone": "Europe/Rome",
    "translations": {}
  },
  {
    "id": 59425,
    "name": "Rivamonte Agordino",
    "state_id": 1689,
    "state_code": "BL",
    "country_id": 107,
    "country_code": "IT",
    "latitude": "46.25226000",
    "longitude": "12.02303000",
    "native": null,
    "timezone": "Europe/Rome",
    "translations": {}
  },
  {
    "id": 59474,
    "name": "Rocca Pietore",
    "state_id": 1689,
    "state_code": "BL",
    "country_id": 107,
    "country_code": "IT",
    "latitude": "46.43392000",
    "longitude": "11.97679000",
    "native": null,
    "timezone": "Europe/Rome",
    "translations": {}
  },
  {
    "id": 59719,
    "name": "Sachet",
    "state_id": 1689,
    "state_code": "BL",
    "country_id": 107,
    "country_code": "IT",
    "latitude": "46.36982000",
    "longitude": "11.93129000",
    "native": null,
    "timezone": "Europe/Rome",
    "translations": {}
  },
  {
    "id": 60025,
    "name": "San Gregorio nelle Alpi",
    "state_id": 1689,
    "state_code": "BL",
    "country_id": 107,
    "country_code": "IT",
    "latitude": "46.10391000",
    "longitude": "12.02670000",
    "native": null,
    "timezone": "Europe/Rome",
    "translations": {}
  },
  {
    "id": 60147,
    "name": "San Nicolò Comelico",
    "state_id": 1689,
    "state_code": "BL",
    "country_id": 107,
    "country_code": "IT",
    "latitude": "46.58253000",
    "longitude": "12.52730000",
    "native": null,
    "timezone": "Europe/Rome",
    "translations": {}
  },
  {
    "id": 60191,
    "name": "San Pietro di Cadore",
    "state_id": 1689,
    "state_code": "BL",
    "country_id": 107,
    "country_code": "IT",
    "latitude": "46.57190000",
    "longitude": "12.58690000",
    "native": null,
    "timezone": "Europe/Rome",
    "translations": {}
  },
  {
    "id": 60440,
    "name": "Santa Giustina",
    "state_id": 1689,
    "state_code": "BL",
    "country_id": 107,
    "country_code": "IT",
    "latitude": "46.08118000",
    "longitude": "12.03822000",
    "native": null,
    "timezone": "Europe/Rome",
    "translations": {}
  },
  {
    "id": 60520,
    "name": "Santo Stefano di Cadore",
    "state_id": 1689,
    "state_code": "BL",
    "country_id": 107,
    "country_code": "IT",
    "latitude": "46.55827000",
    "longitude": "12.54956000",
    "native": null,
    "timezone": "Europe/Rome",
    "translations": {}
  },
  {
    "id": 60681,
    "name": "Sedico",
    "state_id": 1689,
    "state_code": "BL",
    "country_id": 107,
    "country_code": "IT",
    "latitude": "46.10563000",
    "longitude": "12.09330000",
    "native": null,
    "timezone": "Europe/Rome",
    "translations": {}
  },
  {
    "id": 60707,
    "name": "Selva di Cadore",
    "state_id": 1689,
    "state_code": "BL",
    "country_id": 107,
    "country_code": "IT",
    "latitude": "46.45028000",
    "longitude": "12.05694000",
    "native": null,
    "timezone": "Europe/Rome",
    "translations": {}
  },
  {
    "id": 60738,
    "name": "Seren del Grappa",
    "state_id": 1689,
    "state_code": "BL",
    "country_id": 107,
    "country_code": "IT",
    "latitude": "45.99594000",
    "longitude": "11.85624000",
    "native": null,
    "timezone": "Europe/Rome",
    "translations": {}
  },
  {
    "id": 60787,
    "name": "Servo",
    "state_id": 1689,
    "state_code": "BL",
    "country_id": 107,
    "country_code": "IT",
    "latitude": "46.05844000",
    "longitude": "11.78657000",
    "native": null,
    "timezone": "Europe/Rome",
    "translations": {}
  },
  {
    "id": 60893,
    "name": "Soccher-Paiane-Casan-Arsie",
    "state_id": 1689,
    "state_code": "BL",
    "country_id": 107,
    "country_code": "IT",
    "latitude": "46.18120000",
    "longitude": "12.31001000",
    "native": null,
    "timezone": "Europe/Rome",
    "translations": {}
  },
  {
    "id": 60970,
    "name": "Sospirolo",
    "state_id": 1689,
    "state_code": "BL",
    "country_id": 107,
    "country_code": "IT",
    "latitude": "46.14134000",
    "longitude": "12.07365000",
    "native": null,
    "timezone": "Europe/Rome",
    "translations": {}
  },
  {
    "id": 60982,
    "name": "Soverzene",
    "state_id": 1689,
    "state_code": "BL",
    "country_id": 107,
    "country_code": "IT",
    "latitude": "46.20331000",
    "longitude": "12.30301000",
    "native": null,
    "timezone": "Europe/Rome",
    "translations": {}
  },
  {
    "id": 60986,
    "name": "Sovramonte",
    "state_id": 1689,
    "state_code": "BL",
    "country_id": 107,
    "country_code": "IT",
    "latitude": "46.05861000",
    "longitude": "11.78660000",
    "native": null,
    "timezone": "Europe/Rome",
    "translations": {}
  },
  {
    "id": 61147,
    "name": "Taibon Agordino",
    "state_id": 1689,
    "state_code": "BL",
    "country_id": 107,
    "country_code": "IT",
    "latitude": "46.29838000",
    "longitude": "12.01312000",
    "native": null,
    "timezone": "Europe/Rome",
    "translations": {}
  },
  {
    "id": 61159,
    "name": "Tambre",
    "state_id": 1689,
    "state_code": "BL",
    "country_id": 107,
    "country_code": "IT",
    "latitude": "46.12632000",
    "longitude": "12.41941000",
    "native": null,
    "timezone": "Europe/Rome",
    "translations": {}
  },
  {
    "id": 61522,
    "name": "Trichiana",
    "state_id": 1689,
    "state_code": "BL",
    "country_id": 107,
    "country_code": "IT",
    "latitude": "46.08130000",
    "longitude": "12.14091000",
    "native": null,
    "timezone": "Europe/Rome",
    "translations": {}
  },
  {
    "id": 61680,
    "name": "Vallada Agordina",
    "state_id": 1689,
    "state_code": "BL",
    "country_id": 107,
    "country_code": "IT",
    "latitude": "46.36442000",
    "longitude": "11.93399000",
    "native": null,
    "timezone": "Europe/Rome",
    "translations": {}
  },
  {
    "id": 61696,
    "name": "Valle di Cadore",
    "state_id": 1689,
    "state_code": "BL",
    "country_id": 107,
    "country_code": "IT",
    "latitude": "46.41806000",
    "longitude": "12.33431000",
    "native": null,
    "timezone": "Europe/Rome",
    "translations": {}
  },
  {
    "id": 61967,
    "name": "Vigo di Cadore",
    "state_id": 1689,
    "state_code": "BL",
    "country_id": 107,
    "country_code": "IT",
    "latitude": "46.49904000",
    "longitude": "12.47111000",
    "native": null,
    "timezone": "Europe/Rome",
    "translations": {}
  },
  {
    "id": 62048,
    "name": "Villabruna-Umin",
    "state_id": 1689,
    "state_code": "BL",
    "country_id": 107,
    "country_code": "IT",
    "latitude": "46.05675000",
    "longitude": "11.92700000",
    "native": null,
    "timezone": "Europe/Rome",
    "translations": {}
  },
  {
    "id": 62200,
    "name": "Vodo",
    "state_id": 1689,
    "state_code": "BL",
    "country_id": 107,
    "country_code": "IT",
    "latitude": "46.41921000",
    "longitude": "12.24557000",
    "native": null,
    "timezone": "Europe/Rome",
    "translations": {}
  },
  {
    "id": 62215,
    "name": "Voltago",
    "state_id": 1689,
    "state_code": "BL",
    "country_id": 107,
    "country_code": "IT",
    "latitude": "46.27252000",
    "longitude": "12.00640000",
    "native": null,
    "timezone": "Europe/Rome",
    "translations": {}
  },
  {
    "id": 62216,
    "name": "Voltago Agordino",
    "state_id": 1689,
    "state_code": "BL",
    "country_id": 107,
    "country_code": "IT",
    "latitude": "46.27139000",
    "longitude": "12.00574000",
    "native": null,
    "timezone": "Europe/Rome",
    "translations": {}
  },
  {
    "id": 62275,
    "name": "Zoppè di Cadore",
    "state_id": 1689,
    "state_code": "BL",
    "country_id": 107,
    "country_code": "IT",
    "latitude": "46.38583000",
    "longitude": "12.17368000",
    "native": null,
    "timezone": "Europe/Rome",
    "translations": {}
  }
]