[
  {
    "id": 135361,
    "name": "Albavilla",
    "state_id": 1740,
    "state_code": "CO",
    "country_id": 107,
    "country_code": "IT",
    "latitude": "45.80038000",
    "longitude": "9.18504000",
    "native": null,
    "timezone": "Europe/Rome",
    "translations": {}
  },
  {
    "id": 135367,
    "name": "Albese Con Cassano",
    "state_id": 1740,
    "state_code": "CO",
    "country_id": 107,
    "country_code": "IT",
    "latitude": "45.79488000",
    "longitude": "9.16364000",
    "native": null,
    "timezone": "Europe/Rome",
    "translations": {}
  },
  {
    "id": 135380,
    "name": "Albiolo",
    "state_id": 1740,
    "state_code": "CO",
    "country_id": 107,
    "country_code": "IT",
    "latitude": "45.80558000",
    "longitude": "8.93924000",
    "native": null,
    "timezone": "Europe/Rome",
    "translations": {}
  },
  {
    "id": 135429,
    "name": "Alserio",
    "state_id": 1740,
    "state_code": "CO",
    "country_id": 107,
    "country_code": "IT",
    "latitude": "45.77888000",
    "longitude": "9.20014000",
    "native": null,
    "timezone": "Europe/Rome",
    "translations": {}
  },
  {
    "id": 135452,
    "name": "Alzate Brianza",
    "state_id": 1740,
    "state_code": "CO",
    "country_id": 107,
    "country_code": "IT",
    "latitude": "45.76978000",
    "longitude": "9.18204000",
    "native": null,
    "timezone": "Europe/Rome",
    "translations": {}
  },
  {
    "id": 135524,
    "name": "Anzano del Parco",
    "state_id": 1740,
    "state_code": "CO",
    "country_id": 107,
    "country_code": "IT",
    "latitude": "45.77006000",
    "longitude": "9.19752000",
    "native": null,
    "timezone": "Europe/Rome",
    "translations": {}
  },
  {
    "id": 135535,
    "name": "Appiano Gentile",
    "state_id": 1740,
    "state_code": "CO",
    "country_id": 107,
    "country_code": "IT",
    "latitude": "45.73499000",
    "longitude": "8.98103000",
    "native": null,
    "timezone": "Europe/Rome",
    "translations": {}
  },
  {
    "id": 135591,
    "name": "Argegno",
    "state_id": 1740,
    "state_code": "CO",
    "country_id": 107,
    "country_code": "IT",
    "latitude": "45.94218000",
    "longitude": "9.12635000",
    "native": null,
    "timezone": "Europe/Rome",
    "translations": {}
  },
  {
    "id": 135625,
    "name": "Arosio",
    "state_id": 1740,
    "state_code": "CO",
    "country_id": 107,
    "country_code": "IT",
    "latitude": "45.71933000",
    "longitude": "9.20816000",
    "native": null,
    "timezone": "Europe/Rome",
    "translations": {}
  },
  {
    "id": 135667,
    "name": "Asso",
    "state_id": 1740,
    "state_code": "CO",
    "country_id": 107,
    "country_code": "IT",
    "latitude": "45.86061000",
    "longitude": "9.26730000",
    "native": null,
    "timezone": "Europe/Rome",
    "translations": {}
  },
  {
    "id": 135692,
    "name": "Aurogna",
    "state_id": 1740,
    "state_code": "CO",
    "country_id": 107,
    "country_code": "IT",
    "latitude": "46.17147000",
    "longitude": "9.35536000",
    "native": null,
    "timezone": "Europe/Rome",
    "translations": {}
  },
  {
    "id": 135720,
    "name": "Azzano",
    "state_id": 1740,
    "state_code": "CO",
    "country_id": 107,
    "country_code": "IT",
    "latitude": "45.98096000",
    "longitude": "9.20284000",
    "native": null,
    "timezone": "Europe/Rome",
    "translations": {}
  },
  {
    "id": 135861,
    "name": "Barni",
    "state_id": 1740,
    "state_code": "CO",
    "country_id": 107,
    "country_code": "IT",
    "latitude": "45.91111000",
    "longitude": "9.26592000",
    "native": null,
    "timezone": "Europe/Rome",
    "translations": {}
  },
  {
    "id": 135936,
    "name": "Bellagio",
    "state_id": 1740,
    "state_code": "CO",
    "country_id": 107,
    "country_code": "IT",
    "latitude": "45.98772000",
    "longitude": "9.26182000",
    "native": null,
    "timezone": "Europe/Rome",
    "translations": {}
  },
  {
    "id": 135971,
    "name": "Bene Lario",
    "state_id": 1740,
    "state_code": "CO",
    "country_id": 107,
    "country_code": "IT",
    "latitude": "46.02898000",
    "longitude": "9.18414000",
    "native": null,
    "timezone": "Europe/Rome",
    "translations": {}
  },
  {
    "id": 135983,
    "name": "Beregazzo",
    "state_id": 1740,
    "state_code": "CO",
    "country_id": 107,
    "country_code": "IT",
    "latitude": "45.77019000",
    "longitude": "8.95869000",
    "native": null,
    "timezone": "Europe/Rome",
    "translations": {}
  },
  {
    "id": 135984,
    "name": "Beregazzo con Figliaro",
    "state_id": 1740,
    "state_code": "CO",
    "country_id": 107,
    "country_code": "IT",
    "latitude": "45.78068000",
    "longitude": "8.94414000",
    "native": null,
    "timezone": "Europe/Rome",
    "translations": {}
  },
  {
    "id": 136051,
    "name": "Binago",
    "state_id": 1740,
    "state_code": "CO",
    "country_id": 107,
    "country_code": "IT",
    "latitude": "45.78218000",
    "longitude": "8.92234000",
    "native": null,
    "timezone": "Europe/Rome",
    "translations": {}
  },
  {
    "id": 136077,
    "name": "Bizzarone",
    "state_id": 1740,
    "state_code": "CO",
    "country_id": 107,
    "country_code": "IT",
    "latitude": "45.83428000",
    "longitude": "8.94274000",
    "native": null,
    "timezone": "Europe/Rome",
    "translations": {}
  },
  {
    "id": 136081,
    "name": "Blessagno",
    "state_id": 1740,
    "state_code": "CO",
    "country_id": 107,
    "country_code": "IT",
    "latitude": "45.95908000",
    "longitude": "9.09754000",
    "native": null,
    "timezone": "Europe/Rome",
    "translations": {}
  },
  {
    "id": 136082,
    "name": "Blevio",
    "state_id": 1740,
    "state_code": "CO",
    "country_id": 107,
    "country_code": "IT",
    "latitude": "45.84218000",
    "longitude": "9.10514000",
    "native": null,
    "timezone": "Europe/Rome",
    "translations": {}
  },
  {
    "id": 136295,
    "name": "Bregnano",
    "state_id": 1740,
    "state_code": "CO",
    "country_id": 107,
    "country_code": "IT",
    "latitude": "45.69778000",
    "longitude": "9.05934000",
    "native": null,
    "timezone": "Europe/Rome",
    "translations": {}
  },
  {
    "id": 136304,
    "name": "Brenna",
    "state_id": 1740,
    "state_code": "CO",
    "country_id": 107,
    "country_code": "IT",
    "latitude": "45.74338000",
    "longitude": "9.18657000",
    "native": null,
    "timezone": "Europe/Rome",
    "translations": {}
  },
  {
    "id": 136328,
    "name": "Brienno",
    "state_id": 1740,
    "state_code": "CO",
    "country_id": 107,
    "country_code": "IT",
    "latitude": "45.91175000",
    "longitude": "9.13142000",
    "native": null,
    "timezone": "Europe/Rome",
    "translations": {}
  },
  {
    "id": 136369,
    "name": "Brunate",
    "state_id": 1740,
    "state_code": "CO",
    "country_id": 107,
    "country_code": "IT",
    "latitude": "45.82096000",
    "longitude": "9.09869000",
    "native": null,
    "timezone": "Europe/Rome",
    "translations": {}
  },
  {
    "id": 136401,
    "name": "Bulgarograsso",
    "state_id": 1740,
    "state_code": "CO",
    "country_id": 107,
    "country_code": "IT",
    "latitude": "45.74708000",
    "longitude": "9.00644000",
    "native": null,
    "timezone": "Europe/Rome",
    "translations": {}
  },
  {
    "id": 136402,
    "name": "Bulgorello",
    "state_id": 1740,
    "state_code": "CO",
    "country_id": 107,
    "country_code": "IT",
    "latitude": "45.72433000",
    "longitude": "9.05524000",
    "native": null,
    "timezone": "Europe/Rome",
    "translations": {}
  },
  {
    "id": 136449,
    "name": "Cabiate",
    "state_id": 1740,
    "state_code": "CO",
    "country_id": 107,
    "country_code": "IT",
    "latitude": "45.67418000",
    "longitude": "9.17374000",
    "native": null,
    "timezone": "Europe/Rome",
    "translations": {}
  },
  {
    "id": 136456,
    "name": "Cadenabbia",
    "state_id": 1740,
    "state_code": "CO",
    "country_id": 107,
    "country_code": "IT",
    "latitude": "45.98861000",
    "longitude": "9.23615000",
    "native": null,
    "timezone": "Europe/Rome",
    "translations": {}
  },
  {
    "id": 136461,
    "name": "Cadorago-Caslino al Piano",
    "state_id": 1740,
    "state_code": "CO",
    "country_id": 107,
    "country_code": "IT",
    "latitude": "45.72728000",
    "longitude": "9.03784000",
    "native": null,
    "timezone": "Europe/Rome",
    "translations": {}
  },
  {
    "id": 136469,
    "name": "Caglio",
    "state_id": 1740,
    "state_code": "CO",
    "country_id": 107,
    "country_code": "IT",
    "latitude": "45.87146000",
    "longitude": "9.23719000",
    "native": null,
    "timezone": "Europe/Rome",
    "translations": {}
  },
  {
    "id": 136472,
    "name": "Cagno",
    "state_id": 1740,
    "state_code": "CO",
    "country_id": 107,
    "country_code": "IT",
    "latitude": "45.81108000",
    "longitude": "8.91733000",
    "native": null,
    "timezone": "Europe/Rome",
    "translations": {}
  },
  {
    "id": 136539,
    "name": "Calozzo",
    "state_id": 1740,
    "state_code": "CO",
    "country_id": 107,
    "country_code": "IT",
    "latitude": "46.10055000",
    "longitude": "9.27531000",
    "native": null,
    "timezone": "Europe/Rome",
    "translations": {}
  },
  {
    "id": 136595,
    "name": "Camnago-Boscone",
    "state_id": 1740,
    "state_code": "CO",
    "country_id": 107,
    "country_code": "IT",
    "latitude": "45.80472000",
    "longitude": "8.97934000",
    "native": null,
    "timezone": "Europe/Rome",
    "translations": {}
  },
  {
    "id": 136751,
    "name": "Cantù",
    "state_id": 1740,
    "state_code": "CO",
    "country_id": 107,
    "country_code": "IT",
    "latitude": "45.74096000",
    "longitude": "9.13084000",
    "native": null,
    "timezone": "Europe/Rome",
    "translations": {}
  },
  {
    "id": 136753,
    "name": "Canzo",
    "state_id": 1740,
    "state_code": "CO",
    "country_id": 107,
    "country_code": "IT",
    "latitude": "45.84867000",
    "longitude": "9.27063000",
    "native": null,
    "timezone": "Europe/Rome",
    "translations": {}
  },
  {
    "id": 136768,
    "name": "Capiago-Intimiano-Olmeda",
    "state_id": 1740,
    "state_code": "CO",
    "country_id": 107,
    "country_code": "IT",
    "latitude": "45.76898000",
    "longitude": "9.12764000",
    "native": null,
    "timezone": "Europe/Rome",
    "translations": {}
  },
  {
    "id": 136839,
    "name": "Carate Urio",
    "state_id": 1740,
    "state_code": "CO",
    "country_id": 107,
    "country_code": "IT",
    "latitude": "45.87178000",
    "longitude": "9.12214000",
    "native": null,
    "timezone": "Europe/Rome",
    "translations": {}
  },
  {
    "id": 136849,
    "name": "Carbonate",
    "state_id": 1740,
    "state_code": "CO",
    "country_id": 107,
    "country_code": "IT",
    "latitude": "45.68507000",
    "longitude": "8.93814000",
    "native": null,
    "timezone": "Europe/Rome",
    "translations": {}
  },
  {
    "id": 136878,
    "name": "Carimate",
    "state_id": 1740,
    "state_code": "CO",
    "country_id": 107,
    "country_code": "IT",
    "latitude": "45.70659000",
    "longitude": "9.10751000",
    "native": null,
    "timezone": "Europe/Rome",
    "translations": {}
  },
  {
    "id": 136885,
    "name": "Carlazzo",
    "state_id": 1740,
    "state_code": "CO",
    "country_id": 107,
    "country_code": "IT",
    "latitude": "46.04222000",
    "longitude": "9.16498000",
    "native": null,
    "timezone": "Europe/Rome",
    "translations": {}
  },
  {
    "id": 136944,
    "name": "Carugo",
    "state_id": 1740,
    "state_code": "CO",
    "country_id": 107,
    "country_code": "IT",
    "latitude": "45.70848000",
    "longitude": "9.19684000",
    "native": null,
    "timezone": "Europe/Rome",
    "translations": {}
  },
  {
    "id": 137037,
    "name": "Casasco Intelvi",
    "state_id": 1740,
    "state_code": "CO",
    "country_id": 107,
    "country_code": "IT",
    "latitude": "45.94368000",
    "longitude": "9.07574000",
    "native": null,
    "timezone": "Europe/Rome",
    "translations": {}
  },
  {
    "id": 137074,
    "name": "Caslino d'Erba",
    "state_id": 1740,
    "state_code": "CO",
    "country_id": 107,
    "country_code": "IT",
    "latitude": "45.83899000",
    "longitude": "9.22554000",
    "native": null,
    "timezone": "Europe/Rome",
    "translations": {}
  },
  {
    "id": 137075,
    "name": "Casnate Con Bernate",
    "state_id": 1740,
    "state_code": "CO",
    "country_id": 107,
    "country_code": "IT",
    "latitude": "45.75628000",
    "longitude": "9.07264000",
    "native": null,
    "timezone": "Europe/Rome",
    "translations": {}
  },
  {
    "id": 137105,
    "name": "Cassina Rizzardi",
    "state_id": 1740,
    "state_code": "CO",
    "country_id": 107,
    "country_code": "IT",
    "latitude": "45.75228000",
    "longitude": "9.02454000",
    "native": null,
    "timezone": "Europe/Rome",
    "translations": {}
  },
  {
    "id": 137269,
    "name": "Castelmarte",
    "state_id": 1740,
    "state_code": "CO",
    "country_id": 107,
    "country_code": "IT",
    "latitude": "45.83238000",
    "longitude": "9.23304000",
    "native": null,
    "timezone": "Europe/Rome",
    "translations": {}
  },
  {
    "id": 137286,
    "name": "Castelnuovo Bozzente",
    "state_id": 1740,
    "state_code": "CO",
    "country_id": 107,
    "country_code": "IT",
    "latitude": "45.76458000",
    "longitude": "8.94354000",
    "native": null,
    "timezone": "Europe/Rome",
    "translations": {}
  },
  {
    "id": 137349,
    "name": "Castiglione d'Intelvi",
    "state_id": 1740,
    "state_code": "CO",
    "country_id": 107,
    "country_code": "IT",
    "latitude": "45.95751000",
    "longitude": "9.08987000",
    "native": null,
    "timezone": "Europe/Rome",
    "translations": {}
  },
  {
    "id": 137414,
    "name": "Cavallasca",
    "state_id": 1740,
    "state_code": "CO",
    "country_id": 107,
    "country_code": "IT",
    "latitude": "45.80958000",
    "longitude": "9.03284000",
    "native": null,
    "timezone": "Europe/Rome",
    "translations": {}
  },
  {
    "id": 137422,
    "name": "Cavargna",
    "state_id": 1740,
    "state_code": "CO",
    "country_id": 107,
    "country_code": "IT",
    "latitude": "46.09068000",
    "longitude": "9.11205000",
    "native": null,
    "timezone": "Europe/Rome",
    "translations": {}
  },
  {
    "id": 137515,
    "name": "Cerano d'Intelvi",
    "state_id": 1740,
    "state_code": "CO",
    "country_id": 107,
    "country_code": "IT",
    "latitude": "45.94447000",
    "longitude": "9.08767000",
    "native": null,
    "timezone": "Europe/Rome",
    "translations": {}
  },
  {
    "id": 137553,
    "name": "Cermenate",
    "state_id": 1740,
    "state_code": "CO",
    "country_id": 107,
    "country_code": "IT",
    "latitude": "45.70198000",
    "longitude": "9.08361000",
    "native": null,
    "timezone": "Europe/Rome",
    "translations": {}
  },
  {
    "id": 137556,
    "name": "Cernobbio",
    "state_id": 1740,
    "state_code": "CO",
    "country_id": 107,
    "country_code": "IT",
    "latitude": "45.84307000",
    "longitude": "9.07194000",
    "native": null,
    "timezone": "Europe/Rome",
    "translations": {}
  },
  {
    "id": 137748,
    "name": "Cirimido",
    "state_id": 1740,
    "state_code": "CO",
    "country_id": 107,
    "country_code": "IT",
    "latitude": "45.69978000",
    "longitude": "9.01254000",
    "native": null,
    "timezone": "Europe/Rome",
    "translations": {}
  },
  {
    "id": 137834,
    "name": "Codogna-Cardano",
    "state_id": 1740,
    "state_code": "CO",
    "country_id": 107,
    "country_code": "IT",
    "latitude": "46.02769000",
    "longitude": "9.20992000",
    "native": null,
    "timezone": "Europe/Rome",
    "translations": {}
  },
  {
    "id": 137852,
    "name": "Colico Piano",
    "state_id": 1740,
    "state_code": "CO",
    "country_id": 107,
    "country_code": "IT",
    "latitude": "46.13205000",
    "longitude": "9.37714000",
    "native": null,
    "timezone": "Europe/Rome",
    "translations": {}
  },
  {
    "id": 137924,
    "name": "Colonno",
    "state_id": 1740,
    "state_code": "CO",
    "country_id": 107,
    "country_code": "IT",
    "latitude": "45.95768000",
    "longitude": "9.15294000",
    "native": null,
    "timezone": "Europe/Rome",
    "translations": {}
  },
  {
    "id": 137947,
    "name": "Como",
    "state_id": 1740,
    "state_code": "CO",
    "country_id": 107,
    "country_code": "IT",
    "latitude": "45.80819000",
    "longitude": "9.08320000",
    "native": null,
    "timezone": "Europe/Rome",
    "translations": {}
  },
  {
    "id": 137976,
    "name": "Consiglio di Rumo",
    "state_id": 1740,
    "state_code": "CO",
    "country_id": 107,
    "country_code": "IT",
    "latitude": "46.14299000",
    "longitude": "9.29334000",
    "native": null,
    "timezone": "Europe/Rome",
    "translations": {}
  },
  {
    "id": 138031,
    "name": "Corneno-Galliano-Carella Mariaga",
    "state_id": 1740,
    "state_code": "CO",
    "country_id": 107,
    "country_code": "IT",
    "latitude": "45.81667000",
    "longitude": "9.26667000",
    "native": null,
    "timezone": "Europe/Rome",
    "translations": {}
  },
  {
    "id": 138042,
    "name": "Corrido",
    "state_id": 1740,
    "state_code": "CO",
    "country_id": 107,
    "country_code": "IT",
    "latitude": "46.04758000",
    "longitude": "9.13554000",
    "native": null,
    "timezone": "Europe/Rome",
    "translations": {}
  },
  {
    "id": 138136,
    "name": "Cremia",
    "state_id": 1740,
    "state_code": "CO",
    "country_id": 107,
    "country_code": "IT",
    "latitude": "46.08649000",
    "longitude": "9.27114000",
    "native": null,
    "timezone": "Europe/Rome",
    "translations": {}
  },
  {
    "id": 138180,
    "name": "Cucciago",
    "state_id": 1740,
    "state_code": "CO",
    "country_id": 107,
    "country_code": "IT",
    "latitude": "45.73928000",
    "longitude": "9.09294000",
    "native": null,
    "timezone": "Europe/Rome",
    "translations": {}
  },
  {
    "id": 138214,
    "name": "Cusino",
    "state_id": 1740,
    "state_code": "CO",
    "country_id": 107,
    "country_code": "IT",
    "latitude": "46.07489000",
    "longitude": "9.15264000",
    "native": null,
    "timezone": "Europe/Rome",
    "translations": {}
  },
  {
    "id": 138272,
    "name": "Dizzasco-Biazzeno",
    "state_id": 1740,
    "state_code": "CO",
    "country_id": 107,
    "country_code": "IT",
    "latitude": "45.94378000",
    "longitude": "9.09974000",
    "native": null,
    "timezone": "Europe/Rome",
    "translations": {}
  },
  {
    "id": 138288,
    "name": "Domaso",
    "state_id": 1740,
    "state_code": "CO",
    "country_id": 107,
    "country_code": "IT",
    "latitude": "46.15284000",
    "longitude": "9.33150000",
    "native": null,
    "timezone": "Europe/Rome",
    "translations": {}
  },
  {
    "id": 138298,
    "name": "Dongo",
    "state_id": 1740,
    "state_code": "CO",
    "country_id": 107,
    "country_code": "IT",
    "latitude": "46.12999000",
    "longitude": "9.28169000",
    "native": null,
    "timezone": "Europe/Rome",
    "translations": {}
  },
  {
    "id": 138317,
    "name": "Dosso del Liro",
    "state_id": 1740,
    "state_code": "CO",
    "country_id": 107,
    "country_code": "IT",
    "latitude": "46.16399000",
    "longitude": "9.27294000",
    "native": null,
    "timezone": "Europe/Rome",
    "translations": {}
  },
  {
    "id": 138367,
    "name": "Erba",
    "state_id": 1740,
    "state_code": "CO",
    "country_id": 107,
    "country_code": "IT",
    "latitude": "45.80880000",
    "longitude": "9.22609000",
    "native": null,
    "timezone": "Europe/Rome",
    "translations": {}
  },
  {
    "id": 138406,
    "name": "Faggeto Lario",
    "state_id": 1740,
    "state_code": "CO",
    "country_id": 107,
    "country_code": "IT",
    "latitude": "45.85878000",
    "longitude": "9.15894000",
    "native": null,
    "timezone": "Europe/Rome",
    "translations": {}
  },
  {
    "id": 138424,
    "name": "Faloppio",
    "state_id": 1740,
    "state_code": "CO",
    "country_id": 107,
    "country_code": "IT",
    "latitude": "45.80968000",
    "longitude": "8.96434000",
    "native": null,
    "timezone": "Europe/Rome",
    "translations": {}
  },
  {
    "id": 138476,
    "name": "Fenegrò",
    "state_id": 1740,
    "state_code": "CO",
    "country_id": 107,
    "country_code": "IT",
    "latitude": "45.70157000",
    "longitude": "8.99964000",
    "native": null,
    "timezone": "Europe/Rome",
    "translations": {}
  },
  {
    "id": 138517,
    "name": "Figino Serenza",
    "state_id": 1740,
    "state_code": "CO",
    "country_id": 107,
    "country_code": "IT",
    "latitude": "45.71048000",
    "longitude": "9.13114000",
    "native": null,
    "timezone": "Europe/Rome",
    "translations": {}
  },
  {
    "id": 138518,
    "name": "Figliaro",
    "state_id": 1740,
    "state_code": "CO",
    "country_id": 107,
    "country_code": "IT",
    "latitude": "45.77992000",
    "longitude": "8.94466000",
    "native": null,
    "timezone": "Europe/Rome",
    "translations": {}
  },
  {
    "id": 138537,
    "name": "Fino Mornasco",
    "state_id": 1740,
    "state_code": "CO",
    "country_id": 107,
    "country_code": "IT",
    "latitude": "45.74290000",
    "longitude": "9.04996000",
    "native": null,
    "timezone": "Europe/Rome",
    "translations": {}
  },
  {
    "id": 138777,
    "name": "Gaggino",
    "state_id": 1740,
    "state_code": "CO",
    "country_id": 107,
    "country_code": "IT",
    "latitude": "45.80787000",
    "longitude": "8.96427000",
    "native": null,
    "timezone": "Europe/Rome",
    "translations": {}
  },
  {
    "id": 138862,
    "name": "Garzeno",
    "state_id": 1740,
    "state_code": "CO",
    "country_id": 107,
    "country_code": "IT",
    "latitude": "46.13409000",
    "longitude": "9.24964000",
    "native": null,
    "timezone": "Europe/Rome",
    "translations": {}
  },
  {
    "id": 138906,
    "name": "Gera Lario",
    "state_id": 1740,
    "state_code": "CO",
    "country_id": 107,
    "country_code": "IT",
    "latitude": "46.17003000",
    "longitude": "9.36736000",
    "native": null,
    "timezone": "Europe/Rome",
    "translations": {}
  },
  {
    "id": 138984,
    "name": "Gironico al Piano",
    "state_id": 1740,
    "state_code": "CO",
    "country_id": 107,
    "country_code": "IT",
    "latitude": "45.80138000",
    "longitude": "9.00314000",
    "native": null,
    "timezone": "Europe/Rome",
    "translations": {}
  },
  {
    "id": 139064,
    "name": "Grandate",
    "state_id": 1740,
    "state_code": "CO",
    "country_id": 107,
    "country_code": "IT",
    "latitude": "45.76715000",
    "longitude": "9.05349000",
    "native": null,
    "timezone": "Europe/Rome",
    "translations": {}
  },
  {
    "id": 139065,
    "name": "Grandola ed Uniti",
    "state_id": 1740,
    "state_code": "CO",
    "country_id": 107,
    "country_code": "IT",
    "latitude": "46.02488000",
    "longitude": "9.21274000",
    "native": null,
    "timezone": "Europe/Rome",
    "translations": {}
  },
  {
    "id": 139078,
    "name": "Gravedona-San Gregorio",
    "state_id": 1740,
    "state_code": "CO",
    "country_id": 107,
    "country_code": "IT",
    "latitude": "46.14639000",
    "longitude": "9.30094000",
    "native": null,
    "timezone": "Europe/Rome",
    "translations": {}
  },
  {
    "id": 139095,
    "name": "Griante",
    "state_id": 1740,
    "state_code": "CO",
    "country_id": 107,
    "country_code": "IT",
    "latitude": "45.99528000",
    "longitude": "9.23554000",
    "native": null,
    "timezone": "Europe/Rome",
    "translations": {}
  },
  {
    "id": 139151,
    "name": "Guanzate",
    "state_id": 1740,
    "state_code": "CO",
    "country_id": 107,
    "country_code": "IT",
    "latitude": "45.72758000",
    "longitude": "9.01984000",
    "native": null,
    "timezone": "Europe/Rome",
    "translations": {}
  },
  {
    "id": 139214,
    "name": "Inverigo",
    "state_id": 1740,
    "state_code": "CO",
    "country_id": 107,
    "country_code": "IT",
    "latitude": "45.73795000",
    "longitude": "9.21836000",
    "native": null,
    "timezone": "Europe/Rome",
    "translations": {}
  },
  {
    "id": 139324,
    "name": "Laglio",
    "state_id": 1740,
    "state_code": "CO",
    "country_id": 107,
    "country_code": "IT",
    "latitude": "45.88056000",
    "longitude": "9.13697000",
    "native": null,
    "timezone": "Europe/Rome",
    "translations": {}
  },
  {
    "id": 139332,
    "name": "Laino",
    "state_id": 1740,
    "state_code": "CO",
    "country_id": 107,
    "country_code": "IT",
    "latitude": "45.98448000",
    "longitude": "9.07544000",
    "native": null,
    "timezone": "Europe/Rome",
    "translations": {}
  },
  {
    "id": 139343,
    "name": "Lambrugo",
    "state_id": 1740,
    "state_code": "CO",
    "country_id": 107,
    "country_code": "IT",
    "latitude": "45.75878000",
    "longitude": "9.23954000",
    "native": null,
    "timezone": "Europe/Rome",
    "translations": {}
  },
  {
    "id": 139366,
    "name": "Lanzo d'Intelvi",
    "state_id": 1740,
    "state_code": "CO",
    "country_id": 107,
    "country_code": "IT",
    "latitude": "45.97943000",
    "longitude": "9.02166000",
    "native": null,
    "timezone": "Europe/Rome",
    "translations": {}
  },
  {
    "id": 139382,
    "name": "Lasnigo",
    "state_id": 1740,
    "state_code": "CO",
    "country_id": 107,
    "country_code": "IT",
    "latitude": "45.88198000",
    "longitude": "9.26644000",
    "native": null,
    "timezone": "Europe/Rome",
    "translations": {}
  },
  {
    "id": 139442,
    "name": "Lemna",
    "state_id": 1740,
    "state_code": "CO",
    "country_id": 107,
    "country_code": "IT",
    "latitude": "45.85808000",
    "longitude": "9.15986000",
    "native": null,
    "timezone": "Europe/Rome",
    "translations": {}
  },
  {
    "id": 139446,
    "name": "Lenno",
    "state_id": 1740,
    "state_code": "CO",
    "country_id": 107,
    "country_code": "IT",
    "latitude": "45.97298000",
    "longitude": "9.19084000",
    "native": null,
    "timezone": "Europe/Rome",
    "translations": {}
  },
  {
    "id": 139490,
    "name": "Lezzeno",
    "state_id": 1740,
    "state_code": "CO",
    "country_id": 107,
    "country_code": "IT",
    "latitude": "45.94411000",
    "longitude": "9.18488000",
    "native": null,
    "timezone": "Europe/Rome",
    "translations": {}
  },
  {
    "id": 139521,
    "name": "Limido Comasco",
    "state_id": 1740,
    "state_code": "CO",
    "country_id": 107,
    "country_code": "IT",
    "latitude": "45.68917000",
    "longitude": "8.97984000",
    "native": null,
    "timezone": "Europe/Rome",
    "translations": {}
  },
  {
    "id": 139534,
    "name": "Lipomo",
    "state_id": 1740,
    "state_code": "CO",
    "country_id": 107,
    "country_code": "IT",
    "latitude": "45.79288000",
    "longitude": "9.12024000",
    "native": null,
    "timezone": "Europe/Rome",
    "translations": {}
  },
  {
    "id": 139550,
    "name": "Livo",
    "state_id": 1740,
    "state_code": "CO",
    "country_id": 107,
    "country_code": "IT",
    "latitude": "46.16849000",
    "longitude": "9.30414000",
    "native": null,
    "timezone": "Europe/Rome",
    "translations": {}
  },
  {
    "id": 139561,
    "name": "Locate Varesino",
    "state_id": 1740,
    "state_code": "CO",
    "country_id": 107,
    "country_code": "IT",
    "latitude": "45.68969000",
    "longitude": "8.92992000",
    "native": null,
    "timezone": "Europe/Rome",
    "translations": {}
  },
  {
    "id": 139579,
    "name": "Lomazzo",
    "state_id": 1740,
    "state_code": "CO",
    "country_id": 107,
    "country_code": "IT",
    "latitude": "45.69670000",
    "longitude": "9.03427000",
    "native": null,
    "timezone": "Europe/Rome",
    "translations": {}
  },
  {
    "id": 139600,
    "name": "Longone al Segrino",
    "state_id": 1740,
    "state_code": "CO",
    "country_id": 107,
    "country_code": "IT",
    "latitude": "45.81428000",
    "longitude": "9.25144000",
    "native": null,
    "timezone": "Europe/Rome",
    "translations": {}
  },
  {
    "id": 139634,
    "name": "Lucino",
    "state_id": 1740,
    "state_code": "CO",
    "country_id": 107,
    "country_code": "IT",
    "latitude": "45.78350000",
    "longitude": "9.04340000",
    "native": null,
    "timezone": "Europe/Rome",
    "translations": {}
  },
  {
    "id": 139652,
    "name": "Luisago",
    "state_id": 1740,
    "state_code": "CO",
    "country_id": 107,
    "country_code": "IT",
    "latitude": "45.76288000",
    "longitude": "9.03544000",
    "native": null,
    "timezone": "Europe/Rome",
    "translations": {}
  },
  {
    "id": 139666,
    "name": "Lurago d'Erba",
    "state_id": 1740,
    "state_code": "CO",
    "country_id": 107,
    "country_code": "IT",
    "latitude": "45.75097000",
    "longitude": "9.21817000",
    "native": null,
    "timezone": "Europe/Rome",
    "translations": {}
  },
  {
    "id": 139665,
    "name": "Lurago Marinone",
    "state_id": 1740,
    "state_code": "CO",
    "country_id": 107,
    "country_code": "IT",
    "latitude": "45.70482000",
    "longitude": "8.98330000",
    "native": null,
    "timezone": "Europe/Rome",
    "translations": {}
  },
  {
    "id": 139669,
    "name": "Lurate Caccivio",
    "state_id": 1740,
    "state_code": "CO",
    "country_id": 107,
    "country_code": "IT",
    "latitude": "45.76701000",
    "longitude": "8.99897000",
    "native": null,
    "timezone": "Europe/Rome",
    "translations": {}
  },
  {
    "id": 139741,
    "name": "Magreglio",
    "state_id": 1740,
    "state_code": "CO",
    "country_id": 107,
    "country_code": "IT",
    "latitude": "45.92098000",
    "longitude": "9.26264000",
    "native": null,
    "timezone": "Europe/Rome",
    "translations": {}
  },
  {
    "id": 139792,
    "name": "Manera",
    "state_id": 1740,
    "state_code": "CO",
    "country_id": 107,
    "country_code": "IT",
    "latitude": "45.67346000",
    "longitude": "9.04058000",
    "native": null,
    "timezone": "Europe/Rome",
    "translations": {}
  },
  {
    "id": 139867,
    "name": "Mariano Comense",
    "state_id": 1740,
    "state_code": "CO",
    "country_id": 107,
    "country_code": "IT",
    "latitude": "45.69651000",
    "longitude": "9.18180000",
    "native": null,
    "timezone": "Europe/Rome",
    "translations": {}
  },
  {
    "id": 139963,
    "name": "Maslianico",
    "state_id": 1740,
    "state_code": "CO",
    "country_id": 107,
    "country_code": "IT",
    "latitude": "45.84301000",
    "longitude": "9.04836000",
    "native": null,
    "timezone": "Europe/Rome",
    "translations": {}
  },
  {
    "id": 140059,
    "name": "Menaggio",
    "state_id": 1740,
    "state_code": "CO",
    "country_id": 107,
    "country_code": "IT",
    "latitude": "46.02075000",
    "longitude": "9.23907000",
    "native": null,
    "timezone": "Europe/Rome",
    "translations": {}
  },
  {
    "id": 140088,
    "name": "Merone",
    "state_id": 1740,
    "state_code": "CO",
    "country_id": 107,
    "country_code": "IT",
    "latitude": "45.78718000",
    "longitude": "9.24404000",
    "native": null,
    "timezone": "Europe/Rome",
    "translations": {}
  },
  {
    "id": 140116,
    "name": "Mezzegra",
    "state_id": 1740,
    "state_code": "CO",
    "country_id": 107,
    "country_code": "IT",
    "latitude": "45.98168000",
    "longitude": "9.20514000",
    "native": null,
    "timezone": "Europe/Rome",
    "translations": {}
  },
  {
    "id": 140232,
    "name": "Moltrasio",
    "state_id": 1740,
    "state_code": "CO",
    "country_id": 107,
    "country_code": "IT",
    "latitude": "45.85998000",
    "longitude": "9.09844000",
    "native": null,
    "timezone": "Europe/Rome",
    "translations": {}
  },
  {
    "id": 140342,
    "name": "Montano",
    "state_id": 1740,
    "state_code": "CO",
    "country_id": 107,
    "country_code": "IT",
    "latitude": "45.79423000",
    "longitude": "9.02218000",
    "native": null,
    "timezone": "Europe/Rome",
    "translations": {}
  },
  {
    "id": 140344,
    "name": "Montano Lucino",
    "state_id": 1740,
    "state_code": "CO",
    "country_id": 107,
    "country_code": "IT",
    "latitude": "45.78378000",
    "longitude": "9.04244000",
    "native": null,
    "timezone": "Europe/Rome",
    "translations": {}
  },
  {
    "id": 140492,
    "name": "Montemezzo",
    "state_id": 1740,
    "state_code": "CO",
    "country_id": 107,
    "country_code": "IT",
    "latitude": "46.17879000",
    "longitude": "9.37094000",
    "native": null,
    "timezone": "Europe/Rome",
    "translations": {}
  },
  {
    "id": 140542,
    "name": "Montesolaro",
    "state_id": 1740,
    "state_code": "CO",
    "country_id": 107,
    "country_code": "IT",
    "latitude": "45.72100000",
    "longitude": "9.11760000",
    "native": null,
    "timezone": "Europe/Rome",
    "translations": {}
  },
  {
    "id": 140582,
    "name": "Montorfano",
    "state_id": 1740,
    "state_code": "CO",
    "country_id": 107,
    "country_code": "IT",
    "latitude": "45.78638000",
    "longitude": "9.14374000",
    "native": null,
    "timezone": "Europe/Rome",
    "translations": {}
  },
  {
    "id": 140673,
    "name": "Mozzate",
    "state_id": 1740,
    "state_code": "CO",
    "country_id": 107,
    "country_code": "IT",
    "latitude": "45.67473000",
    "longitude": "8.95644000",
    "native": null,
    "timezone": "Europe/Rome",
    "translations": {}
  },
  {
    "id": 140702,
    "name": "Musso",
    "state_id": 1740,
    "state_code": "CO",
    "country_id": 107,
    "country_code": "IT",
    "latitude": "46.11295000",
    "longitude": "9.27379000",
    "native": null,
    "timezone": "Europe/Rome",
    "translations": {}
  },
  {
    "id": 140730,
    "name": "Navedano",
    "state_id": 1740,
    "state_code": "CO",
    "country_id": 107,
    "country_code": "IT",
    "latitude": "45.75524000",
    "longitude": "9.09470000",
    "native": null,
    "timezone": "Europe/Rome",
    "translations": {}
  },
  {
    "id": 140751,
    "name": "Nesso",
    "state_id": 1740,
    "state_code": "CO",
    "country_id": 107,
    "country_code": "IT",
    "latitude": "45.91238000",
    "longitude": "9.15674000",
    "native": null,
    "timezone": "Europe/Rome",
    "translations": {}
  },
  {
    "id": 140778,
    "name": "Nobile-Monguzzo",
    "state_id": 1740,
    "state_code": "CO",
    "country_id": 107,
    "country_code": "IT",
    "latitude": "45.78018000",
    "longitude": "9.23024000",
    "native": null,
    "timezone": "Europe/Rome",
    "translations": {}
  },
  {
    "id": 140827,
    "name": "Novedrate",
    "state_id": 1740,
    "state_code": "CO",
    "country_id": 107,
    "country_code": "IT",
    "latitude": "45.69808000",
    "longitude": "9.12074000",
    "native": null,
    "timezone": "Europe/Rome",
    "translations": {}
  },
  {
    "id": 140865,
    "name": "Occagno",
    "state_id": 1740,
    "state_code": "CO",
    "country_id": 107,
    "country_code": "IT",
    "latitude": "45.92901000",
    "longitude": "9.09870000",
    "native": null,
    "timezone": "Europe/Rome",
    "translations": {}
  },
  {
    "id": 140892,
    "name": "Olgiate Comasco",
    "state_id": 1740,
    "state_code": "CO",
    "country_id": 107,
    "country_code": "IT",
    "latitude": "45.78436000",
    "longitude": "8.96816000",
    "native": null,
    "timezone": "Europe/Rome",
    "translations": {}
  },
  {
    "id": 140915,
    "name": "Oltrona di San Mamette",
    "state_id": 1740,
    "state_code": "CO",
    "country_id": 107,
    "country_code": "IT",
    "latitude": "45.75578000",
    "longitude": "8.97673000",
    "native": null,
    "timezone": "Europe/Rome",
    "translations": {}
  },
  {
    "id": 140974,
    "name": "Orsenigo",
    "state_id": 1740,
    "state_code": "CO",
    "country_id": 107,
    "country_code": "IT",
    "latitude": "45.77839000",
    "longitude": "9.17963000",
    "native": null,
    "timezone": "Europe/Rome",
    "translations": {}
  },
  {
    "id": 141005,
    "name": "Osigo",
    "state_id": 1740,
    "state_code": "CO",
    "country_id": 107,
    "country_code": "IT",
    "latitude": "45.87532000",
    "longitude": "9.29559000",
    "native": null,
    "timezone": "Europe/Rome",
    "translations": {}
  },
  {
    "id": 141029,
    "name": "Ossuccio",
    "state_id": 1740,
    "state_code": "CO",
    "country_id": 107,
    "country_code": "IT",
    "latitude": "45.96958000",
    "longitude": "9.17974000",
    "native": null,
    "timezone": "Europe/Rome",
    "translations": {}
  },
  {
    "id": 141032,
    "name": "Osteno",
    "state_id": 1740,
    "state_code": "CO",
    "country_id": 107,
    "country_code": "IT",
    "latitude": "46.00668000",
    "longitude": "9.08385000",
    "native": null,
    "timezone": "Europe/Rome",
    "translations": {}
  },
  {
    "id": 141033,
    "name": "Osteno-Claino",
    "state_id": 1740,
    "state_code": "CO",
    "country_id": 107,
    "country_code": "IT",
    "latitude": "46.00367000",
    "longitude": "9.08741000",
    "native": null,
    "timezone": "Europe/Rome",
    "translations": {}
  },
  {
    "id": 58320,
    "name": "Parè",
    "state_id": 1740,
    "state_code": "CO",
    "country_id": 107,
    "country_code": "IT",
    "latitude": "45.81088000",
    "longitude": "9.00874000",
    "native": null,
    "timezone": "Europe/Rome",
    "translations": {}
  },
  {
    "id": 58386,
    "name": "Peglio",
    "state_id": 1740,
    "state_code": "CO",
    "country_id": 107,
    "country_code": "IT",
    "latitude": "46.16039000",
    "longitude": "9.29474000",
    "native": null,
    "timezone": "Europe/Rome",
    "translations": {}
  },
  {
    "id": 58396,
    "name": "Pellio Intelvi",
    "state_id": 1740,
    "state_code": "CO",
    "country_id": 107,
    "country_code": "IT",
    "latitude": "45.97988000",
    "longitude": "9.05864000",
    "native": null,
    "timezone": "Europe/Rome",
    "translations": {}
  },
  {
    "id": 58527,
    "name": "Pianello del Lario",
    "state_id": 1740,
    "state_code": "CO",
    "country_id": 107,
    "country_code": "IT",
    "latitude": "46.10279000",
    "longitude": "9.27694000",
    "native": null,
    "timezone": "Europe/Rome",
    "translations": {}
  },
  {
    "id": 58665,
    "name": "Pigra",
    "state_id": 1740,
    "state_code": "CO",
    "country_id": 107,
    "country_code": "IT",
    "latitude": "45.95735000",
    "longitude": "9.12649000",
    "native": null,
    "timezone": "Europe/Rome",
    "translations": {}
  },
  {
    "id": 58737,
    "name": "Plesio",
    "state_id": 1740,
    "state_code": "CO",
    "country_id": 107,
    "country_code": "IT",
    "latitude": "46.04742000",
    "longitude": "9.22882000",
    "native": null,
    "timezone": "Europe/Rome",
    "translations": {}
  },
  {
    "id": 58775,
    "name": "Pognana Lario",
    "state_id": 1740,
    "state_code": "CO",
    "country_id": 107,
    "country_code": "IT",
    "latitude": "45.88044000",
    "longitude": "9.15762000",
    "native": null,
    "timezone": "Europe/Rome",
    "translations": {}
  },
  {
    "id": 58824,
    "name": "Ponna Superiore",
    "state_id": 1740,
    "state_code": "CO",
    "country_id": 107,
    "country_code": "IT",
    "latitude": "45.98957000",
    "longitude": "9.09406000",
    "native": null,
    "timezone": "Europe/Rome",
    "translations": {}
  },
  {
    "id": 58842,
    "name": "Ponte Lambro",
    "state_id": 1740,
    "state_code": "CO",
    "country_id": 107,
    "country_code": "IT",
    "latitude": "45.82539000",
    "longitude": "9.22455000",
    "native": null,
    "timezone": "Europe/Rome",
    "translations": {}
  },
  {
    "id": 58907,
    "name": "Porlezza",
    "state_id": 1740,
    "state_code": "CO",
    "country_id": 107,
    "country_code": "IT",
    "latitude": "46.03714000",
    "longitude": "9.12921000",
    "native": null,
    "timezone": "Europe/Rome",
    "translations": {}
  },
  {
    "id": 59093,
    "name": "Proserpio",
    "state_id": 1740,
    "state_code": "CO",
    "country_id": 107,
    "country_code": "IT",
    "latitude": "45.82828000",
    "longitude": "9.24554000",
    "native": null,
    "timezone": "Europe/Rome",
    "translations": {}
  },
  {
    "id": 59195,
    "name": "Puginate",
    "state_id": 1740,
    "state_code": "CO",
    "country_id": 107,
    "country_code": "IT",
    "latitude": "45.71095000",
    "longitude": "9.05772000",
    "native": null,
    "timezone": "Europe/Rome",
    "translations": {}
  },
  {
    "id": 59207,
    "name": "Pusiano",
    "state_id": 1740,
    "state_code": "CO",
    "country_id": 107,
    "country_code": "IT",
    "latitude": "45.81478000",
    "longitude": "9.28217000",
    "native": null,
    "timezone": "Europe/Rome",
    "translations": {}
  },
  {
    "id": 59276,
    "name": "Ramponio Verna",
    "state_id": 1740,
    "state_code": "CO",
    "country_id": 107,
    "country_code": "IT",
    "latitude": "45.99698000",
    "longitude": "9.06633000",
    "native": null,
    "timezone": "Europe/Rome",
    "translations": {}
  },
  {
    "id": 59346,
    "name": "Rezzago",
    "state_id": 1740,
    "state_code": "CO",
    "country_id": 107,
    "country_code": "IT",
    "latitude": "45.86673000",
    "longitude": "9.24863000",
    "native": null,
    "timezone": "Europe/Rome",
    "translations": {}
  },
  {
    "id": 59552,
    "name": "Rodero",
    "state_id": 1740,
    "state_code": "CO",
    "country_id": 107,
    "country_code": "IT",
    "latitude": "45.82398000",
    "longitude": "8.91523000",
    "native": null,
    "timezone": "Europe/Rome",
    "translations": {}
  },
  {
    "id": 59588,
    "name": "Ronago",
    "state_id": 1740,
    "state_code": "CO",
    "country_id": 107,
    "country_code": "IT",
    "latitude": "45.83228000",
    "longitude": "8.98364000",
    "native": null,
    "timezone": "Europe/Rome",
    "translations": {}
  },
  {
    "id": 59672,
    "name": "Rovellasca",
    "state_id": 1740,
    "state_code": "CO",
    "country_id": 107,
    "country_code": "IT",
    "latitude": "45.66664000",
    "longitude": "9.04884000",
    "native": null,
    "timezone": "Europe/Rome",
    "translations": {}
  },
  {
    "id": 59673,
    "name": "Rovello Porro",
    "state_id": 1740,
    "state_code": "CO",
    "country_id": 107,
    "country_code": "IT",
    "latitude": "45.65210000",
    "longitude": "9.03940000",
    "native": null,
    "timezone": "Europe/Rome",
    "translations": {}
  },
  {
    "id": 59742,
    "name": "Sala Comacina",
    "state_id": 1740,
    "state_code": "CO",
    "country_id": 107,
    "country_code": "IT",
    "latitude": "45.96418000",
    "longitude": "9.16604000",
    "native": null,
    "timezone": "Europe/Rome",
    "translations": {}
  },
  {
    "id": 59820,
    "name": "San Bartolomeo Val Cavargna",
    "state_id": 1740,
    "state_code": "CO",
    "country_id": 107,
    "country_code": "IT",
    "latitude": "46.08349000",
    "longitude": "9.14913000",
    "native": null,
    "timezone": "Europe/Rome",
    "translations": {}
  },
  {
    "id": 59902,
    "name": "San Fedele Intelvi",
    "state_id": 1740,
    "state_code": "CO",
    "country_id": 107,
    "country_code": "IT",
    "latitude": "45.96768000",
    "longitude": "9.08074000",
    "native": null,
    "timezone": "Europe/Rome",
    "translations": {}
  },
  {
    "id": 59903,
    "name": "San Fedele Superiore",
    "state_id": 1740,
    "state_code": "CO",
    "country_id": 107,
    "country_code": "IT",
    "latitude": "45.96667000",
    "longitude": "9.06667000",
    "native": null,
    "timezone": "Europe/Rome",
    "translations": {}
  },
  {
    "id": 59916,
    "name": "San Fermo della Battaglia",
    "state_id": 1740,
    "state_code": "CO",
    "country_id": 107,
    "country_code": "IT",
    "latitude": "45.80868000",
    "longitude": "9.04744000",
    "native": null,
    "timezone": "Europe/Rome",
    "translations": {}
  },
  {
    "id": 60053,
    "name": "San Mamete",
    "state_id": 1740,
    "state_code": "CO",
    "country_id": 107,
    "country_code": "IT",
    "latitude": "46.02505000",
    "longitude": "9.05364000",
    "native": null,
    "timezone": "Europe/Rome",
    "translations": {}
  },
  {
    "id": 60126,
    "name": "San Michele-San Giorgio",
    "state_id": 1740,
    "state_code": "CO",
    "country_id": 107,
    "country_code": "IT",
    "latitude": "45.69594000",
    "longitude": "9.05856000",
    "native": null,
    "timezone": "Europe/Rome",
    "translations": {}
  },
  {
    "id": 60132,
    "name": "San Nazzaro Val Cavargna",
    "state_id": 1740,
    "state_code": "CO",
    "country_id": 107,
    "country_code": "IT",
    "latitude": "46.08939000",
    "longitude": "9.12743000",
    "native": null,
    "timezone": "Europe/Rome",
    "translations": {}
  },
  {
    "id": 60245,
    "name": "San Siro",
    "state_id": 1740,
    "state_code": "CO",
    "country_id": 107,
    "country_code": "IT",
    "latitude": "46.06573000",
    "longitude": "9.26877000",
    "native": null,
    "timezone": "Europe/Rome",
    "translations": {}
  },
  {
    "id": 60645,
    "name": "Schignano",
    "state_id": 1740,
    "state_code": "CO",
    "country_id": 107,
    "country_code": "IT",
    "latitude": "45.92978000",
    "longitude": "9.10214000",
    "native": null,
    "timezone": "Europe/Rome",
    "translations": {}
  },
  {
    "id": 60727,
    "name": "Senna Comasco",
    "state_id": 1740,
    "state_code": "CO",
    "country_id": 107,
    "country_code": "IT",
    "latitude": "45.76298000",
    "longitude": "9.11104000",
    "native": null,
    "timezone": "Europe/Rome",
    "translations": {}
  },
  {
    "id": 60909,
    "name": "Solbiate",
    "state_id": 1740,
    "state_code": "CO",
    "country_id": 107,
    "country_code": "IT",
    "latitude": "45.78968000",
    "longitude": "8.93314000",
    "native": null,
    "timezone": "Europe/Rome",
    "translations": {}
  },
  {
    "id": 60961,
    "name": "Sorico",
    "state_id": 1740,
    "state_code": "CO",
    "country_id": 107,
    "country_code": "IT",
    "latitude": "46.17259000",
    "longitude": "9.38404000",
    "native": null,
    "timezone": "Europe/Rome",
    "translations": {}
  },
  {
    "id": 60964,
    "name": "Sormano",
    "state_id": 1740,
    "state_code": "CO",
    "country_id": 107,
    "country_code": "IT",
    "latitude": "45.87803000",
    "longitude": "9.24582000",
    "native": null,
    "timezone": "Europe/Rome",
    "translations": {}
  },
  {
    "id": 61059,
    "name": "Stazzona",
    "state_id": 1740,
    "state_code": "CO",
    "country_id": 107,
    "country_code": "IT",
    "latitude": "46.13879000",
    "longitude": "9.27524000",
    "native": null,
    "timezone": "Europe/Rome",
    "translations": {}
  },
  {
    "id": 61190,
    "name": "Tavernerio",
    "state_id": 1740,
    "state_code": "CO",
    "country_id": 107,
    "country_code": "IT",
    "latitude": "45.80068000",
    "longitude": "9.14054000",
    "native": null,
    "timezone": "Europe/Rome",
    "translations": {}
  },
  {
    "id": 61337,
    "name": "Torno",
    "state_id": 1740,
    "state_code": "CO",
    "country_id": 107,
    "country_code": "IT",
    "latitude": "45.85593000",
    "longitude": "9.11707000",
    "native": null,
    "timezone": "Europe/Rome",
    "translations": {}
  },
  {
    "id": 61479,
    "name": "Tremezzo",
    "state_id": 1740,
    "state_code": "CO",
    "country_id": 107,
    "country_code": "IT",
    "latitude": "45.98423000",
    "longitude": "9.21613000",
    "native": null,
    "timezone": "Europe/Rome",
    "translations": {}
  },
  {
    "id": 61514,
    "name": "Trezzone",
    "state_id": 1740,
    "state_code": "CO",
    "country_id": 107,
    "country_code": "IT",
    "latitude": "46.17159000",
    "longitude": "9.35184000",
    "native": null,
    "timezone": "Europe/Rome",
    "translations": {}
  },
  {
    "id": 61572,
    "name": "Turate",
    "state_id": 1740,
    "state_code": "CO",
    "country_id": 107,
    "country_code": "IT",
    "latitude": "45.65727000",
    "longitude": "9.00424000",
    "native": null,
    "timezone": "Europe/Rome",
    "translations": {}
  },
  {
    "id": 61592,
    "name": "Uggiate Trevano",
    "state_id": 1740,
    "state_code": "CO",
    "country_id": 107,
    "country_code": "IT",
    "latitude": "45.82338000",
    "longitude": "8.95964000",
    "native": null,
    "timezone": "Europe/Rome",
    "translations": {}
  },
  {
    "id": 61644,
    "name": "Val Rezzo",
    "state_id": 1740,
    "state_code": "CO",
    "country_id": 107,
    "country_code": "IT",
    "latitude": "46.07268000",
    "longitude": "9.11183000",
    "native": null,
    "timezone": "Europe/Rome",
    "translations": {}
  },
  {
    "id": 61647,
    "name": "Valbrona",
    "state_id": 1740,
    "state_code": "CO",
    "country_id": 107,
    "country_code": "IT",
    "latitude": "45.87738000",
    "longitude": "9.29884000",
    "native": null,
    "timezone": "Europe/Rome",
    "translations": {}
  },
  {
    "id": 61733,
    "name": "Valmorea",
    "state_id": 1740,
    "state_code": "CO",
    "country_id": 107,
    "country_code": "IT",
    "latitude": "45.81518000",
    "longitude": "8.93064000",
    "native": null,
    "timezone": "Europe/Rome",
    "translations": {}
  },
  {
    "id": 61780,
    "name": "Vassena",
    "state_id": 1740,
    "state_code": "CO",
    "country_id": 107,
    "country_code": "IT",
    "latitude": "45.92998000",
    "longitude": "9.28399000",
    "native": null,
    "timezone": "Europe/Rome",
    "translations": {}
  },
  {
    "id": 61800,
    "name": "Veleso",
    "state_id": 1740,
    "state_code": "CO",
    "country_id": 107,
    "country_code": "IT",
    "latitude": "45.90875000",
    "longitude": "9.18090000",
    "native": null,
    "timezone": "Europe/Rome",
    "translations": {}
  },
  {
    "id": 61821,
    "name": "Veniano",
    "state_id": 1740,
    "state_code": "CO",
    "country_id": 107,
    "country_code": "IT",
    "latitude": "45.71629000",
    "longitude": "8.98501000",
    "native": null,
    "timezone": "Europe/Rome",
    "translations": {}
  },
  {
    "id": 61836,
    "name": "Vercana",
    "state_id": 1740,
    "state_code": "CO",
    "country_id": 107,
    "country_code": "IT",
    "latitude": "46.15949000",
    "longitude": "9.33514000",
    "native": null,
    "timezone": "Europe/Rome",
    "translations": {}
  },
  {
    "id": 61871,
    "name": "Vertemate Con Minoprio",
    "state_id": 1740,
    "state_code": "CO",
    "country_id": 107,
    "country_code": "IT",
    "latitude": "45.72518000",
    "longitude": "9.07300000",
    "native": null,
    "timezone": "Europe/Rome",
    "translations": {}
  },
  {
    "id": 61962,
    "name": "Vignola",
    "state_id": 1740,
    "state_code": "CO",
    "country_id": 107,
    "country_code": "IT",
    "latitude": "46.08815000",
    "longitude": "9.27456000",
    "native": null,
    "timezone": "Europe/Rome",
    "translations": {}
  },
  {
    "id": 61980,
    "name": "Vill'Albese",
    "state_id": 1740,
    "state_code": "CO",
    "country_id": 107,
    "country_code": "IT",
    "latitude": "45.79684000",
    "longitude": "9.18859000",
    "native": null,
    "timezone": "Europe/Rome",
    "translations": {}
  },
  {
    "id": 62000,
    "name": "Villa Guardia",
    "state_id": 1740,
    "state_code": "CO",
    "country_id": 107,
    "country_code": "IT",
    "latitude": "45.77505000",
    "longitude": "9.02321000",
    "native": null,
    "timezone": "Europe/Rome",
    "translations": {}
  },
  {
    "id": 62242,
    "name": "Zelbio",
    "state_id": 1740,
    "state_code": "CO",
    "country_id": 107,
    "country_code": "IT",
    "latitude": "45.90458000",
    "longitude": "9.18054000",
    "native": null,
    "timezone": "Europe/Rome",
    "translations": {}
  }
]