[
  {
    "id": 48457,
    "name": "Belbroughton",
    "state_id": 2341,
    "state_code": "SAW",
    "country_id": 232,
    "country_code": "GB",
    "latitude": "52.39177000",
    "longitude": "-2.11884000",
    "native": null,
    "timezone": "Europe/London",
    "translations": {}
  },
  {
    "id": 48690,
    "name": "Brierley Hill",
    "state_id": 2341,
    "state_code": "SAW",
    "country_id": 232,
    "country_code": "GB",
    "latitude": "52.48173000",
    "longitude": "-2.12139000",
    "native": null,
    "timezone": "Europe/London",
    "translations": {}
  },
  {
    "id": 49138,
    "name": "Cradley Heath",
    "state_id": 2341,
    "state_code": "SAW",
    "country_id": 232,
    "country_code": "GB",
    "latitude": "52.47214000",
    "longitude": "-2.08212000",
    "native": null,
    "timezone": "Europe/London",
    "translations": {}
  },
  {
    "id": 49335,
    "name": "Dudley",
    "state_id": 2341,
    "state_code": "SAW",
    "country_id": 232,
    "country_code": "GB",
    "latitude": "52.50000000",
    "longitude": "-2.11667000",
    "native": null,
    "timezone": "Europe/London",
    "translations": {}
  },
  {
    "id": 49778,
    "name": "Hagley",
    "state_id": 2341,
    "state_code": "SAW",
    "country_id": 232,
    "country_code": "GB",
    "latitude": "52.42620000",
    "longitude": "-2.12819000",
    "native": null,
    "timezone": "Europe/London",
    "translations": {}
  },
  {
    "id": 49782,
    "name": "Halesowen",
    "state_id": 2341,
    "state_code": "SAW",
    "country_id": 232,
    "country_code": "GB",
    "latitude": "52.44859000",
    "longitude": "-2.04938000",
    "native": null,
    "timezone": "Europe/London",
    "translations": {}
  },
  {
    "id": 50190,
    "name": "Kinvere",
    "state_id": 2341,
    "state_code": "SAW",
    "country_id": 232,
    "country_code": "GB",
    "latitude": "52.45000000",
    "longitude": "-2.23333000",
    "native": null,
    "timezone": "Europe/London",
    "translations": {}
  },
  {
    "id": 50682,
    "name": "Netherton",
    "state_id": 2341,
    "state_code": "SAW",
    "country_id": 232,
    "country_code": "GB",
    "latitude": "52.48333000",
    "longitude": "-2.08333000",
    "native": null,
    "timezone": "Europe/London",
    "translations": {}
  },
  {
    "id": 50806,
    "name": "Oldbury",
    "state_id": 2341,
    "state_code": "SAW",
    "country_id": 232,
    "country_code": "GB",
    "latitude": "52.50000000",
    "longitude": "-2.01667000",
    "native": null,
    "timezone": "Europe/London",
    "translations": {}
  },
  {
    "id": 51104,
    "name": "Romsley",
    "state_id": 2341,
    "state_code": "SAW",
    "country_id": 232,
    "country_code": "GB",
    "latitude": "52.41996000",
    "longitude": "-2.05695000",
    "native": null,
    "timezone": "Europe/London",
    "translations": {}
  },
  {
    "id": 51127,
    "name": "Rowley Regis",
    "state_id": 2341,
    "state_code": "SAW",
    "country_id": 232,
    "country_code": "GB",
    "latitude": "52.48292000",
    "longitude": "-2.04376000",
    "native": null,
    "timezone": "Europe/London",
    "translations": {}
  },
  {
    "id": 51195,
    "name": "Sandwell",
    "state_id": 2341,
    "state_code": "SAW",
    "country_id": 232,
    "country_code": "GB",
    "latitude": "52.50000000",
    "longitude": "-2.00000000",
    "native": null,
    "timezone": "Europe/London",
    "translations": {}
  },
  {
    "id": 51333,
    "name": "Smethwick",
    "state_id": 2341,
    "state_code": "SAW",
    "country_id": 232,
    "country_code": "GB",
    "latitude": "52.49268000",
    "longitude": "-1.96745000",
    "native": null,
    "timezone": "Europe/London",
    "translations": {}
  },
  {
    "id": 51482,
    "name": "Stourbridge",
    "state_id": 2341,
    "state_code": "SAW",
    "country_id": 232,
    "country_code": "GB",
    "latitude": "52.45608000",
    "longitude": "-2.14317000",
    "native": null,
    "timezone": "Europe/London",
    "translations": {}
  },
  {
    "id": 51630,
    "name": "Tipton",
    "state_id": 2341,
    "state_code": "SAW",
    "country_id": 232,
    "country_code": "GB",
    "latitude": "52.52956000",
    "longitude": "-2.06773000",
    "native": null,
    "timezone": "Europe/London",
    "translations": {}
  },
  {
    "id": 51781,
    "name": "Wednesbury",
    "state_id": 2341,
    "state_code": "SAW",
    "country_id": 232,
    "country_code": "GB",
    "latitude": "52.55140000",
    "longitude": "-2.02355000",
    "native": null,
    "timezone": "Europe/London",
    "translations": {}
  },
  {
    "id": 51808,
    "name": "West Bromwich",
    "state_id": 2341,
    "state_code": "SAW",
    "country_id": 232,
    "country_code": "GB",
    "latitude": "52.51868000",
    "longitude": "-1.99450000",
    "native": null,
    "timezone": "Europe/London",
    "translations": {}
  }
]