[
  {
    "id": 135261,
    "name": "Acilia-Castel Fusano-Ostia Antica",
    "state_id": 5636,
    "state_code": "RM",
    "country_id": 107,
    "country_code": "IT",
    "latitude": "41.76337000",
    "longitude": "12.33078000",
    "native": null,
    "timezone": "Europe/Rome",
    "translations": {}
  },
  {
    "id": 135293,
    "name": "Affile",
    "state_id": 5636,
    "state_code": "RM",
    "country_id": 107,
    "country_code": "IT",
    "latitude": "41.88435000",
    "longitude": "13.09853000",
    "native": null,
    "timezone": "Europe/Rome",
    "translations": {}
  },
  {
    "id": 135313,
    "name": "Agosta",
    "state_id": 5636,
    "state_code": "RM",
    "country_id": 107,
    "country_code": "IT",
    "latitude": "41.98133000",
    "longitude": "13.03499000",
    "native": null,
    "timezone": "Europe/Rome",
    "translations": {}
  },
  {
    "id": 135351,
    "name": "Albano Laziale",
    "state_id": 5636,
    "state_code": "RM",
    "country_id": 107,
    "country_code": "IT",
    "latitude": "41.72748000",
    "longitude": "12.65900000",
    "native": null,
    "timezone": "Europe/Rome",
    "translations": {}
  },
  {
    "id": 135386,
    "name": "Albuccione",
    "state_id": 5636,
    "state_code": "RM",
    "country_id": 107,
    "country_code": "IT",
    "latitude": "41.95245000",
    "longitude": "12.69873000",
    "native": null,
    "timezone": "Europe/Rome",
    "translations": {}
  },
  {
    "id": 135419,
    "name": "Allumiere",
    "state_id": 5636,
    "state_code": "RM",
    "country_id": 107,
    "country_code": "IT",
    "latitude": "42.15751000",
    "longitude": "11.90361000",
    "native": null,
    "timezone": "Europe/Rome",
    "translations": {}
  },
  {
    "id": 135502,
    "name": "Anguillara Sabazia",
    "state_id": 5636,
    "state_code": "RM",
    "country_id": 107,
    "country_code": "IT",
    "latitude": "42.07920000",
    "longitude": "12.28368000",
    "native": null,
    "timezone": "Europe/Rome",
    "translations": {}
  },
  {
    "id": 135517,
    "name": "Anticoli Corrado",
    "state_id": 5636,
    "state_code": "RM",
    "country_id": 107,
    "country_code": "IT",
    "latitude": "42.00801000",
    "longitude": "12.99049000",
    "native": null,
    "timezone": "Europe/Rome",
    "translations": {}
  },
  {
    "id": 135527,
    "name": "Anzio",
    "state_id": 5636,
    "state_code": "RM",
    "country_id": 107,
    "country_code": "IT",
    "latitude": "41.45263000",
    "longitude": "12.62157000",
    "native": null,
    "timezone": "Europe/Rome",
    "translations": {}
  },
  {
    "id": 135548,
    "name": "Ara Nova",
    "state_id": 5636,
    "state_code": "RM",
    "country_id": 107,
    "country_code": "IT",
    "latitude": "41.93300000",
    "longitude": "12.23980000",
    "native": null,
    "timezone": "Europe/Rome",
    "translations": {}
  },
  {
    "id": 135566,
    "name": "Arci-Empolitana",
    "state_id": 5636,
    "state_code": "RM",
    "country_id": 107,
    "country_code": "IT",
    "latitude": "41.94766000",
    "longitude": "12.82502000",
    "native": null,
    "timezone": "Europe/Rome",
    "translations": {}
  },
  {
    "id": 135568,
    "name": "Arcinazzo Romano",
    "state_id": 5636,
    "state_code": "RM",
    "country_id": 107,
    "country_code": "IT",
    "latitude": "41.87972000",
    "longitude": "13.11439000",
    "native": null,
    "timezone": "Europe/Rome",
    "translations": {}
  },
  {
    "id": 135578,
    "name": "Ardea",
    "state_id": 5636,
    "state_code": "RM",
    "country_id": 107,
    "country_code": "IT",
    "latitude": "41.60742000",
    "longitude": "12.54158000",
    "native": null,
    "timezone": "Europe/Rome",
    "translations": {}
  },
  {
    "id": 135584,
    "name": "Area Produttiva",
    "state_id": 5636,
    "state_code": "RM",
    "country_id": 107,
    "country_code": "IT",
    "latitude": "41.68211000",
    "longitude": "12.50697000",
    "native": null,
    "timezone": "Europe/Rome",
    "translations": {}
  },
  {
    "id": 135601,
    "name": "Ariccia",
    "state_id": 5636,
    "state_code": "RM",
    "country_id": 107,
    "country_code": "IT",
    "latitude": "41.72063000",
    "longitude": "12.67230000",
    "native": null,
    "timezone": "Europe/Rome",
    "translations": {}
  },
  {
    "id": 135615,
    "name": "Armetta",
    "state_id": 5636,
    "state_code": "RM",
    "country_id": 107,
    "country_code": "IT",
    "latitude": "41.81280000",
    "longitude": "12.68782000",
    "native": null,
    "timezone": "Europe/Rome",
    "translations": {}
  },
  {
    "id": 135640,
    "name": "Arsoli",
    "state_id": 5636,
    "state_code": "RM",
    "country_id": 107,
    "country_code": "IT",
    "latitude": "42.04158000",
    "longitude": "13.01606000",
    "native": null,
    "timezone": "Europe/Rome",
    "translations": {}
  },
  {
    "id": 135643,
    "name": "Artena",
    "state_id": 5636,
    "state_code": "RM",
    "country_id": 107,
    "country_code": "IT",
    "latitude": "41.74126000",
    "longitude": "12.90667000",
    "native": null,
    "timezone": "Europe/Rome",
    "translations": {}
  },
  {
    "id": 135689,
    "name": "Aurelia",
    "state_id": 5636,
    "state_code": "RM",
    "country_id": 107,
    "country_code": "IT",
    "latitude": "42.13910000",
    "longitude": "11.78713000",
    "native": null,
    "timezone": "Europe/Rome",
    "translations": {}
  },
  {
    "id": 135758,
    "name": "Bagni di Tivoli",
    "state_id": 5636,
    "state_code": "RM",
    "country_id": 107,
    "country_code": "IT",
    "latitude": "41.95000000",
    "longitude": "12.71667000",
    "native": null,
    "timezone": "Europe/Rome",
    "translations": {}
  },
  {
    "id": 135942,
    "name": "Bellegra",
    "state_id": 5636,
    "state_code": "RM",
    "country_id": 107,
    "country_code": "IT",
    "latitude": "41.88166000",
    "longitude": "13.02861000",
    "native": null,
    "timezone": "Europe/Rome",
    "translations": {}
  },
  {
    "id": 136074,
    "name": "Bivio di Capanelle",
    "state_id": 5636,
    "state_code": "RM",
    "country_id": 107,
    "country_code": "IT",
    "latitude": "42.11962000",
    "longitude": "12.59395000",
    "native": null,
    "timezone": "Europe/Rome",
    "translations": {}
  },
  {
    "id": 136072,
    "name": "Bivio San Polo",
    "state_id": 5636,
    "state_code": "RM",
    "country_id": 107,
    "country_code": "IT",
    "latitude": "41.97418000",
    "longitude": "12.82993000",
    "native": null,
    "timezone": "Europe/Rome",
    "translations": {}
  },
  {
    "id": 136174,
    "name": "Borgo Lotti",
    "state_id": 5636,
    "state_code": "RM",
    "country_id": 107,
    "country_code": "IT",
    "latitude": "41.76414000",
    "longitude": "12.55500000",
    "native": null,
    "timezone": "Europe/Rome",
    "translations": {}
  },
  {
    "id": 136281,
    "name": "Bracciano",
    "state_id": 5636,
    "state_code": "RM",
    "country_id": 107,
    "country_code": "IT",
    "latitude": "42.10271000",
    "longitude": "12.16565000",
    "native": null,
    "timezone": "Europe/Rome",
    "translations": {}
  },
  {
    "id": 136581,
    "name": "Camerata Nuova",
    "state_id": 5636,
    "state_code": "RM",
    "country_id": 107,
    "country_code": "IT",
    "latitude": "42.01800000",
    "longitude": "13.10970000",
    "native": null,
    "timezone": "Europe/Rome",
    "translations": {}
  },
  {
    "id": 136587,
    "name": "Camilleri-Vallelata",
    "state_id": 5636,
    "state_code": "RM",
    "country_id": 107,
    "country_code": "IT",
    "latitude": "41.59848000",
    "longitude": "12.61738000",
    "native": null,
    "timezone": "Europe/Rome",
    "translations": {}
  },
  {
    "id": 136601,
    "name": "Campagnano di Roma",
    "state_id": 5636,
    "state_code": "RM",
    "country_id": 107,
    "country_code": "IT",
    "latitude": "42.13570000",
    "longitude": "12.37358000",
    "native": null,
    "timezone": "Europe/Rome",
    "translations": {}
  },
  {
    "id": 136634,
    "name": "Campo di Carne",
    "state_id": 5636,
    "state_code": "RM",
    "country_id": 107,
    "country_code": "IT",
    "latitude": "41.55265000",
    "longitude": "12.64114000",
    "native": null,
    "timezone": "Europe/Rome",
    "translations": {}
  },
  {
    "id": 136628,
    "name": "Campo Jemini",
    "state_id": 5636,
    "state_code": "RM",
    "country_id": 107,
    "country_code": "IT",
    "latitude": "41.62716000",
    "longitude": "12.51258000",
    "native": null,
    "timezone": "Europe/Rome",
    "translations": {}
  },
  {
    "id": 136630,
    "name": "Campo Limpido-Favale",
    "state_id": 5636,
    "state_code": "RM",
    "country_id": 107,
    "country_code": "IT",
    "latitude": "41.96732000",
    "longitude": "12.77016000",
    "native": null,
    "timezone": "Europe/Rome",
    "translations": {}
  },
  {
    "id": 136659,
    "name": "Campoleone",
    "state_id": 5636,
    "state_code": "RM",
    "country_id": 107,
    "country_code": "IT",
    "latitude": "41.64570000",
    "longitude": "12.64826000",
    "native": null,
    "timezone": "Europe/Rome",
    "translations": {}
  },
  {
    "id": 136688,
    "name": "Canale Monterano",
    "state_id": 5636,
    "state_code": "RM",
    "country_id": 107,
    "country_code": "IT",
    "latitude": "42.13598000",
    "longitude": "12.10284000",
    "native": null,
    "timezone": "Europe/Rome",
    "translations": {}
  },
  {
    "id": 136747,
    "name": "Canterano",
    "state_id": 5636,
    "state_code": "RM",
    "country_id": 107,
    "country_code": "IT",
    "latitude": "41.94322000",
    "longitude": "13.03809000",
    "native": null,
    "timezone": "Europe/Rome",
    "translations": {}
  },
  {
    "id": 136763,
    "name": "Capena",
    "state_id": 5636,
    "state_code": "RM",
    "country_id": 107,
    "country_code": "IT",
    "latitude": "42.14247000",
    "longitude": "12.54513000",
    "native": null,
    "timezone": "Europe/Rome",
    "translations": {}
  },
  {
    "id": 136802,
    "name": "Capranica Prenestina",
    "state_id": 5636,
    "state_code": "RM",
    "country_id": 107,
    "country_code": "IT",
    "latitude": "41.86285000",
    "longitude": "12.95077000",
    "native": null,
    "timezone": "Europe/Rome",
    "translations": {}
  },
  {
    "id": 136855,
    "name": "Carchitti",
    "state_id": 5636,
    "state_code": "RM",
    "country_id": 107,
    "country_code": "IT",
    "latitude": "41.78688000",
    "longitude": "12.82955000",
    "native": null,
    "timezone": "Europe/Rome",
    "translations": {}
  },
  {
    "id": 136918,
    "name": "Carpineto Romano",
    "state_id": 5636,
    "state_code": "RM",
    "country_id": 107,
    "country_code": "IT",
    "latitude": "41.60470000",
    "longitude": "13.08410000",
    "native": null,
    "timezone": "Europe/Rome",
    "translations": {}
  },
  {
    "id": 136958,
    "name": "Casal Palocco",
    "state_id": 5636,
    "state_code": "RM",
    "country_id": 107,
    "country_code": "IT",
    "latitude": "41.74845000",
    "longitude": "12.34726000",
    "native": null,
    "timezone": "Europe/Rome",
    "translations": {}
  },
  {
    "id": 136963,
    "name": "Casalazzara",
    "state_id": 5636,
    "state_code": "RM",
    "country_id": 107,
    "country_code": "IT",
    "latitude": "41.62299000",
    "longitude": "12.57634000",
    "native": null,
    "timezone": "Europe/Rome",
    "translations": {}
  },
  {
    "id": 137025,
    "name": "Casape",
    "state_id": 5636,
    "state_code": "RM",
    "country_id": 107,
    "country_code": "IT",
    "latitude": "41.90702000",
    "longitude": "12.88579000",
    "native": null,
    "timezone": "Europe/Rome",
    "translations": {}
  },
  {
    "id": 137134,
    "name": "Castel Chiodato",
    "state_id": 5636,
    "state_code": "RM",
    "country_id": 107,
    "country_code": "IT",
    "latitude": "42.05617000",
    "longitude": "12.69764000",
    "native": null,
    "timezone": "Europe/Rome",
    "translations": {}
  },
  {
    "id": 137137,
    "name": "Castel Fusano",
    "state_id": 5636,
    "state_code": "RM",
    "country_id": 107,
    "country_code": "IT",
    "latitude": "41.74717000",
    "longitude": "12.31190000",
    "native": null,
    "timezone": "Europe/Rome",
    "translations": {}
  },
  {
    "id": 137139,
    "name": "Castel Gandolfo",
    "state_id": 5636,
    "state_code": "RM",
    "country_id": 107,
    "country_code": "IT",
    "latitude": "41.74875000",
    "longitude": "12.64975000",
    "native": null,
    "timezone": "Europe/Rome",
    "translations": {}
  },
  {
    "id": 137143,
    "name": "Castel Madama",
    "state_id": 5636,
    "state_code": "RM",
    "country_id": 107,
    "country_code": "IT",
    "latitude": "41.97350000",
    "longitude": "12.86782000",
    "native": null,
    "timezone": "Europe/Rome",
    "translations": {}
  },
  {
    "id": 137154,
    "name": "Castel San Pietro Romano",
    "state_id": 5636,
    "state_code": "RM",
    "country_id": 107,
    "country_code": "IT",
    "latitude": "41.84572000",
    "longitude": "12.89489000",
    "native": null,
    "timezone": "Europe/Rome",
    "translations": {}
  },
  {
    "id": 137303,
    "name": "Castelnuovo di Porto",
    "state_id": 5636,
    "state_code": "RM",
    "country_id": 107,
    "country_code": "IT",
    "latitude": "42.12280000",
    "longitude": "12.51043000",
    "native": null,
    "timezone": "Europe/Rome",
    "translations": {}
  },
  {
    "id": 137430,
    "name": "Cave",
    "state_id": 5636,
    "state_code": "RM",
    "country_id": 107,
    "country_code": "IT",
    "latitude": "41.81682000",
    "longitude": "12.94055000",
    "native": null,
    "timezone": "Europe/Rome",
    "translations": {}
  },
  {
    "id": 137451,
    "name": "Cecchina",
    "state_id": 5636,
    "state_code": "RM",
    "country_id": 107,
    "country_code": "IT",
    "latitude": "41.70161000",
    "longitude": "12.64972000",
    "native": null,
    "timezone": "Europe/Rome",
    "translations": {}
  },
  {
    "id": 137565,
    "name": "Cerreto Laziale",
    "state_id": 5636,
    "state_code": "RM",
    "country_id": 107,
    "country_code": "IT",
    "latitude": "41.94332000",
    "longitude": "12.98169000",
    "native": null,
    "timezone": "Europe/Rome",
    "translations": {}
  },
  {
    "id": 137582,
    "name": "Cervara di Roma",
    "state_id": 5636,
    "state_code": "RM",
    "country_id": 107,
    "country_code": "IT",
    "latitude": "41.98822000",
    "longitude": "13.06799000",
    "native": null,
    "timezone": "Europe/Rome",
    "translations": {}
  },
  {
    "id": 137590,
    "name": "Cerveteri",
    "state_id": 5636,
    "state_code": "RM",
    "country_id": 107,
    "country_code": "IT",
    "latitude": "41.99080000",
    "longitude": "12.09082000",
    "native": null,
    "timezone": "Europe/Rome",
    "translations": {}
  },
  {
    "id": 137604,
    "name": "Cesano",
    "state_id": 5636,
    "state_code": "RM",
    "country_id": 107,
    "country_code": "IT",
    "latitude": "42.07375000",
    "longitude": "12.33711000",
    "native": null,
    "timezone": "Europe/Rome",
    "translations": {}
  },
  {
    "id": 137701,
    "name": "Ciampino",
    "state_id": 5636,
    "state_code": "RM",
    "country_id": 107,
    "country_code": "IT",
    "latitude": "41.80064000",
    "longitude": "12.60158000",
    "native": null,
    "timezone": "Europe/Rome",
    "translations": {}
  },
  {
    "id": 137711,
    "name": "Ciciliano",
    "state_id": 5636,
    "state_code": "RM",
    "country_id": 107,
    "country_code": "IT",
    "latitude": "41.95990000",
    "longitude": "12.94163000",
    "native": null,
    "timezone": "Europe/Rome",
    "translations": {}
  },
  {
    "id": 137730,
    "name": "Cineto Romano",
    "state_id": 5636,
    "state_code": "RM",
    "country_id": 107,
    "country_code": "IT",
    "latitude": "42.05014000",
    "longitude": "12.96080000",
    "native": null,
    "timezone": "Europe/Rome",
    "translations": {}
  },
  {
    "id": 137776,
    "name": "Città metropolitana di Roma Capitale",
    "state_id": 5636,
    "state_code": "RM",
    "country_id": 107,
    "country_code": "IT",
    "latitude": "41.96667000",
    "longitude": "12.66667000",
    "native": null,
    "timezone": "Europe/Rome",
    "translations": {}
  },
  {
    "id": 137794,
    "name": "Civitavecchia",
    "state_id": 5636,
    "state_code": "RM",
    "country_id": 107,
    "country_code": "IT",
    "latitude": "42.09325000",
    "longitude": "11.79674000",
    "native": null,
    "timezone": "Europe/Rome",
    "translations": {}
  },
  {
    "id": 137800,
    "name": "Civitella San Paolo",
    "state_id": 5636,
    "state_code": "RM",
    "country_id": 107,
    "country_code": "IT",
    "latitude": "42.19935000",
    "longitude": "12.57455000",
    "native": null,
    "timezone": "Europe/Rome",
    "translations": {}
  },
  {
    "id": 137870,
    "name": "Colle del Pino",
    "state_id": 5636,
    "state_code": "RM",
    "country_id": 107,
    "country_code": "IT",
    "latitude": "41.74246000",
    "longitude": "12.49644000",
    "native": null,
    "timezone": "Europe/Rome",
    "translations": {}
  },
  {
    "id": 137871,
    "name": "Colle di Fuori",
    "state_id": 5636,
    "state_code": "RM",
    "country_id": 107,
    "country_code": "IT",
    "latitude": "41.80091000",
    "longitude": "12.80683000",
    "native": null,
    "timezone": "Europe/Rome",
    "translations": {}
  },
  {
    "id": 137862,
    "name": "Colle Mainello",
    "state_id": 5636,
    "state_code": "RM",
    "country_id": 107,
    "country_code": "IT",
    "latitude": "41.86975000",
    "longitude": "12.78767000",
    "native": null,
    "timezone": "Europe/Rome",
    "translations": {}
  },
  {
    "id": 137866,
    "name": "Colle Spina",
    "state_id": 5636,
    "state_code": "RM",
    "country_id": 107,
    "country_code": "IT",
    "latitude": "41.78205000",
    "longitude": "12.84723000",
    "native": null,
    "timezone": "Europe/Rome",
    "translations": {}
  },
  {
    "id": 137868,
    "name": "Colle Verde",
    "state_id": 5636,
    "state_code": "RM",
    "country_id": 107,
    "country_code": "IT",
    "latitude": "41.97694000",
    "longitude": "12.61855000",
    "native": null,
    "timezone": "Europe/Rome",
    "translations": {}
  },
  {
    "id": 137880,
    "name": "Colleferro",
    "state_id": 5636,
    "state_code": "RM",
    "country_id": 107,
    "country_code": "IT",
    "latitude": "41.72722000",
    "longitude": "13.00481000",
    "native": null,
    "timezone": "Europe/Rome",
    "translations": {}
  },
  {
    "id": 137897,
    "name": "Colleverde II",
    "state_id": 5636,
    "state_code": "RM",
    "country_id": 107,
    "country_code": "IT",
    "latitude": "41.97533000",
    "longitude": "12.63191000",
    "native": null,
    "timezone": "Europe/Rome",
    "translations": {}
  },
  {
    "id": 137900,
    "name": "Colli di Enea",
    "state_id": 5636,
    "state_code": "RM",
    "country_id": 107,
    "country_code": "IT",
    "latitude": "41.65554000",
    "longitude": "12.49035000",
    "native": null,
    "timezone": "Europe/Rome",
    "translations": {}
  },
  {
    "id": 137922,
    "name": "Colonna",
    "state_id": 5636,
    "state_code": "RM",
    "country_id": 107,
    "country_code": "IT",
    "latitude": "41.83454000",
    "longitude": "12.75495000",
    "native": null,
    "timezone": "Europe/Rome",
    "translations": {}
  },
  {
    "id": 137929,
    "name": "Colubro",
    "state_id": 5636,
    "state_code": "RM",
    "country_id": 107,
    "country_code": "IT",
    "latitude": "41.73506000",
    "longitude": "12.86726000",
    "native": null,
    "timezone": "Europe/Rome",
    "translations": {}
  },
  {
    "id": 138000,
    "name": "Corcolle",
    "state_id": 5636,
    "state_code": "RM",
    "country_id": 107,
    "country_code": "IT",
    "latitude": "41.90421000",
    "longitude": "12.73654000",
    "native": null,
    "timezone": "Europe/Rome",
    "translations": {}
  },
  {
    "id": 138107,
    "name": "Costaroni",
    "state_id": 5636,
    "state_code": "RM",
    "country_id": 107,
    "country_code": "IT",
    "latitude": "42.07819000",
    "longitude": "12.53712000",
    "native": null,
    "timezone": "Europe/Rome",
    "translations": {}
  },
  {
    "id": 138150,
    "name": "Cretone",
    "state_id": 5636,
    "state_code": "RM",
    "country_id": 107,
    "country_code": "IT",
    "latitude": "42.07116000",
    "longitude": "12.70365000",
    "native": null,
    "timezone": "Europe/Rome",
    "translations": {}
  },
  {
    "id": 138501,
    "name": "Fiano Romano",
    "state_id": 5636,
    "state_code": "RM",
    "country_id": 107,
    "country_code": "IT",
    "latitude": "42.15538000",
    "longitude": "12.59467000",
    "native": null,
    "timezone": "Europe/Rome",
    "translations": {}
  },
  {
    "id": 138521,
    "name": "Filacciano",
    "state_id": 5636,
    "state_code": "RM",
    "country_id": 107,
    "country_code": "IT",
    "latitude": "42.25445000",
    "longitude": "12.59880000",
    "native": null,
    "timezone": "Europe/Rome",
    "translations": {}
  },
  {
    "id": 138555,
    "name": "Fiumicino-Isola Sacra",
    "state_id": 5636,
    "state_code": "RM",
    "country_id": 107,
    "country_code": "IT",
    "latitude": "41.77093000",
    "longitude": "12.23662000",
    "native": null,
    "timezone": "Europe/Rome",
    "translations": {}
  },
  {
    "id": 138571,
    "name": "Focene",
    "state_id": 5636,
    "state_code": "RM",
    "country_id": 107,
    "country_code": "IT",
    "latitude": "41.81367000",
    "longitude": "12.21354000",
    "native": null,
    "timezone": "Europe/Rome",
    "translations": {}
  },
  {
    "id": 138635,
    "name": "Formello",
    "state_id": 5636,
    "state_code": "RM",
    "country_id": 107,
    "country_code": "IT",
    "latitude": "42.06246000",
    "longitude": "12.39435000",
    "native": null,
    "timezone": "Europe/Rome",
    "translations": {}
  },
  {
    "id": 138678,
    "name": "Fossignano",
    "state_id": 5636,
    "state_code": "RM",
    "country_id": 107,
    "country_code": "IT",
    "latitude": "41.59226000",
    "longitude": "12.56333000",
    "native": null,
    "timezone": "Europe/Rome",
    "translations": {}
  },
  {
    "id": 138708,
    "name": "Frascati",
    "state_id": 5636,
    "state_code": "RM",
    "country_id": 107,
    "country_code": "IT",
    "latitude": "41.80910000",
    "longitude": "12.67942000",
    "native": null,
    "timezone": "Europe/Rome",
    "translations": {}
  },
  {
    "id": 138728,
    "name": "Fregene",
    "state_id": 5636,
    "state_code": "RM",
    "country_id": 107,
    "country_code": "IT",
    "latitude": "41.85051000",
    "longitude": "12.19671000",
    "native": null,
    "timezone": "Europe/Rome",
    "translations": {}
  },
  {
    "id": 138808,
    "name": "Gallicano nel Lazio",
    "state_id": 5636,
    "state_code": "RM",
    "country_id": 107,
    "country_code": "IT",
    "latitude": "41.86433000",
    "longitude": "12.83543000",
    "native": null,
    "timezone": "Europe/Rome",
    "translations": {}
  },
  {
    "id": 138877,
    "name": "Gavignano",
    "state_id": 5636,
    "state_code": "RM",
    "country_id": 107,
    "country_code": "IT",
    "latitude": "41.69891000",
    "longitude": "13.05032000",
    "native": null,
    "timezone": "Europe/Rome",
    "translations": {}
  },
  {
    "id": 138895,
    "name": "Genazzano",
    "state_id": 5636,
    "state_code": "RM",
    "country_id": 107,
    "country_code": "IT",
    "latitude": "41.82807000",
    "longitude": "12.97196000",
    "native": null,
    "timezone": "Europe/Rome",
    "translations": {}
  },
  {
    "id": 138897,
    "name": "Genio Civile",
    "state_id": 5636,
    "state_code": "RM",
    "country_id": 107,
    "country_code": "IT",
    "latitude": "41.54807000",
    "longitude": "12.69161000",
    "native": null,
    "timezone": "Europe/Rome",
    "translations": {}
  },
  {
    "id": 138904,
    "name": "Genzano di Roma",
    "state_id": 5636,
    "state_code": "RM",
    "country_id": 107,
    "country_code": "IT",
    "latitude": "41.70706000",
    "longitude": "12.68904000",
    "native": null,
    "timezone": "Europe/Rome",
    "translations": {}
  },
  {
    "id": 138909,
    "name": "Gerano",
    "state_id": 5636,
    "state_code": "RM",
    "country_id": 107,
    "country_code": "IT",
    "latitude": "41.93474000",
    "longitude": "12.99034000",
    "native": null,
    "timezone": "Europe/Rome",
    "translations": {}
  },
  {
    "id": 138981,
    "name": "Girardi-Bellavista-Terrazze",
    "state_id": 5636,
    "state_code": "RM",
    "country_id": 107,
    "country_code": "IT",
    "latitude": "42.10266000",
    "longitude": "12.57960000",
    "native": null,
    "timezone": "Europe/Rome",
    "translations": {}
  },
  {
    "id": 139026,
    "name": "Gorga",
    "state_id": 5636,
    "state_code": "RM",
    "country_id": 107,
    "country_code": "IT",
    "latitude": "41.65468000",
    "longitude": "13.10663000",
    "native": null,
    "timezone": "Europe/Rome",
    "translations": {}
  },
  {
    "id": 139120,
    "name": "Grottaferrata",
    "state_id": 5636,
    "state_code": "RM",
    "country_id": 107,
    "country_code": "IT",
    "latitude": "41.78664000",
    "longitude": "12.67144000",
    "native": null,
    "timezone": "Europe/Rome",
    "translations": {}
  },
  {
    "id": 139178,
    "name": "Guidonia",
    "state_id": 5636,
    "state_code": "RM",
    "country_id": 107,
    "country_code": "IT",
    "latitude": "41.99232000",
    "longitude": "12.71876000",
    "native": null,
    "timezone": "Europe/Rome",
    "translations": {}
  },
  {
    "id": 139179,
    "name": "Guidonia Montecelio",
    "state_id": 5636,
    "state_code": "RM",
    "country_id": 107,
    "country_code": "IT",
    "latitude": "41.99362000",
    "longitude": "12.72238000",
    "native": null,
    "timezone": "Europe/Rome",
    "translations": {}
  },
  {
    "id": 139275,
    "name": "Jenne",
    "state_id": 5636,
    "state_code": "RM",
    "country_id": 107,
    "country_code": "IT",
    "latitude": "41.88882000",
    "longitude": "13.16959000",
    "native": null,
    "timezone": "Europe/Rome",
    "translations": {}
  },
  {
    "id": 139286,
    "name": "La Botte",
    "state_id": 5636,
    "state_code": "RM",
    "country_id": 107,
    "country_code": "IT",
    "latitude": "41.98176000",
    "longitude": "12.76775000",
    "native": null,
    "timezone": "Europe/Rome",
    "translations": {}
  },
  {
    "id": 139296,
    "name": "La Massimina-Casal Lumbroso",
    "state_id": 5636,
    "state_code": "RM",
    "country_id": 107,
    "country_code": "IT",
    "latitude": "41.87332000",
    "longitude": "12.35694000",
    "native": null,
    "timezone": "Europe/Rome",
    "translations": {}
  },
  {
    "id": 139310,
    "name": "Labico",
    "state_id": 5636,
    "state_code": "RM",
    "country_id": 107,
    "country_code": "IT",
    "latitude": "41.79260000",
    "longitude": "12.87127000",
    "native": null,
    "timezone": "Europe/Rome",
    "translations": {}
  },
  {
    "id": 139318,
    "name": "Ladispoli",
    "state_id": 5636,
    "state_code": "RM",
    "country_id": 107,
    "country_code": "IT",
    "latitude": "41.95068000",
    "longitude": "12.07500000",
    "native": null,
    "timezone": "Europe/Rome",
    "translations": {}
  },
  {
    "id": 139322,
    "name": "Laghetto",
    "state_id": 5636,
    "state_code": "RM",
    "country_id": 107,
    "country_code": "IT",
    "latitude": "41.96734000",
    "longitude": "12.65609000",
    "native": null,
    "timezone": "Europe/Rome",
    "translations": {}
  },
  {
    "id": 139361,
    "name": "Lanuvio",
    "state_id": 5636,
    "state_code": "RM",
    "country_id": 107,
    "country_code": "IT",
    "latitude": "41.67297000",
    "longitude": "12.69403000",
    "native": null,
    "timezone": "Europe/Rome",
    "translations": {}
  },
  {
    "id": 139375,
    "name": "Lariano",
    "state_id": 5636,
    "state_code": "RM",
    "country_id": 107,
    "country_code": "IT",
    "latitude": "41.71847000",
    "longitude": "12.82868000",
    "native": null,
    "timezone": "Europe/Rome",
    "translations": {}
  },
  {
    "id": 139417,
    "name": "Lavinio",
    "state_id": 5636,
    "state_code": "RM",
    "country_id": 107,
    "country_code": "IT",
    "latitude": "41.50350000",
    "longitude": "12.58973000",
    "native": null,
    "timezone": "Europe/Rome",
    "translations": {}
  },
  {
    "id": 139429,
    "name": "Le Rughe",
    "state_id": 5636,
    "state_code": "RM",
    "country_id": 107,
    "country_code": "IT",
    "latitude": "42.06885000",
    "longitude": "12.37624000",
    "native": null,
    "timezone": "Europe/Rome",
    "translations": {}
  },
  {
    "id": 139496,
    "name": "Licenza",
    "state_id": 5636,
    "state_code": "RM",
    "country_id": 107,
    "country_code": "IT",
    "latitude": "42.07413000",
    "longitude": "12.90008000",
    "native": null,
    "timezone": "Europe/Rome",
    "translations": {}
  },
  {
    "id": 139504,
    "name": "Lido dei Pini",
    "state_id": 5636,
    "state_code": "RM",
    "country_id": 107,
    "country_code": "IT",
    "latitude": "41.53660000",
    "longitude": "12.58976000",
    "native": null,
    "timezone": "Europe/Rome",
    "translations": {}
  },
  {
    "id": 139507,
    "name": "Lido di Ostia",
    "state_id": 5636,
    "state_code": "RM",
    "country_id": 107,
    "country_code": "IT",
    "latitude": "41.73212000",
    "longitude": "12.27654000",
    "native": null,
    "timezone": "Europe/Rome",
    "translations": {}
  },
  {
    "id": 139688,
    "name": "Maccarese",
    "state_id": 5636,
    "state_code": "RM",
    "country_id": 107,
    "country_code": "IT",
    "latitude": "41.87696000",
    "longitude": "12.21975000",
    "native": null,
    "timezone": "Europe/Rome",
    "translations": {}
  },
  {
    "id": 139699,
    "name": "Macere",
    "state_id": 5636,
    "state_code": "RM",
    "country_id": 107,
    "country_code": "IT",
    "latitude": "41.74873000",
    "longitude": "12.85835000",
    "native": null,
    "timezone": "Europe/Rome",
    "translations": {}
  },
  {
    "id": 139726,
    "name": "Magliano Romano",
    "state_id": 5636,
    "state_code": "RM",
    "country_id": 107,
    "country_code": "IT",
    "latitude": "42.15750000",
    "longitude": "12.43662000",
    "native": null,
    "timezone": "Europe/Rome",
    "translations": {}
  },
  {
    "id": 139786,
    "name": "Mandela",
    "state_id": 5636,
    "state_code": "RM",
    "country_id": 107,
    "country_code": "IT",
    "latitude": "42.02795000",
    "longitude": "12.92089000",
    "native": null,
    "timezone": "Europe/Rome",
    "translations": {}
  },
  {
    "id": 139808,
    "name": "Mantiglia di Ardea",
    "state_id": 5636,
    "state_code": "RM",
    "country_id": 107,
    "country_code": "IT",
    "latitude": "41.67685000",
    "longitude": "12.61453000",
    "native": null,
    "timezone": "Europe/Rome",
    "translations": {}
  },
  {
    "id": 139813,
    "name": "Manziana",
    "state_id": 5636,
    "state_code": "RM",
    "country_id": 107,
    "country_code": "IT",
    "latitude": "42.12998000",
    "longitude": "12.12537000",
    "native": null,
    "timezone": "Europe/Rome",
    "translations": {}
  },
  {
    "id": 139821,
    "name": "Marano Equo",
    "state_id": 5636,
    "state_code": "RM",
    "country_id": 107,
    "country_code": "IT",
    "latitude": "41.99535000",
    "longitude": "13.01501000",
    "native": null,
    "timezone": "Europe/Rome",
    "translations": {}
  },
  {
    "id": 139838,
    "name": "Marcellina",
    "state_id": 5636,
    "state_code": "RM",
    "country_id": 107,
    "country_code": "IT",
    "latitude": "42.02436000",
    "longitude": "12.80445000",
    "native": null,
    "timezone": "Europe/Rome",
    "translations": {}
  },
  {
    "id": 139853,
    "name": "Marco Simone",
    "state_id": 5636,
    "state_code": "RM",
    "country_id": 107,
    "country_code": "IT",
    "latitude": "41.95544000",
    "longitude": "12.64775000",
    "native": null,
    "timezone": "Europe/Rome",
    "translations": {}
  },
  {
    "id": 139877,
    "name": "Marina di Ardea-Tor San Lorenzo",
    "state_id": 5636,
    "state_code": "RM",
    "country_id": 107,
    "country_code": "IT",
    "latitude": "41.55439000",
    "longitude": "12.54115000",
    "native": null,
    "timezone": "Europe/Rome",
    "translations": {}
  },
  {
    "id": 139883,
    "name": "Marina di Cerveteri",
    "state_id": 5636,
    "state_code": "RM",
    "country_id": 107,
    "country_code": "IT",
    "latitude": "41.97997000",
    "longitude": "12.05295000",
    "native": null,
    "timezone": "Europe/Rome",
    "translations": {}
  },
  {
    "id": 139874,
    "name": "Marina San Nicola",
    "state_id": 5636,
    "state_code": "RM",
    "country_id": 107,
    "country_code": "IT",
    "latitude": "41.93102000",
    "longitude": "12.12024000",
    "native": null,
    "timezone": "Europe/Rome",
    "translations": {}
  },
  {
    "id": 139900,
    "name": "Marino",
    "state_id": 5636,
    "state_code": "RM",
    "country_id": 107,
    "country_code": "IT",
    "latitude": "41.76984000",
    "longitude": "12.65917000",
    "native": null,
    "timezone": "Europe/Rome",
    "translations": {}
  },
  {
    "id": 140006,
    "name": "Mazzano Romano",
    "state_id": 5636,
    "state_code": "RM",
    "country_id": 107,
    "country_code": "IT",
    "latitude": "42.20597000",
    "longitude": "12.39554000",
    "native": null,
    "timezone": "Europe/Rome",
    "translations": {}
  },
  {
    "id": 140065,
    "name": "Mentana",
    "state_id": 5636,
    "state_code": "RM",
    "country_id": 107,
    "country_code": "IT",
    "latitude": "42.03539000",
    "longitude": "12.64413000",
    "native": null,
    "timezone": "Europe/Rome",
    "translations": {}
  },
  {
    "id": 140353,
    "name": "Monte Caminetto",
    "state_id": 5636,
    "state_code": "RM",
    "country_id": 107,
    "country_code": "IT",
    "latitude": "42.06650000",
    "longitude": "12.47358000",
    "native": null,
    "timezone": "Europe/Rome",
    "translations": {}
  },
  {
    "id": 140362,
    "name": "Monte Migliore La Selvotta",
    "state_id": 5636,
    "state_code": "RM",
    "country_id": 107,
    "country_code": "IT",
    "latitude": "41.72060000",
    "longitude": "12.50206000",
    "native": null,
    "timezone": "Europe/Rome",
    "translations": {}
  },
  {
    "id": 140364,
    "name": "Monte Porzio Catone",
    "state_id": 5636,
    "state_code": "RM",
    "country_id": 107,
    "country_code": "IT",
    "latitude": "41.81585000",
    "longitude": "12.71432000",
    "native": null,
    "timezone": "Europe/Rome",
    "translations": {}
  },
  {
    "id": 140413,
    "name": "Montecelio",
    "state_id": 5636,
    "state_code": "RM",
    "country_id": 107,
    "country_code": "IT",
    "latitude": "42.02067000",
    "longitude": "12.74354000",
    "native": null,
    "timezone": "Europe/Rome",
    "translations": {}
  },
  {
    "id": 140419,
    "name": "Montecompatri",
    "state_id": 5636,
    "state_code": "RM",
    "country_id": 107,
    "country_code": "IT",
    "latitude": "41.80892000",
    "longitude": "12.73778000",
    "native": null,
    "timezone": "Europe/Rome",
    "translations": {}
  },
  {
    "id": 140442,
    "name": "Monteflavio",
    "state_id": 5636,
    "state_code": "RM",
    "country_id": 107,
    "country_code": "IT",
    "latitude": "42.10935000",
    "longitude": "12.83076000",
    "native": null,
    "timezone": "Europe/Rome",
    "translations": {}
  },
  {
    "id": 140464,
    "name": "Montelanico",
    "state_id": 5636,
    "state_code": "RM",
    "country_id": 107,
    "country_code": "IT",
    "latitude": "41.65069000",
    "longitude": "13.04027000",
    "native": null,
    "timezone": "Europe/Rome",
    "translations": {}
  },
  {
    "id": 140466,
    "name": "Montelarco",
    "state_id": 5636,
    "state_code": "RM",
    "country_id": 107,
    "country_code": "IT",
    "latitude": "42.16339000",
    "longitude": "12.48398000",
    "native": null,
    "timezone": "Europe/Rome",
    "translations": {}
  },
  {
    "id": 140475,
    "name": "Montelibretti",
    "state_id": 5636,
    "state_code": "RM",
    "country_id": 107,
    "country_code": "IT",
    "latitude": "42.13553000",
    "longitude": "12.73868000",
    "native": null,
    "timezone": "Europe/Rome",
    "translations": {}
  },
  {
    "id": 140526,
    "name": "Monterotondo",
    "state_id": 5636,
    "state_code": "RM",
    "country_id": 107,
    "country_code": "IT",
    "latitude": "42.05159000",
    "longitude": "12.61969000",
    "native": null,
    "timezone": "Europe/Rome",
    "translations": {}
  },
  {
    "id": 140585,
    "name": "Montorio Romano",
    "state_id": 5636,
    "state_code": "RM",
    "country_id": 107,
    "country_code": "IT",
    "latitude": "42.13738000",
    "longitude": "12.80404000",
    "native": null,
    "timezone": "Europe/Rome",
    "translations": {}
  },
  {
    "id": 140617,
    "name": "Moricone",
    "state_id": 5636,
    "state_code": "RM",
    "country_id": 107,
    "country_code": "IT",
    "latitude": "42.11661000",
    "longitude": "12.77234000",
    "native": null,
    "timezone": "Europe/Rome",
    "translations": {}
  },
  {
    "id": 140622,
    "name": "Morlupo",
    "state_id": 5636,
    "state_code": "RM",
    "country_id": 107,
    "country_code": "IT",
    "latitude": "42.15002000",
    "longitude": "12.50306000",
    "native": null,
    "timezone": "Europe/Rome",
    "translations": {}
  },
  {
    "id": 140733,
    "name": "Nazzano",
    "state_id": 5636,
    "state_code": "RM",
    "country_id": 107,
    "country_code": "IT",
    "latitude": "42.23018000",
    "longitude": "12.59440000",
    "native": null,
    "timezone": "Europe/Rome",
    "translations": {}
  },
  {
    "id": 140740,
    "name": "Nemi",
    "state_id": 5636,
    "state_code": "RM",
    "country_id": 107,
    "country_code": "IT",
    "latitude": "41.72185000",
    "longitude": "12.71809000",
    "native": null,
    "timezone": "Europe/Rome",
    "translations": {}
  },
  {
    "id": 140747,
    "name": "Nerola",
    "state_id": 5636,
    "state_code": "RM",
    "country_id": 107,
    "country_code": "IT",
    "latitude": "42.16011000",
    "longitude": "12.78529000",
    "native": null,
    "timezone": "Europe/Rome",
    "translations": {}
  },
  {
    "id": 140753,
    "name": "Nettuno",
    "state_id": 5636,
    "state_code": "RM",
    "country_id": 107,
    "country_code": "IT",
    "latitude": "41.45794000",
    "longitude": "12.66393000",
    "native": null,
    "timezone": "Europe/Rome",
    "translations": {}
  },
  {
    "id": 140889,
    "name": "Olevano Romano",
    "state_id": 5636,
    "state_code": "RM",
    "country_id": 107,
    "country_code": "IT",
    "latitude": "41.85869000",
    "longitude": "13.03601000",
    "native": null,
    "timezone": "Europe/Rome",
    "translations": {}
  },
  {
    "id": 141036,
    "name": "Osteria Nuova",
    "state_id": 5636,
    "state_code": "RM",
    "country_id": 107,
    "country_code": "IT",
    "latitude": "42.03721000",
    "longitude": "12.30924000",
    "native": null,
    "timezone": "Europe/Rome",
    "translations": {}
  },
  {
    "id": 58241,
    "name": "Palestrina",
    "state_id": 5636,
    "state_code": "RM",
    "country_id": 107,
    "country_code": "IT",
    "latitude": "41.83274000",
    "longitude": "12.88178000",
    "native": null,
    "timezone": "Europe/Rome",
    "translations": {}
  },
  {
    "id": 58263,
    "name": "Palombara Sabina",
    "state_id": 5636,
    "state_code": "RM",
    "country_id": 107,
    "country_code": "IT",
    "latitude": "42.06909000",
    "longitude": "12.76684000",
    "native": null,
    "timezone": "Europe/Rome",
    "translations": {}
  },
  {
    "id": 58299,
    "name": "Parco Leonardo",
    "state_id": 5636,
    "state_code": "RM",
    "country_id": 107,
    "country_code": "IT",
    "latitude": "41.80035000",
    "longitude": "12.30028000",
    "native": null,
    "timezone": "Europe/Rome",
    "translations": {}
  },
  {
    "id": 58335,
    "name": "Passoscuro",
    "state_id": 5636,
    "state_code": "RM",
    "country_id": 107,
    "country_code": "IT",
    "latitude": "41.90209000",
    "longitude": "12.15723000",
    "native": null,
    "timezone": "Europe/Rome",
    "translations": {}
  },
  {
    "id": 58362,
    "name": "Pavona",
    "state_id": 5636,
    "state_code": "RM",
    "country_id": 107,
    "country_code": "IT",
    "latitude": "41.72629000",
    "longitude": "12.61642000",
    "native": null,
    "timezone": "Europe/Rome",
    "translations": {}
  },
  {
    "id": 58414,
    "name": "Percile",
    "state_id": 5636,
    "state_code": "RM",
    "country_id": 107,
    "country_code": "IT",
    "latitude": "42.09497000",
    "longitude": "12.91048000",
    "native": null,
    "timezone": "Europe/Rome",
    "translations": {}
  },
  {
    "id": 58712,
    "name": "Pisoniano",
    "state_id": 5636,
    "state_code": "RM",
    "country_id": 107,
    "country_code": "IT",
    "latitude": "41.90816000",
    "longitude": "12.95794000",
    "native": null,
    "timezone": "Europe/Rome",
    "translations": {}
  },
  {
    "id": 58754,
    "name": "Poggio Ellera",
    "state_id": 5636,
    "state_code": "RM",
    "country_id": 107,
    "country_code": "IT",
    "latitude": "42.11380000",
    "longitude": "12.37174000",
    "native": null,
    "timezone": "Europe/Rome",
    "translations": {}
  },
  {
    "id": 58786,
    "name": "Poli",
    "state_id": 5636,
    "state_code": "RM",
    "country_id": 107,
    "country_code": "IT",
    "latitude": "41.88913000",
    "longitude": "12.89037000",
    "native": null,
    "timezone": "Europe/Rome",
    "translations": {}
  },
  {
    "id": 58815,
    "name": "Pomezia",
    "state_id": 5636,
    "state_code": "RM",
    "country_id": 107,
    "country_code": "IT",
    "latitude": "41.66931000",
    "longitude": "12.50124000",
    "native": null,
    "timezone": "Europe/Rome",
    "translations": {}
  },
  {
    "id": 58840,
    "name": "Ponte Galeria-La Pisana",
    "state_id": 5636,
    "state_code": "RM",
    "country_id": 107,
    "country_code": "IT",
    "latitude": "41.84634000",
    "longitude": "12.33925000",
    "native": null,
    "timezone": "Europe/Rome",
    "translations": {}
  },
  {
    "id": 58892,
    "name": "Ponton dell'Elce",
    "state_id": 5636,
    "state_code": "RM",
    "country_id": 107,
    "country_code": "IT",
    "latitude": "42.02270000",
    "longitude": "12.23505000",
    "native": null,
    "timezone": "Europe/Rome",
    "translations": {}
  },
  {
    "id": 58897,
    "name": "Ponzano Romano",
    "state_id": 5636,
    "state_code": "RM",
    "country_id": 107,
    "country_code": "IT",
    "latitude": "42.25693000",
    "longitude": "12.57047000",
    "native": null,
    "timezone": "Europe/Rome",
    "translations": {}
  },
  {
    "id": 59357,
    "name": "Riano",
    "state_id": 5636,
    "state_code": "RM",
    "country_id": 107,
    "country_code": "IT",
    "latitude": "42.09347000",
    "longitude": "12.51462000",
    "native": null,
    "timezone": "Europe/Rome",
    "translations": {}
  },
  {
    "id": 59377,
    "name": "Rignano Flaminio",
    "state_id": 5636,
    "state_code": "RM",
    "country_id": 107,
    "country_code": "IT",
    "latitude": "42.20550000",
    "longitude": "12.48068000",
    "native": null,
    "timezone": "Europe/Rome",
    "translations": {}
  },
  {
    "id": 59391,
    "name": "Riofreddo",
    "state_id": 5636,
    "state_code": "RM",
    "country_id": 107,
    "country_code": "IT",
    "latitude": "42.05875000",
    "longitude": "12.99661000",
    "native": null,
    "timezone": "Europe/Rome",
    "translations": {}
  },
  {
    "id": 59466,
    "name": "Rocca Canterano",
    "state_id": 5636,
    "state_code": "RM",
    "country_id": 107,
    "country_code": "IT",
    "latitude": "41.95652000",
    "longitude": "13.02179000",
    "native": null,
    "timezone": "Europe/Rome",
    "translations": {}
  },
  {
    "id": 59486,
    "name": "Rocca di Cave",
    "state_id": 5636,
    "state_code": "RM",
    "country_id": 107,
    "country_code": "IT",
    "latitude": "41.84589000",
    "longitude": "12.94509000",
    "native": null,
    "timezone": "Europe/Rome",
    "translations": {}
  },
  {
    "id": 59489,
    "name": "Rocca di Papa",
    "state_id": 5636,
    "state_code": "RM",
    "country_id": 107,
    "country_code": "IT",
    "latitude": "41.76580000",
    "longitude": "12.70188000",
    "native": null,
    "timezone": "Europe/Rome",
    "translations": {}
  },
  {
    "id": 59475,
    "name": "Rocca Priora",
    "state_id": 5636,
    "state_code": "RM",
    "country_id": 107,
    "country_code": "IT",
    "latitude": "41.76585000",
    "longitude": "12.76577000",
    "native": null,
    "timezone": "Europe/Rome",
    "translations": {}
  },
  {
    "id": 59479,
    "name": "Rocca Santo Stefano",
    "state_id": 5636,
    "state_code": "RM",
    "country_id": 107,
    "country_code": "IT",
    "latitude": "41.91052000",
    "longitude": "13.02379000",
    "native": null,
    "timezone": "Europe/Rome",
    "translations": {}
  },
  {
    "id": 59502,
    "name": "Roccagiovine",
    "state_id": 5636,
    "state_code": "RM",
    "country_id": 107,
    "country_code": "IT",
    "latitude": "42.05069000",
    "longitude": "12.89925000",
    "native": null,
    "timezone": "Europe/Rome",
    "translations": {}
  },
  {
    "id": 59566,
    "name": "Roiate",
    "state_id": 5636,
    "state_code": "RM",
    "country_id": 107,
    "country_code": "IT",
    "latitude": "41.87332000",
    "longitude": "13.06627000",
    "native": null,
    "timezone": "Europe/Rome",
    "translations": {}
  },
  {
    "id": 59582,
    "name": "Rome",
    "state_id": 5636,
    "state_code": "RM",
    "country_id": 107,
    "country_code": "IT",
    "latitude": "41.89193000",
    "longitude": "12.51133000",
    "native": null,
    "timezone": "Europe/Rome",
    "translations": {}
  },
  {
    "id": 59684,
    "name": "Roviano",
    "state_id": 5636,
    "state_code": "RM",
    "country_id": 107,
    "country_code": "IT",
    "latitude": "42.02643000",
    "longitude": "12.99390000",
    "native": null,
    "timezone": "Europe/Rome",
    "translations": {}
  },
  {
    "id": 59721,
    "name": "Sacrofano",
    "state_id": 5636,
    "state_code": "RM",
    "country_id": 107,
    "country_code": "IT",
    "latitude": "42.10457000",
    "longitude": "12.44781000",
    "native": null,
    "timezone": "Europe/Rome",
    "translations": {}
  },
  {
    "id": 59807,
    "name": "Sambuci",
    "state_id": 5636,
    "state_code": "RM",
    "country_id": 107,
    "country_code": "IT",
    "latitude": "41.98536000",
    "longitude": "12.93817000",
    "native": null,
    "timezone": "Europe/Rome",
    "translations": {}
  },
  {
    "id": 59863,
    "name": "San Cesareo",
    "state_id": 5636,
    "state_code": "RM",
    "country_id": 107,
    "country_code": "IT",
    "latitude": "41.82113000",
    "longitude": "12.80447000",
    "native": null,
    "timezone": "Europe/Rome",
    "translations": {}
  },
  {
    "id": 60023,
    "name": "San Gregorio da Sassola",
    "state_id": 5636,
    "state_code": "RM",
    "country_id": 107,
    "country_code": "IT",
    "latitude": "41.91881000",
    "longitude": "12.87447000",
    "native": null,
    "timezone": "Europe/Rome",
    "translations": {}
  },
  {
    "id": 60206,
    "name": "San Polo dei Cavalieri",
    "state_id": 5636,
    "state_code": "RM",
    "country_id": 107,
    "country_code": "IT",
    "latitude": "42.01037000",
    "longitude": "12.83989000",
    "native": null,
    "timezone": "Europe/Rome",
    "translations": {}
  },
  {
    "id": 60277,
    "name": "San Vito Romano",
    "state_id": 5636,
    "state_code": "RM",
    "country_id": 107,
    "country_code": "IT",
    "latitude": "41.88001000",
    "longitude": "12.97793000",
    "native": null,
    "timezone": "Europe/Rome",
    "translations": {}
  },
  {
    "id": 60361,
    "name": "Sant'Angelo Romano",
    "state_id": 5636,
    "state_code": "RM",
    "country_id": 107,
    "country_code": "IT",
    "latitude": "42.03570000",
    "longitude": "12.71342000",
    "native": null,
    "timezone": "Europe/Rome",
    "translations": {}
  },
  {
    "id": 60410,
    "name": "Sant'Oreste",
    "state_id": 5636,
    "state_code": "RM",
    "country_id": 107,
    "country_code": "IT",
    "latitude": "42.23298000",
    "longitude": "12.51507000",
    "native": null,
    "timezone": "Europe/Rome",
    "translations": {}
  },
  {
    "id": 60446,
    "name": "Santa Lucia",
    "state_id": 5636,
    "state_code": "RM",
    "country_id": 107,
    "country_code": "IT",
    "latitude": "41.98240000",
    "longitude": "12.65625000",
    "native": null,
    "timezone": "Europe/Rome",
    "translations": {}
  },
  {
    "id": 60484,
    "name": "Santa Marinella",
    "state_id": 5636,
    "state_code": "RM",
    "country_id": 107,
    "country_code": "IT",
    "latitude": "42.03425000",
    "longitude": "11.85416000",
    "native": null,
    "timezone": "Europe/Rome",
    "translations": {}
  },
  {
    "id": 60540,
    "name": "Saracinesco",
    "state_id": 5636,
    "state_code": "RM",
    "country_id": 107,
    "country_code": "IT",
    "latitude": "42.00332000",
    "longitude": "12.95329000",
    "native": null,
    "timezone": "Europe/Rome",
    "translations": {}
  },
  {
    "id": 60689,
    "name": "Segni",
    "state_id": 5636,
    "state_code": "RM",
    "country_id": 107,
    "country_code": "IT",
    "latitude": "41.68893000",
    "longitude": "13.01934000",
    "native": null,
    "timezone": "Europe/Rome",
    "translations": {}
  },
  {
    "id": 60694,
    "name": "Selcetta",
    "state_id": 5636,
    "state_code": "RM",
    "country_id": 107,
    "country_code": "IT",
    "latitude": "41.76529000",
    "longitude": "12.47533000",
    "native": null,
    "timezone": "Europe/Rome",
    "translations": {}
  },
  {
    "id": 60808,
    "name": "Setteville",
    "state_id": 5636,
    "state_code": "RM",
    "country_id": 107,
    "country_code": "IT",
    "latitude": "41.94375000",
    "longitude": "12.65122000",
    "native": null,
    "timezone": "Europe/Rome",
    "translations": {}
  },
  {
    "id": 61109,
    "name": "Subiaco",
    "state_id": 5636,
    "state_code": "RM",
    "country_id": 107,
    "country_code": "IT",
    "latitude": "41.92619000",
    "longitude": "13.08906000",
    "native": null,
    "timezone": "Europe/Rome",
    "translations": {}
  },
  {
    "id": 61288,
    "name": "Tivoli",
    "state_id": 5636,
    "state_code": "RM",
    "country_id": 107,
    "country_code": "IT",
    "latitude": "41.95952000",
    "longitude": "12.80160000",
    "native": null,
    "timezone": "Europe/Rome",
    "translations": {}
  },
  {
    "id": 61299,
    "name": "Tolfa",
    "state_id": 5636,
    "state_code": "RM",
    "country_id": 107,
    "country_code": "IT",
    "latitude": "42.15023000",
    "longitude": "11.93216000",
    "native": null,
    "timezone": "Europe/Rome",
    "translations": {}
  },
  {
    "id": 61314,
    "name": "Tor Lupara",
    "state_id": 5636,
    "state_code": "RM",
    "country_id": 107,
    "country_code": "IT",
    "latitude": "41.99771000",
    "longitude": "12.61814000",
    "native": null,
    "timezone": "Europe/Rome",
    "translations": {}
  },
  {
    "id": 61409,
    "name": "Torrita Tiberina",
    "state_id": 5636,
    "state_code": "RM",
    "country_id": 107,
    "country_code": "IT",
    "latitude": "42.23821000",
    "longitude": "12.61633000",
    "native": null,
    "timezone": "Europe/Rome",
    "translations": {}
  },
  {
    "id": 61419,
    "name": "Torvaianica",
    "state_id": 5636,
    "state_code": "RM",
    "country_id": 107,
    "country_code": "IT",
    "latitude": "41.62112000",
    "longitude": "12.46197000",
    "native": null,
    "timezone": "Europe/Rome",
    "translations": {}
  },
  {
    "id": 61420,
    "name": "Torvaianica Alta",
    "state_id": 5636,
    "state_code": "RM",
    "country_id": 107,
    "country_code": "IT",
    "latitude": "41.63162000",
    "longitude": "12.49765000",
    "native": null,
    "timezone": "Europe/Rome",
    "translations": {}
  },
  {
    "id": 61429,
    "name": "Tragliatella Campitello",
    "state_id": 5636,
    "state_code": "RM",
    "country_id": 107,
    "country_code": "IT",
    "latitude": "42.01334000",
    "longitude": "12.25200000",
    "native": null,
    "timezone": "Europe/Rome",
    "translations": {}
  },
  {
    "id": 61506,
    "name": "Trevignano Romano",
    "state_id": 5636,
    "state_code": "RM",
    "country_id": 107,
    "country_code": "IT",
    "latitude": "42.16020000",
    "longitude": "12.23775000",
    "native": null,
    "timezone": "Europe/Rome",
    "translations": {}
  },
  {
    "id": 61648,
    "name": "Valcanneto",
    "state_id": 5636,
    "state_code": "RM",
    "country_id": 107,
    "country_code": "IT",
    "latitude": "41.95078000",
    "longitude": "12.15734000",
    "native": null,
    "timezone": "Europe/Rome",
    "translations": {}
  },
  {
    "id": 61688,
    "name": "Valle Martella",
    "state_id": 5636,
    "state_code": "RM",
    "country_id": 107,
    "country_code": "IT",
    "latitude": "41.87827000",
    "longitude": "12.74677000",
    "native": null,
    "timezone": "Europe/Rome",
    "translations": {}
  },
  {
    "id": 61693,
    "name": "Valle Santa",
    "state_id": 5636,
    "state_code": "RM",
    "country_id": 107,
    "country_code": "IT",
    "latitude": "41.94532000",
    "longitude": "12.31971000",
    "native": null,
    "timezone": "Europe/Rome",
    "translations": {}
  },
  {
    "id": 61712,
    "name": "Vallepietra",
    "state_id": 5636,
    "state_code": "RM",
    "country_id": 107,
    "country_code": "IT",
    "latitude": "41.92552000",
    "longitude": "13.23127000",
    "native": null,
    "timezone": "Europe/Rome",
    "translations": {}
  },
  {
    "id": 61721,
    "name": "Vallinfreda",
    "state_id": 5636,
    "state_code": "RM",
    "country_id": 107,
    "country_code": "IT",
    "latitude": "42.08485000",
    "longitude": "12.99595000",
    "native": null,
    "timezone": "Europe/Rome",
    "translations": {}
  },
  {
    "id": 61732,
    "name": "Valmontone",
    "state_id": 5636,
    "state_code": "RM",
    "country_id": 107,
    "country_code": "IT",
    "latitude": "41.77323000",
    "longitude": "12.91856000",
    "native": null,
    "timezone": "Europe/Rome",
    "translations": {}
  },
  {
    "id": 61802,
    "name": "Velletri",
    "state_id": 5636,
    "state_code": "RM",
    "country_id": 107,
    "country_code": "IT",
    "latitude": "41.68573000",
    "longitude": "12.77753000",
    "native": null,
    "timezone": "Europe/Rome",
    "translations": {}
  },
  {
    "id": 61926,
    "name": "Vicovaro",
    "state_id": 5636,
    "state_code": "RM",
    "country_id": 107,
    "country_code": "IT",
    "latitude": "42.01924000",
    "longitude": "12.90001000",
    "native": null,
    "timezone": "Europe/Rome",
    "translations": {}
  },
  {
    "id": 61984,
    "name": "Villa Adriana",
    "state_id": 5636,
    "state_code": "RM",
    "country_id": 107,
    "country_code": "IT",
    "latitude": "41.95499000",
    "longitude": "12.77216000",
    "native": null,
    "timezone": "Europe/Rome",
    "translations": {}
  },
  {
    "id": 62077,
    "name": "Villalba",
    "state_id": 5636,
    "state_code": "RM",
    "country_id": 107,
    "country_code": "IT",
    "latitude": "41.95387000",
    "longitude": "12.72938000",
    "native": null,
    "timezone": "Europe/Rome",
    "translations": {}
  },
  {
    "id": 62095,
    "name": "Villanova",
    "state_id": 5636,
    "state_code": "RM",
    "country_id": 107,
    "country_code": "IT",
    "latitude": "41.96357000",
    "longitude": "12.75633000",
    "native": null,
    "timezone": "Europe/Rome",
    "translations": {}
  },
  {
    "id": 62182,
    "name": "Vitinia",
    "state_id": 5636,
    "state_code": "RM",
    "country_id": 107,
    "country_code": "IT",
    "latitude": "41.79124000",
    "longitude": "12.40810000",
    "native": null,
    "timezone": "Europe/Rome",
    "translations": {}
  },
  {
    "id": 62191,
    "name": "Vivaro Romano",
    "state_id": 5636,
    "state_code": "RM",
    "country_id": 107,
    "country_code": "IT",
    "latitude": "42.10095000",
    "longitude": "13.00589000",
    "native": null,
    "timezone": "Europe/Rome",
    "translations": {}
  },
  {
    "id": 62231,
    "name": "Zagarolo",
    "state_id": 5636,
    "state_code": "RM",
    "country_id": 107,
    "country_code": "IT",
    "latitude": "41.84159000",
    "longitude": "12.81540000",
    "native": null,
    "timezone": "Europe/Rome",
    "translations": {}
  }
]