[
  {
    "id": 135254,
    "name": "Acerno",
    "state_id": 1720,
    "state_code": "SA",
    "country_id": 107,
    "country_code": "IT",
    "latitude": "40.73771000",
    "longitude": "15.05695000",
    "native": null,
    "timezone": "Europe/Rome",
    "translations": {}
  },
  {
    "id": 135319,
    "name": "Agropoli",
    "state_id": 1720,
    "state_code": "SA",
    "country_id": 107,
    "country_code": "IT",
    "latitude": "40.34923000",
    "longitude": "14.99067000",
    "native": null,
    "timezone": "Europe/Rome",
    "translations": {}
  },
  {
    "id": 135350,
    "name": "Albanella",
    "state_id": 1720,
    "state_code": "SA",
    "country_id": 107,
    "country_code": "IT",
    "latitude": "40.47943000",
    "longitude": "15.11454000",
    "native": null,
    "timezone": "Europe/Rome",
    "translations": {}
  },
  {
    "id": 135399,
    "name": "Alfano",
    "state_id": 1720,
    "state_code": "SA",
    "country_id": 107,
    "country_code": "IT",
    "latitude": "40.17687000",
    "longitude": "15.42450000",
    "native": null,
    "timezone": "Europe/Rome",
    "translations": {}
  },
  {
    "id": 135435,
    "name": "Altavilla Silentina",
    "state_id": 1720,
    "state_code": "SA",
    "country_id": 107,
    "country_code": "IT",
    "latitude": "40.53012000",
    "longitude": "15.13153000",
    "native": null,
    "timezone": "Europe/Rome",
    "translations": {}
  },
  {
    "id": 135456,
    "name": "Amalfi",
    "state_id": 1720,
    "state_code": "SA",
    "country_id": 107,
    "country_code": "IT",
    "latitude": "40.63490000",
    "longitude": "14.60238000",
    "native": null,
    "timezone": "Europe/Rome",
    "translations": {}
  },
  {
    "id": 135500,
    "name": "Angri",
    "state_id": 1720,
    "state_code": "SA",
    "country_id": 107,
    "country_code": "IT",
    "latitude": "40.73815000",
    "longitude": "14.57070000",
    "native": null,
    "timezone": "Europe/Rome",
    "translations": {}
  },
  {
    "id": 135515,
    "name": "Antessano",
    "state_id": 1720,
    "state_code": "SA",
    "country_id": 107,
    "country_code": "IT",
    "latitude": "40.73293000",
    "longitude": "14.77744000",
    "native": null,
    "timezone": "Europe/Rome",
    "translations": {}
  },
  {
    "id": 135543,
    "name": "Aquara",
    "state_id": 1720,
    "state_code": "SA",
    "country_id": 107,
    "country_code": "IT",
    "latitude": "40.44391000",
    "longitude": "15.25386000",
    "native": null,
    "timezone": "Europe/Rome",
    "translations": {}
  },
  {
    "id": 135599,
    "name": "Ariano",
    "state_id": 1720,
    "state_code": "SA",
    "country_id": 107,
    "country_code": "IT",
    "latitude": "40.65668000",
    "longitude": "15.02481000",
    "native": null,
    "timezone": "Europe/Rome",
    "translations": {}
  },
  {
    "id": 135606,
    "name": "Ariola",
    "state_id": 1720,
    "state_code": "SA",
    "country_id": 107,
    "country_code": "IT",
    "latitude": "40.62795000",
    "longitude": "15.43453000",
    "native": null,
    "timezone": "Europe/Rome",
    "translations": {}
  },
  {
    "id": 135653,
    "name": "Ascea",
    "state_id": 1720,
    "state_code": "SA",
    "country_id": 107,
    "country_code": "IT",
    "latitude": "40.14082000",
    "longitude": "15.18583000",
    "native": null,
    "timezone": "Europe/Rome",
    "translations": {}
  },
  {
    "id": 135674,
    "name": "Atena Lucana",
    "state_id": 1720,
    "state_code": "SA",
    "country_id": 107,
    "country_code": "IT",
    "latitude": "40.45464000",
    "longitude": "15.55633000",
    "native": null,
    "timezone": "Europe/Rome",
    "translations": {}
  },
  {
    "id": 135678,
    "name": "Atrani",
    "state_id": 1720,
    "state_code": "SA",
    "country_id": 107,
    "country_code": "IT",
    "latitude": "40.63617000",
    "longitude": "14.60933000",
    "native": null,
    "timezone": "Europe/Rome",
    "translations": {}
  },
  {
    "id": 135686,
    "name": "Auletta",
    "state_id": 1720,
    "state_code": "SA",
    "country_id": 107,
    "country_code": "IT",
    "latitude": "40.56116000",
    "longitude": "15.42313000",
    "native": null,
    "timezone": "Europe/Rome",
    "translations": {}
  },
  {
    "id": 135865,
    "name": "Baronissi",
    "state_id": 1720,
    "state_code": "SA",
    "country_id": 107,
    "country_code": "IT",
    "latitude": "40.74817000",
    "longitude": "14.77380000",
    "native": null,
    "timezone": "Europe/Rome",
    "translations": {}
  },
  {
    "id": 135909,
    "name": "Battipaglia",
    "state_id": 1720,
    "state_code": "SA",
    "country_id": 107,
    "country_code": "IT",
    "latitude": "40.60861000",
    "longitude": "14.98209000",
    "native": null,
    "timezone": "Europe/Rome",
    "translations": {}
  },
  {
    "id": 135945,
    "name": "Bellizzi",
    "state_id": 1720,
    "state_code": "SA",
    "country_id": 107,
    "country_code": "IT",
    "latitude": "40.61981000",
    "longitude": "14.94685000",
    "native": null,
    "timezone": "Europe/Rome",
    "translations": {}
  },
  {
    "id": 135948,
    "name": "Bellosguardo",
    "state_id": 1720,
    "state_code": "SA",
    "country_id": 107,
    "country_code": "IT",
    "latitude": "40.42222000",
    "longitude": "15.31219000",
    "native": null,
    "timezone": "Europe/Rome",
    "translations": {}
  },
  {
    "id": 136073,
    "name": "Bivio Santa Cecilia",
    "state_id": 1720,
    "state_code": "SA",
    "country_id": 107,
    "country_code": "IT",
    "latitude": "40.52224000",
    "longitude": "15.00018000",
    "native": null,
    "timezone": "Europe/Rome",
    "translations": {}
  },
  {
    "id": 136282,
    "name": "Bracigliano",
    "state_id": 1720,
    "state_code": "SA",
    "country_id": 107,
    "country_code": "IT",
    "latitude": "40.81880000",
    "longitude": "14.70772000",
    "native": null,
    "timezone": "Europe/Rome",
    "translations": {}
  },
  {
    "id": 136388,
    "name": "Buccino",
    "state_id": 1720,
    "state_code": "SA",
    "country_id": 107,
    "country_code": "IT",
    "latitude": "40.63670000",
    "longitude": "15.38116000",
    "native": null,
    "timezone": "Europe/Rome",
    "translations": {}
  },
  {
    "id": 136405,
    "name": "Buonabitacolo",
    "state_id": 1720,
    "state_code": "SA",
    "country_id": 107,
    "country_code": "IT",
    "latitude": "40.26855000",
    "longitude": "15.62119000",
    "native": null,
    "timezone": "Europe/Rome",
    "translations": {}
  },
  {
    "id": 136466,
    "name": "Caggiano",
    "state_id": 1720,
    "state_code": "SA",
    "country_id": 107,
    "country_code": "IT",
    "latitude": "40.56240000",
    "longitude": "15.49629000",
    "native": null,
    "timezone": "Europe/Rome",
    "translations": {}
  },
  {
    "id": 136551,
    "name": "Calvanico",
    "state_id": 1720,
    "state_code": "SA",
    "country_id": 107,
    "country_code": "IT",
    "latitude": "40.77616000",
    "longitude": "14.82697000",
    "native": null,
    "timezone": "Europe/Rome",
    "translations": {}
  },
  {
    "id": 136585,
    "name": "Camerota",
    "state_id": 1720,
    "state_code": "SA",
    "country_id": 107,
    "country_code": "IT",
    "latitude": "40.03262000",
    "longitude": "15.37048000",
    "native": null,
    "timezone": "Europe/Rome",
    "translations": {}
  },
  {
    "id": 136599,
    "name": "Campagna",
    "state_id": 1720,
    "state_code": "SA",
    "country_id": 107,
    "country_code": "IT",
    "latitude": "40.66661000",
    "longitude": "15.10638000",
    "native": null,
    "timezone": "Europe/Rome",
    "translations": {}
  },
  {
    "id": 136672,
    "name": "Campora",
    "state_id": 1720,
    "state_code": "SA",
    "country_id": 107,
    "country_code": "IT",
    "latitude": "40.30541000",
    "longitude": "15.29236000",
    "native": null,
    "timezone": "Europe/Rome",
    "translations": {}
  },
  {
    "id": 136718,
    "name": "Cannalonga",
    "state_id": 1720,
    "state_code": "SA",
    "country_id": 107,
    "country_code": "IT",
    "latitude": "40.24461000",
    "longitude": "15.29325000",
    "native": null,
    "timezone": "Europe/Rome",
    "translations": {}
  },
  {
    "id": 136756,
    "name": "Capaccio",
    "state_id": 1720,
    "state_code": "SA",
    "country_id": 107,
    "country_code": "IT",
    "latitude": "40.42435000",
    "longitude": "15.07981000",
    "native": null,
    "timezone": "Europe/Rome",
    "translations": {}
  },
  {
    "id": 136757,
    "name": "Capaccio Scalo",
    "state_id": 1720,
    "state_code": "SA",
    "country_id": 107,
    "country_code": "IT",
    "latitude": "40.45531000",
    "longitude": "15.00891000",
    "native": null,
    "timezone": "Europe/Rome",
    "translations": {}
  },
  {
    "id": 136766,
    "name": "Capezzano Inferiore",
    "state_id": 1720,
    "state_code": "SA",
    "country_id": 107,
    "country_code": "IT",
    "latitude": "40.70067000",
    "longitude": "14.77301000",
    "native": null,
    "timezone": "Europe/Rome",
    "translations": {}
  },
  {
    "id": 136767,
    "name": "Capezzano-Cologna",
    "state_id": 1720,
    "state_code": "SA",
    "country_id": 107,
    "country_code": "IT",
    "latitude": "40.71518000",
    "longitude": "14.77364000",
    "native": null,
    "timezone": "Europe/Rome",
    "translations": {}
  },
  {
    "id": 136775,
    "name": "Capitignano",
    "state_id": 1720,
    "state_code": "SA",
    "country_id": 107,
    "country_code": "IT",
    "latitude": "40.71851000",
    "longitude": "14.90465000",
    "native": null,
    "timezone": "Europe/Rome",
    "translations": {}
  },
  {
    "id": 136818,
    "name": "Capriglia",
    "state_id": 1720,
    "state_code": "SA",
    "country_id": 107,
    "country_code": "IT",
    "latitude": "40.73216000",
    "longitude": "14.76035000",
    "native": null,
    "timezone": "Europe/Rome",
    "translations": {}
  },
  {
    "id": 136876,
    "name": "Carifi-Torello-Priscoli",
    "state_id": 1720,
    "state_code": "SA",
    "country_id": 107,
    "country_code": "IT",
    "latitude": "40.79136000",
    "longitude": "14.73212000",
    "native": null,
    "timezone": "Europe/Rome",
    "translations": {}
  },
  {
    "id": 136959,
    "name": "Casal Velino",
    "state_id": 1720,
    "state_code": "SA",
    "country_id": 107,
    "country_code": "IT",
    "latitude": "40.19034000",
    "longitude": "15.11137000",
    "native": null,
    "timezone": "Europe/Rome",
    "translations": {}
  },
  {
    "id": 136968,
    "name": "Casalbuono",
    "state_id": 1720,
    "state_code": "SA",
    "country_id": 107,
    "country_code": "IT",
    "latitude": "40.21425000",
    "longitude": "15.68717000",
    "native": null,
    "timezone": "Europe/Rome",
    "translations": {}
  },
  {
    "id": 136987,
    "name": "Casaletto Spartano",
    "state_id": 1720,
    "state_code": "SA",
    "country_id": 107,
    "country_code": "IT",
    "latitude": "40.15134000",
    "longitude": "15.62058000",
    "native": null,
    "timezone": "Europe/Rome",
    "translations": {}
  },
  {
    "id": 136994,
    "name": "Casali-San Potito",
    "state_id": 1720,
    "state_code": "SA",
    "country_id": 107,
    "country_code": "IT",
    "latitude": "40.76390000",
    "longitude": "14.67501000",
    "native": null,
    "timezone": "Europe/Rome",
    "translations": {}
  },
  {
    "id": 137063,
    "name": "Caselle in Pittari",
    "state_id": 1720,
    "state_code": "SA",
    "country_id": 107,
    "country_code": "IT",
    "latitude": "40.17319000",
    "longitude": "15.54311000",
    "native": null,
    "timezone": "Europe/Rome",
    "translations": {}
  },
  {
    "id": 137150,
    "name": "Castel San Giorgio",
    "state_id": 1720,
    "state_code": "SA",
    "country_id": 107,
    "country_code": "IT",
    "latitude": "40.78198000",
    "longitude": "14.70090000",
    "native": null,
    "timezone": "Europe/Rome",
    "translations": {}
  },
  {
    "id": 137152,
    "name": "Castel San Lorenzo",
    "state_id": 1720,
    "state_code": "SA",
    "country_id": 107,
    "country_code": "IT",
    "latitude": "40.41979000",
    "longitude": "15.22523000",
    "native": null,
    "timezone": "Europe/Rome",
    "translations": {}
  },
  {
    "id": 137185,
    "name": "Castelcivita",
    "state_id": 1720,
    "state_code": "SA",
    "country_id": 107,
    "country_code": "IT",
    "latitude": "40.49367000",
    "longitude": "15.23354000",
    "native": null,
    "timezone": "Europe/Rome",
    "translations": {}
  },
  {
    "id": 137288,
    "name": "Castelnuovo Cilento",
    "state_id": 1720,
    "state_code": "SA",
    "country_id": 107,
    "country_code": "IT",
    "latitude": "40.21846000",
    "longitude": "15.17802000",
    "native": null,
    "timezone": "Europe/Rome",
    "translations": {}
  },
  {
    "id": 137300,
    "name": "Castelnuovo di Conza",
    "state_id": 1720,
    "state_code": "SA",
    "country_id": 107,
    "country_code": "IT",
    "latitude": "40.82062000",
    "longitude": "15.31875000",
    "native": null,
    "timezone": "Europe/Rome",
    "translations": {}
  },
  {
    "id": 137352,
    "name": "Castiglione del Genovesi",
    "state_id": 1720,
    "state_code": "SA",
    "country_id": 107,
    "country_code": "IT",
    "latitude": "40.72367000",
    "longitude": "14.84796000",
    "native": null,
    "timezone": "Europe/Rome",
    "translations": {}
  },
  {
    "id": 137401,
    "name": "Cava Dè Tirreni",
    "state_id": 1720,
    "state_code": "SA",
    "country_id": 107,
    "country_code": "IT",
    "latitude": "40.69954000",
    "longitude": "14.70773000",
    "native": null,
    "timezone": "Europe/Rome",
    "translations": {}
  },
  {
    "id": 137475,
    "name": "Celle di Bulgheria",
    "state_id": 1720,
    "state_code": "SA",
    "country_id": 107,
    "country_code": "IT",
    "latitude": "40.09540000",
    "longitude": "15.40324000",
    "native": null,
    "timezone": "Europe/Rome",
    "translations": {}
  },
  {
    "id": 137499,
    "name": "Centola",
    "state_id": 1720,
    "state_code": "SA",
    "country_id": 107,
    "country_code": "IT",
    "latitude": "40.06980000",
    "longitude": "15.31191000",
    "native": null,
    "timezone": "Europe/Rome",
    "translations": {}
  },
  {
    "id": 137503,
    "name": "Centro Urbano",
    "state_id": 1720,
    "state_code": "SA",
    "country_id": 107,
    "country_code": "IT",
    "latitude": "40.81986000",
    "longitude": "15.31953000",
    "native": null,
    "timezone": "Europe/Rome",
    "translations": {}
  },
  {
    "id": 137517,
    "name": "Ceraso",
    "state_id": 1720,
    "state_code": "SA",
    "country_id": 107,
    "country_code": "IT",
    "latitude": "40.19430000",
    "longitude": "15.25606000",
    "native": null,
    "timezone": "Europe/Rome",
    "translations": {}
  },
  {
    "id": 137620,
    "name": "Cetara",
    "state_id": 1720,
    "state_code": "SA",
    "country_id": 107,
    "country_code": "IT",
    "latitude": "40.64756000",
    "longitude": "14.70091000",
    "native": null,
    "timezone": "Europe/Rome",
    "translations": {}
  },
  {
    "id": 137710,
    "name": "Cicerale",
    "state_id": 1720,
    "state_code": "SA",
    "country_id": 107,
    "country_code": "IT",
    "latitude": "40.34404000",
    "longitude": "15.12959000",
    "native": null,
    "timezone": "Europe/Rome",
    "translations": {}
  },
  {
    "id": 137902,
    "name": "Colliano",
    "state_id": 1720,
    "state_code": "SA",
    "country_id": 107,
    "country_code": "IT",
    "latitude": "40.72293000",
    "longitude": "15.28969000",
    "native": null,
    "timezone": "Europe/Rome",
    "translations": {}
  },
  {
    "id": 137954,
    "name": "Conca dei Marini",
    "state_id": 1720,
    "state_code": "SA",
    "country_id": 107,
    "country_code": "IT",
    "latitude": "40.61754000",
    "longitude": "14.57311000",
    "native": null,
    "timezone": "Europe/Rome",
    "translations": {}
  },
  {
    "id": 137981,
    "name": "Controne",
    "state_id": 1720,
    "state_code": "SA",
    "country_id": 107,
    "country_code": "IT",
    "latitude": "40.51018000",
    "longitude": "15.20404000",
    "native": null,
    "timezone": "Europe/Rome",
    "translations": {}
  },
  {
    "id": 137982,
    "name": "Contursi Terme",
    "state_id": 1720,
    "state_code": "SA",
    "country_id": 107,
    "country_code": "IT",
    "latitude": "40.65026000",
    "longitude": "15.24163000",
    "native": null,
    "timezone": "Europe/Rome",
    "translations": {}
  },
  {
    "id": 137985,
    "name": "Coperchia",
    "state_id": 1720,
    "state_code": "SA",
    "country_id": 107,
    "country_code": "IT",
    "latitude": "40.72005000",
    "longitude": "14.76654000",
    "native": null,
    "timezone": "Europe/Rome",
    "translations": {}
  },
  {
    "id": 137993,
    "name": "Corbara",
    "state_id": 1720,
    "state_code": "SA",
    "country_id": 107,
    "country_code": "IT",
    "latitude": "40.72278000",
    "longitude": "14.59187000",
    "native": null,
    "timezone": "Europe/Rome",
    "translations": {}
  },
  {
    "id": 138018,
    "name": "Corleto Monforte",
    "state_id": 1720,
    "state_code": "SA",
    "country_id": 107,
    "country_code": "IT",
    "latitude": "40.43756000",
    "longitude": "15.38013000",
    "native": null,
    "timezone": "Europe/Rome",
    "translations": {}
  },
  {
    "id": 138179,
    "name": "Cuccaro Vetere",
    "state_id": 1720,
    "state_code": "SA",
    "country_id": 107,
    "country_code": "IT",
    "latitude": "40.16404000",
    "longitude": "15.30677000",
    "native": null,
    "timezone": "Europe/Rome",
    "translations": {}
  },
  {
    "id": 138325,
    "name": "Dragonea",
    "state_id": 1720,
    "state_code": "SA",
    "country_id": 107,
    "country_code": "IT",
    "latitude": "40.67917000",
    "longitude": "14.71094000",
    "native": null,
    "timezone": "Europe/Rome",
    "translations": {}
  },
  {
    "id": 138348,
    "name": "Eboli",
    "state_id": 1720,
    "state_code": "SA",
    "country_id": 107,
    "country_code": "IT",
    "latitude": "40.61747000",
    "longitude": "15.05693000",
    "native": null,
    "timezone": "Europe/Rome",
    "translations": {}
  },
  {
    "id": 138411,
    "name": "Faiano",
    "state_id": 1720,
    "state_code": "SA",
    "country_id": 107,
    "country_code": "IT",
    "latitude": "40.66254000",
    "longitude": "14.90244000",
    "native": null,
    "timezone": "Europe/Rome",
    "translations": {}
  },
  {
    "id": 138444,
    "name": "Faraldo-Nocelleto",
    "state_id": 1720,
    "state_code": "SA",
    "country_id": 107,
    "country_code": "IT",
    "latitude": "40.77992000",
    "longitude": "14.76363000",
    "native": null,
    "timezone": "Europe/Rome",
    "translations": {}
  },
  {
    "id": 138470,
    "name": "Felitto",
    "state_id": 1720,
    "state_code": "SA",
    "country_id": 107,
    "country_code": "IT",
    "latitude": "40.37351000",
    "longitude": "15.24306000",
    "native": null,
    "timezone": "Europe/Rome",
    "translations": {}
  },
  {
    "id": 138545,
    "name": "Fisciano",
    "state_id": 1720,
    "state_code": "SA",
    "country_id": 107,
    "country_code": "IT",
    "latitude": "40.77175000",
    "longitude": "14.79454000",
    "native": null,
    "timezone": "Europe/Rome",
    "translations": {}
  },
  {
    "id": 138753,
    "name": "Fuorni",
    "state_id": 1720,
    "state_code": "SA",
    "country_id": 107,
    "country_code": "IT",
    "latitude": "40.64063000",
    "longitude": "14.84925000",
    "native": null,
    "timezone": "Europe/Rome",
    "translations": {}
  },
  {
    "id": 138758,
    "name": "Furore",
    "state_id": 1720,
    "state_code": "SA",
    "country_id": 107,
    "country_code": "IT",
    "latitude": "40.62061000",
    "longitude": "14.54904000",
    "native": null,
    "timezone": "Europe/Rome",
    "translations": {}
  },
  {
    "id": 138764,
    "name": "Futani",
    "state_id": 1720,
    "state_code": "SA",
    "country_id": 107,
    "country_code": "IT",
    "latitude": "40.15156000",
    "longitude": "15.32366000",
    "native": null,
    "timezone": "Europe/Rome",
    "translations": {}
  },
  {
    "id": 138957,
    "name": "Giffoni Valle Piana",
    "state_id": 1720,
    "state_code": "SA",
    "country_id": 107,
    "country_code": "IT",
    "latitude": "40.71811000",
    "longitude": "14.94235000",
    "native": null,
    "timezone": "Europe/Rome",
    "translations": {}
  },
  {
    "id": 138967,
    "name": "Gioi",
    "state_id": 1720,
    "state_code": "SA",
    "country_id": 107,
    "country_code": "IT",
    "latitude": "40.28970000",
    "longitude": "15.21806000",
    "native": null,
    "timezone": "Europe/Rome",
    "translations": {}
  },
  {
    "id": 138995,
    "name": "Giungano",
    "state_id": 1720,
    "state_code": "SA",
    "country_id": 107,
    "country_code": "IT",
    "latitude": "40.39450000",
    "longitude": "15.10792000",
    "native": null,
    "timezone": "Europe/Rome",
    "translations": {}
  },
  {
    "id": 139258,
    "name": "Ispani",
    "state_id": 1720,
    "state_code": "SA",
    "country_id": 107,
    "country_code": "IT",
    "latitude": "40.08730000",
    "longitude": "15.55827000",
    "native": null,
    "timezone": "Europe/Rome",
    "translations": {}
  },
  {
    "id": 139355,
    "name": "Lancusi-Penta-Bolano",
    "state_id": 1720,
    "state_code": "SA",
    "country_id": 107,
    "country_code": "IT",
    "latitude": "40.76125000",
    "longitude": "14.78524000",
    "native": null,
    "timezone": "Europe/Rome",
    "translations": {}
  },
  {
    "id": 139364,
    "name": "Lanzara",
    "state_id": 1720,
    "state_code": "SA",
    "country_id": 107,
    "country_code": "IT",
    "latitude": "40.77473000",
    "longitude": "14.67619000",
    "native": null,
    "timezone": "Europe/Rome",
    "translations": {}
  },
  {
    "id": 139396,
    "name": "Laura",
    "state_id": 1720,
    "state_code": "SA",
    "country_id": 107,
    "country_code": "IT",
    "latitude": "40.43220000",
    "longitude": "14.98886000",
    "native": null,
    "timezone": "Europe/Rome",
    "translations": {}
  },
  {
    "id": 139397,
    "name": "Laureana Cilento",
    "state_id": 1720,
    "state_code": "SA",
    "country_id": 107,
    "country_code": "IT",
    "latitude": "40.30110000",
    "longitude": "15.03876000",
    "native": null,
    "timezone": "Europe/Rome",
    "translations": {}
  },
  {
    "id": 139404,
    "name": "Laurino",
    "state_id": 1720,
    "state_code": "SA",
    "country_id": 107,
    "country_code": "IT",
    "latitude": "40.33915000",
    "longitude": "15.33810000",
    "native": null,
    "timezone": "Europe/Rome",
    "translations": {}
  },
  {
    "id": 139405,
    "name": "Laurito",
    "state_id": 1720,
    "state_code": "SA",
    "country_id": 107,
    "country_code": "IT",
    "latitude": "40.16915000",
    "longitude": "15.40741000",
    "native": null,
    "timezone": "Europe/Rome",
    "translations": {}
  },
  {
    "id": 139415,
    "name": "Laviano",
    "state_id": 1720,
    "state_code": "SA",
    "country_id": 107,
    "country_code": "IT",
    "latitude": "40.78619000",
    "longitude": "15.30791000",
    "native": null,
    "timezone": "Europe/Rome",
    "translations": {}
  },
  {
    "id": 139497,
    "name": "Licinella-Torre di Paestum",
    "state_id": 1720,
    "state_code": "SA",
    "country_id": 107,
    "country_code": "IT",
    "latitude": "40.40656000",
    "longitude": "14.99764000",
    "native": null,
    "timezone": "Europe/Rome",
    "translations": {}
  },
  {
    "id": 139499,
    "name": "Licusati",
    "state_id": 1720,
    "state_code": "SA",
    "country_id": 107,
    "country_code": "IT",
    "latitude": "40.05410000",
    "longitude": "15.36437000",
    "native": null,
    "timezone": "Europe/Rome",
    "translations": {}
  },
  {
    "id": 139679,
    "name": "Lustra",
    "state_id": 1720,
    "state_code": "SA",
    "country_id": 107,
    "country_code": "IT",
    "latitude": "40.28830000",
    "longitude": "15.06826000",
    "native": null,
    "timezone": "Europe/Rome",
    "translations": {}
  },
  {
    "id": 139690,
    "name": "Macchia",
    "state_id": 1720,
    "state_code": "SA",
    "country_id": 107,
    "country_code": "IT",
    "latitude": "40.65353000",
    "longitude": "14.97879000",
    "native": null,
    "timezone": "Europe/Rome",
    "translations": {}
  },
  {
    "id": 139728,
    "name": "Magliano Vetere",
    "state_id": 1720,
    "state_code": "SA",
    "country_id": 107,
    "country_code": "IT",
    "latitude": "40.34701000",
    "longitude": "15.23666000",
    "native": null,
    "timezone": "Europe/Rome",
    "translations": {}
  },
  {
    "id": 139749,
    "name": "Maiori",
    "state_id": 1720,
    "state_code": "SA",
    "country_id": 107,
    "country_code": "IT",
    "latitude": "40.64848000",
    "longitude": "14.64070000",
    "native": null,
    "timezone": "Europe/Rome",
    "translations": {}
  },
  {
    "id": 139759,
    "name": "Malche-Santa Croce-Serroni",
    "state_id": 1720,
    "state_code": "SA",
    "country_id": 107,
    "country_code": "IT",
    "latitude": "40.70925000",
    "longitude": "14.90668000",
    "native": null,
    "timezone": "Europe/Rome",
    "translations": {}
  },
  {
    "id": 139878,
    "name": "Marina di Camerota",
    "state_id": 1720,
    "state_code": "SA",
    "country_id": 107,
    "country_code": "IT",
    "latitude": "40.00356000",
    "longitude": "15.36717000",
    "native": null,
    "timezone": "Europe/Rome",
    "translations": {}
  },
  {
    "id": 139882,
    "name": "Marina di Casal Velino",
    "state_id": 1720,
    "state_code": "SA",
    "country_id": 107,
    "country_code": "IT",
    "latitude": "40.17665000",
    "longitude": "15.12218000",
    "native": null,
    "timezone": "Europe/Rome",
    "translations": {}
  },
  {
    "id": 139996,
    "name": "Matinella",
    "state_id": 1720,
    "state_code": "SA",
    "country_id": 107,
    "country_code": "IT",
    "latitude": "40.50158000",
    "longitude": "15.06692000",
    "native": null,
    "timezone": "Europe/Rome",
    "translations": {}
  },
  {
    "id": 140076,
    "name": "Mercato",
    "state_id": 1720,
    "state_code": "SA",
    "country_id": 107,
    "country_code": "IT",
    "latitude": "40.71612000",
    "longitude": "14.94010000",
    "native": null,
    "timezone": "Europe/Rome",
    "translations": {}
  },
  {
    "id": 140077,
    "name": "Mercato San Severino",
    "state_id": 1720,
    "state_code": "SA",
    "country_id": 107,
    "country_code": "IT",
    "latitude": "40.78468000",
    "longitude": "14.75369000",
    "native": null,
    "timezone": "Europe/Rome",
    "translations": {}
  },
  {
    "id": 140161,
    "name": "Minori",
    "state_id": 1720,
    "state_code": "SA",
    "country_id": 107,
    "country_code": "IT",
    "latitude": "40.65030000",
    "longitude": "14.62684000",
    "native": null,
    "timezone": "Europe/Rome",
    "translations": {}
  },
  {
    "id": 140207,
    "name": "Moio della Civitella-Pellare",
    "state_id": 1720,
    "state_code": "SA",
    "country_id": 107,
    "country_code": "IT",
    "latitude": "40.24710000",
    "longitude": "15.26886000",
    "native": null,
    "timezone": "Europe/Rome",
    "translations": {}
  },
  {
    "id": 140343,
    "name": "Montano Antilia",
    "state_id": 1720,
    "state_code": "SA",
    "country_id": 107,
    "country_code": "IT",
    "latitude": "40.16264000",
    "longitude": "15.36315000",
    "native": null,
    "timezone": "Europe/Rome",
    "translations": {}
  },
  {
    "id": 140369,
    "name": "Monte San Giacomo",
    "state_id": 1720,
    "state_code": "SA",
    "country_id": 107,
    "country_code": "IT",
    "latitude": "40.34411000",
    "longitude": "15.54221000",
    "native": null,
    "timezone": "Europe/Rome",
    "translations": {}
  },
  {
    "id": 140420,
    "name": "Montecorice",
    "state_id": 1720,
    "state_code": "SA",
    "country_id": 107,
    "country_code": "IT",
    "latitude": "40.23444000",
    "longitude": "14.98504000",
    "native": null,
    "timezone": "Europe/Rome",
    "translations": {}
  },
  {
    "id": 140421,
    "name": "Montecorvino Pugliano",
    "state_id": 1720,
    "state_code": "SA",
    "country_id": 107,
    "country_code": "IT",
    "latitude": "40.67921000",
    "longitude": "14.94475000",
    "native": null,
    "timezone": "Europe/Rome",
    "translations": {}
  },
  {
    "id": 140422,
    "name": "Montecorvino Rovella",
    "state_id": 1720,
    "state_code": "SA",
    "country_id": 107,
    "country_code": "IT",
    "latitude": "40.69180000",
    "longitude": "14.97862000",
    "native": null,
    "timezone": "Europe/Rome",
    "translations": {}
  },
  {
    "id": 140443,
    "name": "Monteforte Cilento",
    "state_id": 1720,
    "state_code": "SA",
    "country_id": 107,
    "country_code": "IT",
    "latitude": "40.36481000",
    "longitude": "15.19486000",
    "native": null,
    "timezone": "Europe/Rome",
    "translations": {}
  },
  {
    "id": 140531,
    "name": "Montesano sulla Marcellana",
    "state_id": 1720,
    "state_code": "SA",
    "country_id": 107,
    "country_code": "IT",
    "latitude": "40.27610000",
    "longitude": "15.70390000",
    "native": null,
    "timezone": "Europe/Rome",
    "translations": {}
  },
  {
    "id": 140558,
    "name": "Monticelli",
    "state_id": 1720,
    "state_code": "SA",
    "country_id": 107,
    "country_code": "IT",
    "latitude": "40.65000000",
    "longitude": "15.01667000",
    "native": null,
    "timezone": "Europe/Rome",
    "translations": {}
  },
  {
    "id": 140587,
    "name": "Montoro Superiore",
    "state_id": 1720,
    "state_code": "SA",
    "country_id": 107,
    "country_code": "IT",
    "latitude": "40.81699000",
    "longitude": "14.79841000",
    "native": null,
    "timezone": "Europe/Rome",
    "translations": {}
  },
  {
    "id": 140618,
    "name": "Morigerati",
    "state_id": 1720,
    "state_code": "SA",
    "country_id": 107,
    "country_code": "IT",
    "latitude": "40.14056000",
    "longitude": "15.55508000",
    "native": null,
    "timezone": "Europe/Rome",
    "translations": {}
  },
  {
    "id": 140782,
    "name": "Nocera Inferiore",
    "state_id": 1720,
    "state_code": "SA",
    "country_id": 107,
    "country_code": "IT",
    "latitude": "40.74540000",
    "longitude": "14.64542000",
    "native": null,
    "timezone": "Europe/Rome",
    "translations": {}
  },
  {
    "id": 140784,
    "name": "Nocera Superiore",
    "state_id": 1720,
    "state_code": "SA",
    "country_id": 107,
    "country_code": "IT",
    "latitude": "40.74248000",
    "longitude": "14.67447000",
    "native": null,
    "timezone": "Europe/Rome",
    "translations": {}
  },
  {
    "id": 140836,
    "name": "Novi Velia",
    "state_id": 1720,
    "state_code": "SA",
    "country_id": 107,
    "country_code": "IT",
    "latitude": "40.22262000",
    "longitude": "15.28600000",
    "native": null,
    "timezone": "Europe/Rome",
    "translations": {}
  },
  {
    "id": 140883,
    "name": "Ogliastro Cilento",
    "state_id": 1720,
    "state_code": "SA",
    "country_id": 107,
    "country_code": "IT",
    "latitude": "40.35113000",
    "longitude": "15.04638000",
    "native": null,
    "timezone": "Europe/Rome",
    "translations": {}
  },
  {
    "id": 140891,
    "name": "Olevano sul Tusciano",
    "state_id": 1720,
    "state_code": "SA",
    "country_id": 107,
    "country_code": "IT",
    "latitude": "40.65721000",
    "longitude": "15.02305000",
    "native": null,
    "timezone": "Europe/Rome",
    "translations": {}
  },
  {
    "id": 140901,
    "name": "Oliveto Citra",
    "state_id": 1720,
    "state_code": "SA",
    "country_id": 107,
    "country_code": "IT",
    "latitude": "40.69039000",
    "longitude": "15.23346000",
    "native": null,
    "timezone": "Europe/Rome",
    "translations": {}
  },
  {
    "id": 140919,
    "name": "Omignano",
    "state_id": 1720,
    "state_code": "SA",
    "country_id": 107,
    "country_code": "IT",
    "latitude": "40.24932000",
    "longitude": "15.08406000",
    "native": null,
    "timezone": "Europe/Rome",
    "translations": {}
  },
  {
    "id": 140968,
    "name": "Orria",
    "state_id": 1720,
    "state_code": "SA",
    "country_id": 107,
    "country_code": "IT",
    "latitude": "40.29971000",
    "longitude": "15.17116000",
    "native": null,
    "timezone": "Europe/Rome",
    "translations": {}
  },
  {
    "id": 141048,
    "name": "Ottati",
    "state_id": 1720,
    "state_code": "SA",
    "country_id": 107,
    "country_code": "IT",
    "latitude": "40.46291000",
    "longitude": "15.31526000",
    "native": null,
    "timezone": "Europe/Rome",
    "translations": {}
  },
  {
    "id": 141088,
    "name": "Padula",
    "state_id": 1720,
    "state_code": "SA",
    "country_id": 107,
    "country_code": "IT",
    "latitude": "40.33901000",
    "longitude": "15.65634000",
    "native": null,
    "timezone": "Europe/Rome",
    "translations": {}
  },
  {
    "id": 141094,
    "name": "Pagani",
    "state_id": 1720,
    "state_code": "SA",
    "country_id": 107,
    "country_code": "IT",
    "latitude": "40.74199000",
    "longitude": "14.61448000",
    "native": null,
    "timezone": "Europe/Rome",
    "translations": {}
  },
  {
    "id": 58208,
    "name": "Pagliarone",
    "state_id": 1720,
    "state_code": "SA",
    "country_id": 107,
    "country_code": "IT",
    "latitude": "40.63006000",
    "longitude": "14.91325000",
    "native": null,
    "timezone": "Europe/Rome",
    "translations": {}
  },
  {
    "id": 58245,
    "name": "Palinuro",
    "state_id": 1720,
    "state_code": "SA",
    "country_id": 107,
    "country_code": "IT",
    "latitude": "40.03681000",
    "longitude": "15.28812000",
    "native": null,
    "timezone": "Europe/Rome",
    "translations": {}
  },
  {
    "id": 58265,
    "name": "Palomonte",
    "state_id": 1720,
    "state_code": "SA",
    "country_id": 107,
    "country_code": "IT",
    "latitude": "40.66251000",
    "longitude": "15.29186000",
    "native": null,
    "timezone": "Europe/Rome",
    "translations": {}
  },
  {
    "id": 58395,
    "name": "Pellezzano",
    "state_id": 1720,
    "state_code": "SA",
    "country_id": 107,
    "country_code": "IT",
    "latitude": "40.72521000",
    "longitude": "14.75744000",
    "native": null,
    "timezone": "Europe/Rome",
    "translations": {}
  },
  {
    "id": 58418,
    "name": "Perdifumo",
    "state_id": 1720,
    "state_code": "SA",
    "country_id": 107,
    "country_code": "IT",
    "latitude": "40.26694000",
    "longitude": "15.01652000",
    "native": null,
    "timezone": "Europe/Rome",
    "translations": {}
  },
  {
    "id": 58426,
    "name": "Perito",
    "state_id": 1720,
    "state_code": "SA",
    "country_id": 107,
    "country_code": "IT",
    "latitude": "40.29854000",
    "longitude": "15.14746000",
    "native": null,
    "timezone": "Europe/Rome",
    "translations": {}
  },
  {
    "id": 58444,
    "name": "Pertosa",
    "state_id": 1720,
    "state_code": "SA",
    "country_id": 107,
    "country_code": "IT",
    "latitude": "40.54346000",
    "longitude": "15.45009000",
    "native": null,
    "timezone": "Europe/Rome",
    "translations": {}
  },
  {
    "id": 58475,
    "name": "Petina",
    "state_id": 1720,
    "state_code": "SA",
    "country_id": 107,
    "country_code": "IT",
    "latitude": "40.53211000",
    "longitude": "15.37346000",
    "native": null,
    "timezone": "Europe/Rome",
    "translations": {}
  },
  {
    "id": 58498,
    "name": "Pezzano-Filetta",
    "state_id": 1720,
    "state_code": "SA",
    "country_id": 107,
    "country_code": "IT",
    "latitude": "40.69773000",
    "longitude": "14.86971000",
    "native": null,
    "timezone": "Europe/Rome",
    "translations": {}
  },
  {
    "id": 58506,
    "name": "Piaggine",
    "state_id": 1720,
    "state_code": "SA",
    "country_id": 107,
    "country_code": "IT",
    "latitude": "40.34498000",
    "longitude": "15.37777000",
    "native": null,
    "timezone": "Europe/Rome",
    "translations": {}
  },
  {
    "id": 58536,
    "name": "Pianillo",
    "state_id": 1720,
    "state_code": "SA",
    "country_id": 107,
    "country_code": "IT",
    "latitude": "40.63416000",
    "longitude": "14.54922000",
    "native": null,
    "timezone": "Europe/Rome",
    "translations": {}
  },
  {
    "id": 58537,
    "name": "Piano",
    "state_id": 1720,
    "state_code": "SA",
    "country_id": 107,
    "country_code": "IT",
    "latitude": "40.82050000",
    "longitude": "14.76005000",
    "native": null,
    "timezone": "Europe/Rome",
    "translations": {}
  },
  {
    "id": 58570,
    "name": "Piazza del Galdo-Sant'Angelo",
    "state_id": 1720,
    "state_code": "SA",
    "country_id": 107,
    "country_code": "IT",
    "latitude": "40.77390000",
    "longitude": "14.71696000",
    "native": null,
    "timezone": "Europe/Rome",
    "translations": {}
  },
  {
    "id": 58571,
    "name": "Piazza di Pandola",
    "state_id": 1720,
    "state_code": "SA",
    "country_id": 107,
    "country_code": "IT",
    "latitude": "40.80748000",
    "longitude": "14.77180000",
    "native": null,
    "timezone": "Europe/Rome",
    "translations": {}
  },
  {
    "id": 58596,
    "name": "Piegolelle-San Bartolomeo",
    "state_id": 1720,
    "state_code": "SA",
    "country_id": 107,
    "country_code": "IT",
    "latitude": "40.68583000",
    "longitude": "14.82312000",
    "native": null,
    "timezone": "Europe/Rome",
    "translations": {}
  },
  {
    "id": 58628,
    "name": "Pietre",
    "state_id": 1720,
    "state_code": "SA",
    "country_id": 107,
    "country_code": "IT",
    "latitude": "40.70048000",
    "longitude": "14.61993000",
    "native": null,
    "timezone": "Europe/Rome",
    "translations": {}
  },
  {
    "id": 58707,
    "name": "Pisciotta",
    "state_id": 1720,
    "state_code": "SA",
    "country_id": 107,
    "country_code": "IT",
    "latitude": "40.10890000",
    "longitude": "15.23456000",
    "native": null,
    "timezone": "Europe/Rome",
    "translations": {}
  },
  {
    "id": 58788,
    "name": "Policastro Bussentino",
    "state_id": 1720,
    "state_code": "SA",
    "country_id": 107,
    "country_code": "IT",
    "latitude": "40.07511000",
    "longitude": "15.52165000",
    "native": null,
    "timezone": "Europe/Rome",
    "translations": {}
  },
  {
    "id": 58795,
    "name": "Polla",
    "state_id": 1720,
    "state_code": "SA",
    "country_id": 107,
    "country_code": "IT",
    "latitude": "40.51433000",
    "longitude": "15.49715000",
    "native": null,
    "timezone": "Europe/Rome",
    "translations": {}
  },
  {
    "id": 58799,
    "name": "Pollica",
    "state_id": 1720,
    "state_code": "SA",
    "country_id": 107,
    "country_code": "IT",
    "latitude": "40.19070000",
    "longitude": "15.05716000",
    "native": null,
    "timezone": "Europe/Rome",
    "translations": {}
  },
  {
    "id": 58807,
    "name": "Polvica",
    "state_id": 1720,
    "state_code": "SA",
    "country_id": 107,
    "country_code": "IT",
    "latitude": "40.69484000",
    "longitude": "14.64019000",
    "native": null,
    "timezone": "Europe/Rome",
    "translations": {}
  },
  {
    "id": 58863,
    "name": "Pontecagnano",
    "state_id": 1720,
    "state_code": "SA",
    "country_id": 107,
    "country_code": "IT",
    "latitude": "40.64448000",
    "longitude": "14.87628000",
    "native": null,
    "timezone": "Europe/Rome",
    "translations": {}
  },
  {
    "id": 58956,
    "name": "Positano",
    "state_id": 1720,
    "state_code": "SA",
    "country_id": 107,
    "country_code": "IT",
    "latitude": "40.62829000",
    "longitude": "14.48427000",
    "native": null,
    "timezone": "Europe/Rome",
    "translations": {}
  },
  {
    "id": 58962,
    "name": "Postiglione",
    "state_id": 1720,
    "state_code": "SA",
    "country_id": 107,
    "country_code": "IT",
    "latitude": "40.55901000",
    "longitude": "15.23236000",
    "native": null,
    "timezone": "Europe/Rome",
    "translations": {}
  },
  {
    "id": 58999,
    "name": "Praiano",
    "state_id": 1720,
    "state_code": "SA",
    "country_id": 107,
    "country_code": "IT",
    "latitude": "40.61213000",
    "longitude": "14.52461000",
    "native": null,
    "timezone": "Europe/Rome",
    "translations": {}
  },
  {
    "id": 59030,
    "name": "Prato Perillo",
    "state_id": 1720,
    "state_code": "SA",
    "country_id": 107,
    "country_code": "IT",
    "latitude": "40.39690000",
    "longitude": "15.52503000",
    "native": null,
    "timezone": "Europe/Rome",
    "translations": {}
  },
  {
    "id": 59035,
    "name": "Pratole",
    "state_id": 1720,
    "state_code": "SA",
    "country_id": 107,
    "country_code": "IT",
    "latitude": "40.62580000",
    "longitude": "14.92565000",
    "native": null,
    "timezone": "Europe/Rome",
    "translations": {}
  },
  {
    "id": 59062,
    "name": "Prepezzano",
    "state_id": 1720,
    "state_code": "SA",
    "country_id": 107,
    "country_code": "IT",
    "latitude": "40.72754000",
    "longitude": "14.89123000",
    "native": null,
    "timezone": "Europe/Rome",
    "translations": {}
  },
  {
    "id": 59076,
    "name": "Prignano Cilento",
    "state_id": 1720,
    "state_code": "SA",
    "country_id": 107,
    "country_code": "IT",
    "latitude": "40.33335000",
    "longitude": "15.06739000",
    "native": null,
    "timezone": "Europe/Rome",
    "translations": {}
  },
  {
    "id": 59197,
    "name": "Pugliano",
    "state_id": 1720,
    "state_code": "SA",
    "country_id": 107,
    "country_code": "IT",
    "latitude": "40.67876000",
    "longitude": "14.94543000",
    "native": null,
    "timezone": "Europe/Rome",
    "translations": {}
  },
  {
    "id": 59213,
    "name": "Quadrivio",
    "state_id": 1720,
    "state_code": "SA",
    "country_id": 107,
    "country_code": "IT",
    "latitude": "40.62494000",
    "longitude": "15.10353000",
    "native": null,
    "timezone": "Europe/Rome",
    "translations": {}
  },
  {
    "id": 59298,
    "name": "Ravello",
    "state_id": 1720,
    "state_code": "SA",
    "country_id": 107,
    "country_code": "IT",
    "latitude": "40.64932000",
    "longitude": "14.61167000",
    "native": null,
    "timezone": "Europe/Rome",
    "translations": {}
  },
  {
    "id": 59339,
    "name": "Rettifilo-Vannullo",
    "state_id": 1720,
    "state_code": "SA",
    "country_id": 107,
    "country_code": "IT",
    "latitude": "40.45125000",
    "longitude": "15.02794000",
    "native": null,
    "timezone": "Europe/Rome",
    "translations": {}
  },
  {
    "id": 59370,
    "name": "Ricigliano",
    "state_id": 1720,
    "state_code": "SA",
    "country_id": 107,
    "country_code": "IT",
    "latitude": "40.66803000",
    "longitude": "15.47790000",
    "native": null,
    "timezone": "Europe/Rome",
    "translations": {}
  },
  {
    "id": 59495,
    "name": "Roccadaspide",
    "state_id": 1720,
    "state_code": "SA",
    "country_id": 107,
    "country_code": "IT",
    "latitude": "40.42333000",
    "longitude": "15.19118000",
    "native": null,
    "timezone": "Europe/Rome",
    "translations": {}
  },
  {
    "id": 59503,
    "name": "Roccagloriosa",
    "state_id": 1720,
    "state_code": "SA",
    "country_id": 107,
    "country_code": "IT",
    "latitude": "40.10628000",
    "longitude": "15.43642000",
    "native": null,
    "timezone": "Europe/Rome",
    "translations": {}
  },
  {
    "id": 59514,
    "name": "Roccapiemonte",
    "state_id": 1720,
    "state_code": "SA",
    "country_id": 107,
    "country_code": "IT",
    "latitude": "40.76009000",
    "longitude": "14.69089000",
    "native": null,
    "timezone": "Europe/Rome",
    "translations": {}
  },
  {
    "id": 59556,
    "name": "Rofrano",
    "state_id": 1720,
    "state_code": "SA",
    "country_id": 107,
    "country_code": "IT",
    "latitude": "40.21277000",
    "longitude": "15.42848000",
    "native": null,
    "timezone": "Europe/Rome",
    "translations": {}
  },
  {
    "id": 59631,
    "name": "Roscigno",
    "state_id": 1720,
    "state_code": "SA",
    "country_id": 107,
    "country_code": "IT",
    "latitude": "40.39997000",
    "longitude": "15.34585000",
    "native": null,
    "timezone": "Europe/Rome",
    "translations": {}
  },
  {
    "id": 59706,
    "name": "Rutino",
    "state_id": 1720,
    "state_code": "SA",
    "country_id": 107,
    "country_code": "IT",
    "latitude": "40.30072000",
    "longitude": "15.07328000",
    "native": null,
    "timezone": "Europe/Rome",
    "translations": {}
  },
  {
    "id": 59717,
    "name": "Sacco",
    "state_id": 1720,
    "state_code": "SA",
    "country_id": 107,
    "country_code": "IT",
    "latitude": "40.37671000",
    "longitude": "15.37783000",
    "native": null,
    "timezone": "Europe/Rome",
    "translations": {}
  },
  {
    "id": 59743,
    "name": "Sala Consilina",
    "state_id": 1720,
    "state_code": "SA",
    "country_id": 107,
    "country_code": "IT",
    "latitude": "40.40134000",
    "longitude": "15.59140000",
    "native": null,
    "timezone": "Europe/Rome",
    "translations": {}
  },
  {
    "id": 59759,
    "name": "Salento",
    "state_id": 1720,
    "state_code": "SA",
    "country_id": 107,
    "country_code": "IT",
    "latitude": "40.24913000",
    "longitude": "15.18938000",
    "native": null,
    "timezone": "Europe/Rome",
    "translations": {}
  },
  {
    "id": 59762,
    "name": "Salerno",
    "state_id": 1720,
    "state_code": "SA",
    "country_id": 107,
    "country_code": "IT",
    "latitude": "40.67545000",
    "longitude": "14.79328000",
    "native": null,
    "timezone": "Europe/Rome",
    "translations": {}
  },
  {
    "id": 59775,
    "name": "Salitto-Valle",
    "state_id": 1720,
    "state_code": "SA",
    "country_id": 107,
    "country_code": "IT",
    "latitude": "40.67412000",
    "longitude": "15.02241000",
    "native": null,
    "timezone": "Europe/Rome",
    "translations": {}
  },
  {
    "id": 59791,
    "name": "Salvitelle",
    "state_id": 1720,
    "state_code": "SA",
    "country_id": 107,
    "country_code": "IT",
    "latitude": "40.59064000",
    "longitude": "15.45760000",
    "native": null,
    "timezone": "Europe/Rome",
    "translations": {}
  },
  {
    "id": 59869,
    "name": "San Cipriano Picentino",
    "state_id": 1720,
    "state_code": "SA",
    "country_id": 107,
    "country_code": "IT",
    "latitude": "40.72008000",
    "longitude": "14.87195000",
    "native": null,
    "timezone": "Europe/Rome",
    "translations": {}
  },
  {
    "id": 59981,
    "name": "San Giovanni A Piro",
    "state_id": 1720,
    "state_code": "SA",
    "country_id": 107,
    "country_code": "IT",
    "latitude": "40.05150000",
    "longitude": "15.44620000",
    "native": null,
    "timezone": "Europe/Rome",
    "translations": {}
  },
  {
    "id": 60020,
    "name": "San Gregorio Magno",
    "state_id": 1720,
    "state_code": "SA",
    "country_id": 107,
    "country_code": "IT",
    "latitude": "40.65992000",
    "longitude": "15.39914000",
    "native": null,
    "timezone": "Europe/Rome",
    "translations": {}
  },
  {
    "id": 60038,
    "name": "San Lorenzo",
    "state_id": 1720,
    "state_code": "SA",
    "country_id": 107,
    "country_code": "IT",
    "latitude": "40.75405000",
    "longitude": "14.58974000",
    "native": null,
    "timezone": "Europe/Rome",
    "translations": {}
  },
  {
    "id": 60054,
    "name": "San Mango Piemonte",
    "state_id": 1720,
    "state_code": "SA",
    "country_id": 107,
    "country_code": "IT",
    "latitude": "40.70024000",
    "longitude": "14.83919000",
    "native": null,
    "timezone": "Europe/Rome",
    "translations": {}
  },
  {
    "id": 60060,
    "name": "San Marco",
    "state_id": 1720,
    "state_code": "SA",
    "country_id": 107,
    "country_code": "IT",
    "latitude": "40.26740000",
    "longitude": "14.93897000",
    "native": null,
    "timezone": "Europe/Rome",
    "translations": {}
  },
  {
    "id": 60100,
    "name": "San Marzano sul Sarno",
    "state_id": 1720,
    "state_code": "SA",
    "country_id": 107,
    "country_code": "IT",
    "latitude": "40.77801000",
    "longitude": "14.58006000",
    "native": null,
    "timezone": "Europe/Rome",
    "translations": {}
  },
  {
    "id": 60106,
    "name": "San Mauro Cilento",
    "state_id": 1720,
    "state_code": "SA",
    "country_id": 107,
    "country_code": "IT",
    "latitude": "40.22628000",
    "longitude": "15.04476000",
    "native": null,
    "timezone": "Europe/Rome",
    "translations": {}
  },
  {
    "id": 60113,
    "name": "San Mauro la Bruca",
    "state_id": 1720,
    "state_code": "SA",
    "country_id": 107,
    "country_code": "IT",
    "latitude": "40.12246000",
    "longitude": "15.29109000",
    "native": null,
    "timezone": "Europe/Rome",
    "translations": {}
  },
  {
    "id": 60116,
    "name": "San Michele",
    "state_id": 1720,
    "state_code": "SA",
    "country_id": 107,
    "country_code": "IT",
    "latitude": "40.62023000",
    "longitude": "14.55018000",
    "native": null,
    "timezone": "Europe/Rome",
    "translations": {}
  },
  {
    "id": 60189,
    "name": "San Pietro al Tanagro",
    "state_id": 1720,
    "state_code": "SA",
    "country_id": 107,
    "country_code": "IT",
    "latitude": "40.45488000",
    "longitude": "15.48692000",
    "native": null,
    "timezone": "Europe/Rome",
    "translations": {}
  },
  {
    "id": 60229,
    "name": "San Rufo",
    "state_id": 1720,
    "state_code": "SA",
    "country_id": 107,
    "country_code": "IT",
    "latitude": "40.43451000",
    "longitude": "15.46366000",
    "native": null,
    "timezone": "Europe/Rome",
    "translations": {}
  },
  {
    "id": 60258,
    "name": "San Valentino Torio",
    "state_id": 1720,
    "state_code": "SA",
    "country_id": 107,
    "country_code": "IT",
    "latitude": "40.79109000",
    "longitude": "14.60333000",
    "native": null,
    "timezone": "Europe/Rome",
    "translations": {}
  },
  {
    "id": 60354,
    "name": "Sant'Angelo A Fasanella",
    "state_id": 1720,
    "state_code": "SA",
    "country_id": 107,
    "country_code": "IT",
    "latitude": "40.45724000",
    "longitude": "15.34091000",
    "native": null,
    "timezone": "Europe/Rome",
    "translations": {}
  },
  {
    "id": 60380,
    "name": "Sant'Antonio",
    "state_id": 1720,
    "state_code": "SA",
    "country_id": 107,
    "country_code": "IT",
    "latitude": "40.63626000",
    "longitude": "14.89845000",
    "native": null,
    "timezone": "Europe/Rome",
    "translations": {}
  },
  {
    "id": 60390,
    "name": "Sant'Arsenio",
    "state_id": 1720,
    "state_code": "SA",
    "country_id": 107,
    "country_code": "IT",
    "latitude": "40.47109000",
    "longitude": "15.48401000",
    "native": null,
    "timezone": "Europe/Rome",
    "translations": {}
  },
  {
    "id": 60392,
    "name": "Sant'Egidio del Monte Albino",
    "state_id": 1720,
    "state_code": "SA",
    "country_id": 107,
    "country_code": "IT",
    "latitude": "40.73871000",
    "longitude": "14.59454000",
    "native": null,
    "timezone": "Europe/Rome",
    "translations": {}
  },
  {
    "id": 60455,
    "name": "Santa Maria",
    "state_id": 1720,
    "state_code": "SA",
    "country_id": 107,
    "country_code": "IT",
    "latitude": "40.29782000",
    "longitude": "14.95214000",
    "native": null,
    "timezone": "Europe/Rome",
    "translations": {}
  },
  {
    "id": 60482,
    "name": "Santa Marina",
    "state_id": 1720,
    "state_code": "SA",
    "country_id": 107,
    "country_code": "IT",
    "latitude": "40.10520000",
    "longitude": "15.54153000",
    "native": null,
    "timezone": "Europe/Rome",
    "translations": {}
  },
  {
    "id": 60493,
    "name": "Santa Tecla-Castelpagano",
    "state_id": 1720,
    "state_code": "SA",
    "country_id": 107,
    "country_code": "IT",
    "latitude": "40.67353000",
    "longitude": "14.91806000",
    "native": null,
    "timezone": "Europe/Rome",
    "translations": {}
  },
  {
    "id": 60528,
    "name": "Santomenna",
    "state_id": 1720,
    "state_code": "SA",
    "country_id": 107,
    "country_code": "IT",
    "latitude": "40.80685000",
    "longitude": "15.32639000",
    "native": null,
    "timezone": "Europe/Rome",
    "translations": {}
  },
  {
    "id": 60532,
    "name": "Sanza",
    "state_id": 1720,
    "state_code": "SA",
    "country_id": 107,
    "country_code": "IT",
    "latitude": "40.24389000",
    "longitude": "15.55416000",
    "native": null,
    "timezone": "Europe/Rome",
    "translations": {}
  },
  {
    "id": 60538,
    "name": "Sapri",
    "state_id": 1720,
    "state_code": "SA",
    "country_id": 107,
    "country_code": "IT",
    "latitude": "40.07464000",
    "longitude": "15.63212000",
    "native": null,
    "timezone": "Europe/Rome",
    "translations": {}
  },
  {
    "id": 60554,
    "name": "Sarno",
    "state_id": 1720,
    "state_code": "SA",
    "country_id": 107,
    "country_code": "IT",
    "latitude": "40.80748000",
    "longitude": "14.62151000",
    "native": null,
    "timezone": "Europe/Rome",
    "translations": {}
  },
  {
    "id": 60567,
    "name": "Sassano",
    "state_id": 1720,
    "state_code": "SA",
    "country_id": 107,
    "country_code": "IT",
    "latitude": "40.34030000",
    "longitude": "15.56555000",
    "native": null,
    "timezone": "Europe/Rome",
    "translations": {}
  },
  {
    "id": 60602,
    "name": "Scafati",
    "state_id": 1720,
    "state_code": "SA",
    "country_id": 107,
    "country_code": "IT",
    "latitude": "40.76020000",
    "longitude": "14.53723000",
    "native": null,
    "timezone": "Europe/Rome",
    "translations": {}
  },
  {
    "id": 60604,
    "name": "Scala",
    "state_id": 1720,
    "state_code": "SA",
    "country_id": 107,
    "country_code": "IT",
    "latitude": "40.65665000",
    "longitude": "14.60761000",
    "native": null,
    "timezone": "Europe/Rome",
    "translations": {}
  },
  {
    "id": 60610,
    "name": "Scalo Romagnano al Monte",
    "state_id": 1720,
    "state_code": "SA",
    "country_id": 107,
    "country_code": "IT",
    "latitude": "40.61031000",
    "longitude": "15.44768000",
    "native": null,
    "timezone": "Europe/Rome",
    "translations": {}
  },
  {
    "id": 60631,
    "name": "Scario",
    "state_id": 1720,
    "state_code": "SA",
    "country_id": 107,
    "country_code": "IT",
    "latitude": "40.06207000",
    "longitude": "15.47421000",
    "native": null,
    "timezone": "Europe/Rome",
    "translations": {}
  },
  {
    "id": 60764,
    "name": "Serramezzana",
    "state_id": 1720,
    "state_code": "SA",
    "country_id": 107,
    "country_code": "IT",
    "latitude": "40.24460000",
    "longitude": "15.03246000",
    "native": null,
    "timezone": "Europe/Rome",
    "translations": {}
  },
  {
    "id": 60778,
    "name": "Serre",
    "state_id": 1720,
    "state_code": "SA",
    "country_id": 107,
    "country_code": "IT",
    "latitude": "40.58251000",
    "longitude": "15.18555000",
    "native": null,
    "timezone": "Europe/Rome",
    "translations": {}
  },
  {
    "id": 60789,
    "name": "Sessa Cilento",
    "state_id": 1720,
    "state_code": "SA",
    "country_id": 107,
    "country_code": "IT",
    "latitude": "40.25920000",
    "longitude": "15.07576000",
    "native": null,
    "timezone": "Europe/Rome",
    "translations": {}
  },
  {
    "id": 60836,
    "name": "Siano",
    "state_id": 1720,
    "state_code": "SA",
    "country_id": 107,
    "country_code": "IT",
    "latitude": "40.80207000",
    "longitude": "14.69334000",
    "native": null,
    "timezone": "Europe/Rome",
    "translations": {}
  },
  {
    "id": 60839,
    "name": "Sicignano degli Alburni",
    "state_id": 1720,
    "state_code": "SA",
    "country_id": 107,
    "country_code": "IT",
    "latitude": "40.55882000",
    "longitude": "15.30560000",
    "native": null,
    "timezone": "Europe/Rome",
    "translations": {}
  },
  {
    "id": 61063,
    "name": "Stella Cilento",
    "state_id": 1720,
    "state_code": "SA",
    "country_id": 107,
    "country_code": "IT",
    "latitude": "40.23180000",
    "longitude": "15.09286000",
    "native": null,
    "timezone": "Europe/Rome",
    "translations": {}
  },
  {
    "id": 61078,
    "name": "Stio",
    "state_id": 1720,
    "state_code": "SA",
    "country_id": 107,
    "country_code": "IT",
    "latitude": "40.31020000",
    "longitude": "15.25153000",
    "native": null,
    "timezone": "Europe/Rome",
    "translations": {}
  },
  {
    "id": 61201,
    "name": "Teggiano-Macchiaroli",
    "state_id": 1720,
    "state_code": "SA",
    "country_id": 107,
    "country_code": "IT",
    "latitude": "40.37921000",
    "longitude": "15.54046000",
    "native": null,
    "timezone": "Europe/Rome",
    "translations": {}
  },
  {
    "id": 61320,
    "name": "Torchiara",
    "state_id": 1720,
    "state_code": "SA",
    "country_id": 107,
    "country_code": "IT",
    "latitude": "40.32162000",
    "longitude": "15.05370000",
    "native": null,
    "timezone": "Europe/Rome",
    "translations": {}
  },
  {
    "id": 61322,
    "name": "Torchiati",
    "state_id": 1720,
    "state_code": "SA",
    "country_id": 107,
    "country_code": "IT",
    "latitude": "40.81837000",
    "longitude": "14.80165000",
    "native": null,
    "timezone": "Europe/Rome",
    "translations": {}
  },
  {
    "id": 61341,
    "name": "Torraca",
    "state_id": 1720,
    "state_code": "SA",
    "country_id": 107,
    "country_code": "IT",
    "latitude": "40.11099000",
    "longitude": "15.63632000",
    "native": null,
    "timezone": "Europe/Rome",
    "translations": {}
  },
  {
    "id": 61357,
    "name": "Torre Orsaia",
    "state_id": 1720,
    "state_code": "SA",
    "country_id": 107,
    "country_code": "IT",
    "latitude": "40.13277000",
    "longitude": "15.47250000",
    "native": null,
    "timezone": "Europe/Rome",
    "translations": {}
  },
  {
    "id": 61415,
    "name": "Tortorella",
    "state_id": 1720,
    "state_code": "SA",
    "country_id": 107,
    "country_code": "IT",
    "latitude": "40.14236000",
    "longitude": "15.60625000",
    "native": null,
    "timezone": "Europe/Rome",
    "translations": {}
  },
  {
    "id": 61432,
    "name": "Tramonti",
    "state_id": 1720,
    "state_code": "SA",
    "country_id": 107,
    "country_code": "IT",
    "latitude": "40.69154000",
    "longitude": "14.64490000",
    "native": null,
    "timezone": "Europe/Rome",
    "translations": {}
  },
  {
    "id": 61482,
    "name": "Trentinara",
    "state_id": 1720,
    "state_code": "SA",
    "country_id": 107,
    "country_code": "IT",
    "latitude": "40.39998000",
    "longitude": "15.11545000",
    "native": null,
    "timezone": "Europe/Rome",
    "translations": {}
  },
  {
    "id": 61695,
    "name": "Valle dell'Angelo",
    "state_id": 1720,
    "state_code": "SA",
    "country_id": 107,
    "country_code": "IT",
    "latitude": "40.34381000",
    "longitude": "15.36846000",
    "native": null,
    "timezone": "Europe/Rome",
    "translations": {}
  },
  {
    "id": 61724,
    "name": "Vallo della Lucania",
    "state_id": 1720,
    "state_code": "SA",
    "country_id": 107,
    "country_code": "IT",
    "latitude": "40.22786000",
    "longitude": "15.26635000",
    "native": null,
    "timezone": "Europe/Rome",
    "translations": {}
  },
  {
    "id": 61745,
    "name": "Valva",
    "state_id": 1720,
    "state_code": "SA",
    "country_id": 107,
    "country_code": "IT",
    "latitude": "40.73871000",
    "longitude": "15.26805000",
    "native": null,
    "timezone": "Europe/Rome",
    "translations": {}
  },
  {
    "id": 61908,
    "name": "Vibonati",
    "state_id": 1720,
    "state_code": "SA",
    "country_id": 107,
    "country_code": "IT",
    "latitude": "40.09921000",
    "longitude": "15.58357000",
    "native": null,
    "timezone": "Europe/Rome",
    "translations": {}
  },
  {
    "id": 61935,
    "name": "Vietri sul Mare",
    "state_id": 1720,
    "state_code": "SA",
    "country_id": 107,
    "country_code": "IT",
    "latitude": "40.67020000",
    "longitude": "14.72661000",
    "native": null,
    "timezone": "Europe/Rome",
    "translations": {}
  },
  {
    "id": 62086,
    "name": "Villammare",
    "state_id": 1720,
    "state_code": "SA",
    "country_id": 107,
    "country_code": "IT",
    "latitude": "40.07747000",
    "longitude": "15.59401000",
    "native": null,
    "timezone": "Europe/Rome",
    "translations": {}
  }
]