[
  {
    "id": 48177,
    "name": "Aberkenfig",
    "state_id": 2452,
    "state_code": "BGE",
    "country_id": 232,
    "country_code": "GB",
    "latitude": "51.54000000",
    "longitude": "-3.59556000",
    "native": null,
    "timezone": "Europe/London",
    "translations": {}
  },
  {
    "id": 48484,
    "name": "Betws",
    "state_id": 2452,
    "state_code": "BGE",
    "country_id": 232,
    "country_code": "GB",
    "latitude": "51.56917000",
    "longitude": "-3.58833000",
    "native": null,
    "timezone": "Europe/London",
    "translations": {}
  },
  {
    "id": 48683,
    "name": "Bridgend",
    "state_id": 2452,
    "state_code": "BGE",
    "country_id": 232,
    "country_code": "GB",
    "latitude": "51.50583000",
    "longitude": "-3.57722000",
    "native": null,
    "timezone": "Europe/London",
    "translations": {}
  },
  {
    "id": 48684,
    "name": "Bridgend county borough",
    "state_id": 2452,
    "state_code": "BGE",
    "country_id": 232,
    "country_code": "GB",
    "latitude": "51.55000000",
    "longitude": "-3.58333000",
    "native": null,
    "timezone": "Europe/London",
    "translations": {}
  },
  {
    "id": 48741,
    "name": "Brynna",
    "state_id": 2452,
    "state_code": "BGE",
    "country_id": 232,
    "country_code": "GB",
    "latitude": "51.53845000",
    "longitude": "-3.46378000",
    "native": null,
    "timezone": "Europe/London",
    "translations": {}
  },
  {
    "id": 48901,
    "name": "Cefn Cribwr",
    "state_id": 2452,
    "state_code": "BGE",
    "country_id": 232,
    "country_code": "GB",
    "latitude": "51.53167000",
    "longitude": "-3.65278000",
    "native": null,
    "timezone": "Europe/London",
    "translations": {}
  },
  {
    "id": 49060,
    "name": "Coity",
    "state_id": 2452,
    "state_code": "BGE",
    "country_id": 232,
    "country_code": "GB",
    "latitude": "51.52200000",
    "longitude": "-3.55531000",
    "native": null,
    "timezone": "Europe/London",
    "translations": {}
  },
  {
    "id": 50362,
    "name": "Llanharan",
    "state_id": 2452,
    "state_code": "BGE",
    "country_id": 232,
    "country_code": "GB",
    "latitude": "51.53805000",
    "longitude": "-3.43906000",
    "native": null,
    "timezone": "Europe/London",
    "translations": {}
  },
  {
    "id": 50880,
    "name": "Pencoed",
    "state_id": 2452,
    "state_code": "BGE",
    "country_id": 232,
    "country_code": "GB",
    "latitude": "51.52371000",
    "longitude": "-3.50016000",
    "native": null,
    "timezone": "Europe/London",
    "translations": {}
  },
  {
    "id": 50936,
    "name": "Pont Rhyd-y-cyff",
    "state_id": 2452,
    "state_code": "BGE",
    "country_id": 232,
    "country_code": "GB",
    "latitude": "51.58694000",
    "longitude": "-3.63639000",
    "native": null,
    "timezone": "Europe/London",
    "translations": {}
  },
  {
    "id": 50960,
    "name": "Porthcawl",
    "state_id": 2452,
    "state_code": "BGE",
    "country_id": 232,
    "country_code": "GB",
    "latitude": "51.47903000",
    "longitude": "-3.70362000",
    "native": null,
    "timezone": "Europe/London",
    "translations": {}
  },
  {
    "id": 51009,
    "name": "Pyle",
    "state_id": 2452,
    "state_code": "BGE",
    "country_id": 232,
    "country_code": "GB",
    "latitude": "51.51667000",
    "longitude": "-3.70000000",
    "native": null,
    "timezone": "Europe/London",
    "translations": {}
  },
  {
    "id": 51888,
    "name": "Wick",
    "state_id": 2452,
    "state_code": "BGE",
    "country_id": 232,
    "country_code": "GB",
    "latitude": "51.43944000",
    "longitude": "-3.54944000",
    "native": null,
    "timezone": "Europe/London",
    "translations": {}
  }
]