[
  {
    "id": 163804,
    "name": "Al Sur de Arroyo Sacra",
    "state_id": 3212,
    "state_code": "PA",
    "country_id": 235,
    "country_code": "UY",
    "latitude": "-32.35913716",
    "longitude": "-58.03110363",
    "native": null,
    "timezone": "America/Montevideo",
    "translations": {}
  },
  {
    "id": 162471,
    "name": "Araujo",
    "state_id": 3212,
    "state_code": "PA",
    "country_id": 235,
    "country_code": "UY",
    "latitude": "-31.99662602",
    "longitude": "-57.74368267",
    "native": null,
    "timezone": "America/Montevideo",
    "translations": {}
  },
  {
    "id": 162312,
    "name": "Arbolito (Totoral)",
    "state_id": 3212,
    "state_code": "PA",
    "country_id": 235,
    "country_code": "UY",
    "latitude": "-32.22642108",
    "longitude": "-56.48083994",
    "native": null,
    "timezone": "America/Montevideo",
    "translations": {}
  },
  {
    "id": 163310,
    "name": "Arroyo Malo",
    "state_id": 3212,
    "state_code": "PA",
    "country_id": 235,
    "country_code": "UY",
    "latitude": "-31.95209341",
    "longitude": "-58.00179666",
    "native": null,
    "timezone": "America/Montevideo",
    "translations": {}
  },
  {
    "id": 163292,
    "name": "Arroyo Negro",
    "state_id": 3212,
    "state_code": "PA",
    "country_id": 235,
    "country_code": "UY",
    "latitude": "-32.47670170",
    "longitude": "-57.55776670",
    "native": null,
    "timezone": "America/Montevideo",
    "translations": {}
  },
  {
    "id": 162458,
    "name": "Beisso",
    "state_id": 3212,
    "state_code": "PA",
    "country_id": 235,
    "country_code": "UY",
    "latitude": "-32.31750263",
    "longitude": "-57.05401718",
    "native": null,
    "timezone": "America/Montevideo",
    "translations": {}
  },
  {
    "id": 162253,
    "name": "Bella Vista",
    "state_id": 3212,
    "state_code": "PA",
    "country_id": 235,
    "country_code": "UY",
    "latitude": "-31.66370046",
    "longitude": "-57.72335809",
    "native": null,
    "timezone": "America/Montevideo",
    "translations": {}
  },
  {
    "id": 162587,
    "name": "Cañada del Pueblo",
    "state_id": 3212,
    "state_code": "PA",
    "country_id": 235,
    "country_code": "UY",
    "latitude": "-31.94756370",
    "longitude": "-57.18195327",
    "native": null,
    "timezone": "America/Montevideo",
    "translations": {}
  },
  {
    "id": 163808,
    "name": "Cangue",
    "state_id": 3212,
    "state_code": "PA",
    "country_id": 235,
    "country_code": "UY",
    "latitude": "-32.38558995",
    "longitude": "-58.03253481",
    "native": null,
    "timezone": "America/Montevideo",
    "translations": {}
  },
  {
    "id": 163301,
    "name": "Carumbe",
    "state_id": 3212,
    "state_code": "PA",
    "country_id": 235,
    "country_code": "UY",
    "latitude": "-31.74503520",
    "longitude": "-57.60549243",
    "native": null,
    "timezone": "America/Montevideo",
    "translations": {}
  },
  {
    "id": 162207,
    "name": "Casa Blanca",
    "state_id": 3212,
    "state_code": "PA",
    "country_id": 235,
    "country_code": "UY",
    "latitude": "-32.39785187",
    "longitude": "-58.15758522",
    "native": null,
    "timezone": "America/Montevideo",
    "translations": {}
  },
  {
    "id": 162626,
    "name": "Cerro Chato",
    "state_id": 3212,
    "state_code": "PA",
    "country_id": 235,
    "country_code": "UY",
    "latitude": "-31.85813213",
    "longitude": "-57.53837961",
    "native": null,
    "timezone": "America/Montevideo",
    "translations": {}
  },
  {
    "id": 162257,
    "name": "Chacras de Paysandu",
    "state_id": 3212,
    "state_code": "PA",
    "country_id": 235,
    "country_code": "UY",
    "latitude": "-32.35244193",
    "longitude": "-58.00147205",
    "native": null,
    "timezone": "America/Montevideo",
    "translations": {}
  },
  {
    "id": 163798,
    "name": "Chacras de Paysandu Norte",
    "state_id": 3212,
    "state_code": "PA",
    "country_id": 235,
    "country_code": "UY",
    "latitude": "-32.34920187",
    "longitude": "-57.99182431",
    "native": null,
    "timezone": "America/Montevideo",
    "translations": {}
  },
  {
    "id": 163797,
    "name": "Chacras de Paysandu Sur",
    "state_id": 3212,
    "state_code": "PA",
    "country_id": 235,
    "country_code": "UY",
    "latitude": "-32.37588632",
    "longitude": "-58.01363839",
    "native": null,
    "timezone": "America/Montevideo",
    "translations": {}
  },
  {
    "id": 162596,
    "name": "Chapicuy",
    "state_id": 3212,
    "state_code": "PA",
    "country_id": 235,
    "country_code": "UY",
    "latitude": "-31.66081508",
    "longitude": "-57.88853565",
    "native": null,
    "timezone": "America/Montevideo",
    "translations": {}
  },
  {
    "id": 163311,
    "name": "Colonia Arroyo Malo",
    "state_id": 3212,
    "state_code": "PA",
    "country_id": 235,
    "country_code": "UY",
    "latitude": "-31.92914190",
    "longitude": "-58.10032443",
    "native": null,
    "timezone": "America/Montevideo",
    "translations": {}
  },
  {
    "id": 163317,
    "name": "Colonia Cangue",
    "state_id": 3212,
    "state_code": "PA",
    "country_id": 235,
    "country_code": "UY",
    "latitude": "-32.42526101",
    "longitude": "-58.02812661",
    "native": null,
    "timezone": "America/Montevideo",
    "translations": {}
  },
  {
    "id": 163275,
    "name": "Colonia Juncal",
    "state_id": 3212,
    "state_code": "PA",
    "country_id": 235,
    "country_code": "UY",
    "latitude": "-32.36163119",
    "longitude": "-57.22136718",
    "native": null,
    "timezone": "America/Montevideo",
    "translations": {}
  },
  {
    "id": 163891,
    "name": "Colonia las Delicias",
    "state_id": 3212,
    "state_code": "PA",
    "country_id": 235,
    "country_code": "UY",
    "latitude": "-32.07799089",
    "longitude": "-58.09730638",
    "native": null,
    "timezone": "America/Montevideo",
    "translations": {}
  },
  {
    "id": 163316,
    "name": "Colonia Paysandu",
    "state_id": 3212,
    "state_code": "PA",
    "country_id": 235,
    "country_code": "UY",
    "latitude": "-32.42277012",
    "longitude": "-58.13646152",
    "native": null,
    "timezone": "America/Montevideo",
    "translations": {}
  },
  {
    "id": 163299,
    "name": "Colonia Santa Blanca",
    "state_id": 3212,
    "state_code": "PA",
    "country_id": 235,
    "country_code": "UY",
    "latitude": "-31.75597105",
    "longitude": "-57.79354371",
    "native": null,
    "timezone": "America/Montevideo",
    "translations": {}
  },
  {
    "id": 163286,
    "name": "Colonia Uruguaya",
    "state_id": 3212,
    "state_code": "PA",
    "country_id": 235,
    "country_code": "UY",
    "latitude": "-32.17833469",
    "longitude": "-57.26510926",
    "native": null,
    "timezone": "America/Montevideo",
    "translations": {}
  },
  {
    "id": 162627,
    "name": "Constancia",
    "state_id": 3212,
    "state_code": "PA",
    "country_id": 235,
    "country_code": "UY",
    "latitude": "-32.20635001",
    "longitude": "-58.00563259",
    "native": null,
    "timezone": "America/Montevideo",
    "translations": {}
  },
  {
    "id": 163314,
    "name": "Costa de Sacra",
    "state_id": 3212,
    "state_code": "PA",
    "country_id": 235,
    "country_code": "UY",
    "latitude": "-32.35839904",
    "longitude": "-58.02936474",
    "native": null,
    "timezone": "America/Montevideo",
    "translations": {}
  },
  {
    "id": 162213,
    "name": "Cuchilla de Buricayupi",
    "state_id": 3212,
    "state_code": "PA",
    "country_id": 235,
    "country_code": "UY",
    "latitude": "-31.99778356",
    "longitude": "-57.53877758",
    "native": null,
    "timezone": "America/Montevideo",
    "translations": {}
  },
  {
    "id": 162243,
    "name": "Cuchilla de Fuego",
    "state_id": 3212,
    "state_code": "PA",
    "country_id": 235,
    "country_code": "UY",
    "latitude": "-32.08975480",
    "longitude": "-56.91441333",
    "native": null,
    "timezone": "America/Montevideo",
    "translations": {}
  },
  {
    "id": 163889,
    "name": "Cuchilla San Jose",
    "state_id": 3212,
    "state_code": "PA",
    "country_id": 235,
    "country_code": "UY",
    "latitude": "-31.83355260",
    "longitude": "-57.49943867",
    "native": null,
    "timezone": "America/Montevideo",
    "translations": {}
  },
  {
    "id": 163281,
    "name": "El Chaco",
    "state_id": 3212,
    "state_code": "PA",
    "country_id": 235,
    "country_code": "UY",
    "latitude": "-31.96395242",
    "longitude": "-57.50707229",
    "native": null,
    "timezone": "America/Montevideo",
    "translations": {}
  },
  {
    "id": 163289,
    "name": "El Duraznal",
    "state_id": 3212,
    "state_code": "PA",
    "country_id": 235,
    "country_code": "UY",
    "latitude": "-32.37369018",
    "longitude": "-57.52885659",
    "native": null,
    "timezone": "America/Montevideo",
    "translations": {}
  },
  {
    "id": 162580,
    "name": "El Eucaliptus",
    "state_id": 3212,
    "state_code": "PA",
    "country_id": 235,
    "country_code": "UY",
    "latitude": "-31.90401086",
    "longitude": "-57.26123825",
    "native": null,
    "timezone": "America/Montevideo",
    "translations": {}
  },
  {
    "id": 163282,
    "name": "El Horno",
    "state_id": 3212,
    "state_code": "PA",
    "country_id": 235,
    "country_code": "UY",
    "latitude": "-31.98575901",
    "longitude": "-57.48352404",
    "native": null,
    "timezone": "America/Montevideo",
    "translations": {}
  },
  {
    "id": 163284,
    "name": "El Tarugo",
    "state_id": 3212,
    "state_code": "PA",
    "country_id": 235,
    "country_code": "UY",
    "latitude": "-31.98016061",
    "longitude": "-57.25662921",
    "native": null,
    "timezone": "America/Montevideo",
    "translations": {}
  },
  {
    "id": 129803,
    "name": "Estación Porvenir",
    "state_id": 3212,
    "state_code": "PA",
    "country_id": 235,
    "country_code": "UY",
    "latitude": "-32.37085000",
    "longitude": "-57.85371000",
    "native": null,
    "timezone": "America/Montevideo",
    "translations": {}
  },
  {
    "id": 163308,
    "name": "Etchemendi",
    "state_id": 3212,
    "state_code": "PA",
    "country_id": 235,
    "country_code": "UY",
    "latitude": "-32.36113939",
    "longitude": "-57.70403163",
    "native": null,
    "timezone": "America/Montevideo",
    "translations": {}
  },
  {
    "id": 162517,
    "name": "Gallinal",
    "state_id": 3212,
    "state_code": "PA",
    "country_id": 235,
    "country_code": "UY",
    "latitude": "-31.88401040",
    "longitude": "-57.47858648",
    "native": null,
    "timezone": "America/Montevideo",
    "translations": {}
  },
  {
    "id": 163279,
    "name": "Gualeguay",
    "state_id": 3212,
    "state_code": "PA",
    "country_id": 235,
    "country_code": "UY",
    "latitude": "-31.93351982",
    "longitude": "-57.32759755",
    "native": null,
    "timezone": "America/Montevideo",
    "translations": {}
  },
  {
    "id": 163303,
    "name": "Guaviyu de Quebracho",
    "state_id": 3212,
    "state_code": "PA",
    "country_id": 235,
    "country_code": "UY",
    "latitude": "-31.91516707",
    "longitude": "-57.95784194",
    "native": null,
    "timezone": "America/Montevideo",
    "translations": {}
  },
  {
    "id": 163287,
    "name": "Guayabos",
    "state_id": 3212,
    "state_code": "PA",
    "country_id": 235,
    "country_code": "UY",
    "latitude": "-32.27837332",
    "longitude": "-57.31860123",
    "native": null,
    "timezone": "America/Montevideo",
    "translations": {}
  },
  {
    "id": 129807,
    "name": "Guichón",
    "state_id": 3212,
    "state_code": "PA",
    "country_id": 235,
    "country_code": "UY",
    "latitude": "-32.35846000",
    "longitude": "-57.19778000",
    "native": null,
    "timezone": "America/Montevideo",
    "translations": {}
  },
  {
    "id": 163802,
    "name": "La Lata Ruta 3 (Km. 375)",
    "state_id": 3212,
    "state_code": "PA",
    "country_id": 235,
    "country_code": "UY",
    "latitude": "-32.36965651",
    "longitude": "-58.04378108",
    "native": null,
    "timezone": "America/Montevideo",
    "translations": {}
  },
  {
    "id": 163805,
    "name": "La Paz (Ruta 3 Km. 346)",
    "state_id": 3212,
    "state_code": "PA",
    "country_id": 235,
    "country_code": "UY",
    "latitude": "-32.55191599",
    "longitude": "-57.92096051",
    "native": null,
    "timezone": "America/Montevideo",
    "translations": {}
  },
  {
    "id": 162244,
    "name": "La Tentacion",
    "state_id": 3212,
    "state_code": "PA",
    "country_id": 235,
    "country_code": "UY",
    "latitude": "-32.48829087",
    "longitude": "-57.74503882",
    "native": null,
    "timezone": "America/Montevideo",
    "translations": {}
  },
  {
    "id": 163291,
    "name": "Las Flores",
    "state_id": 3212,
    "state_code": "PA",
    "country_id": 235,
    "country_code": "UY",
    "latitude": "-32.39643428",
    "longitude": "-57.56511417",
    "native": null,
    "timezone": "America/Montevideo",
    "translations": {}
  },
  {
    "id": 163313,
    "name": "Las Palmas",
    "state_id": 3212,
    "state_code": "PA",
    "country_id": 235,
    "country_code": "UY",
    "latitude": "-32.34090266",
    "longitude": "-58.00899146",
    "native": null,
    "timezone": "America/Montevideo",
    "translations": {}
  },
  {
    "id": 162203,
    "name": "Lorenzo Geyres",
    "state_id": 3212,
    "state_code": "PA",
    "country_id": 235,
    "country_code": "UY",
    "latitude": "-32.07851957",
    "longitude": "-57.91892901",
    "native": null,
    "timezone": "America/Montevideo",
    "translations": {}
  },
  {
    "id": 162570,
    "name": "Merinos",
    "state_id": 3212,
    "state_code": "PA",
    "country_id": 235,
    "country_code": "UY",
    "latitude": "-32.38435672",
    "longitude": "-56.90863781",
    "native": null,
    "timezone": "America/Montevideo",
    "translations": {}
  },
  {
    "id": 163890,
    "name": "Molles Grande",
    "state_id": 3212,
    "state_code": "PA",
    "country_id": 235,
    "country_code": "UY",
    "latitude": "-32.07870817",
    "longitude": "-57.17209051",
    "native": null,
    "timezone": "America/Montevideo",
    "translations": {}
  },
  {
    "id": 162597,
    "name": "Morato (Tres Arboles)",
    "state_id": 3212,
    "state_code": "PA",
    "country_id": 235,
    "country_code": "UY",
    "latitude": "-32.37801235",
    "longitude": "-56.70151154",
    "native": null,
    "timezone": "America/Montevideo",
    "translations": {}
  },
  {
    "id": 162210,
    "name": "Nuevo Paysandu",
    "state_id": 3212,
    "state_code": "PA",
    "country_id": 235,
    "country_code": "UY",
    "latitude": "-32.33990093",
    "longitude": "-58.01472310",
    "native": null,
    "timezone": "America/Montevideo",
    "translations": {}
  },
  {
    "id": 162624,
    "name": "Orgoroso",
    "state_id": 3212,
    "state_code": "PA",
    "country_id": 235,
    "country_code": "UY",
    "latitude": "-32.38194321",
    "longitude": "-57.51719737",
    "native": null,
    "timezone": "America/Montevideo",
    "translations": {}
  },
  {
    "id": 163302,
    "name": "Palmar del Quebracho",
    "state_id": 3212,
    "state_code": "PA",
    "country_id": 235,
    "country_code": "UY",
    "latitude": "-31.89824673",
    "longitude": "-57.73538668",
    "native": null,
    "timezone": "America/Montevideo",
    "translations": {}
  },
  {
    "id": 163296,
    "name": "Parada Dayman",
    "state_id": 3212,
    "state_code": "PA",
    "country_id": 235,
    "country_code": "UY",
    "latitude": "-31.52554996",
    "longitude": "-57.90740660",
    "native": null,
    "timezone": "America/Montevideo",
    "translations": {}
  },
  {
    "id": 163288,
    "name": "Parada Pandule",
    "state_id": 3212,
    "state_code": "PA",
    "country_id": 235,
    "country_code": "UY",
    "latitude": "-32.38932928",
    "longitude": "-57.46038651",
    "native": null,
    "timezone": "America/Montevideo",
    "translations": {}
  },
  {
    "id": 163298,
    "name": "Parada Rivas",
    "state_id": 3212,
    "state_code": "PA",
    "country_id": 235,
    "country_code": "UY",
    "latitude": "-31.82575957",
    "longitude": "-57.89019393",
    "native": null,
    "timezone": "America/Montevideo",
    "translations": {}
  },
  {
    "id": 163283,
    "name": "Paso de los Carros",
    "state_id": 3212,
    "state_code": "PA",
    "country_id": 235,
    "country_code": "UY",
    "latitude": "-31.98989905",
    "longitude": "-57.43580743",
    "native": null,
    "timezone": "America/Montevideo",
    "translations": {}
  },
  {
    "id": 129844,
    "name": "Paysandú",
    "state_id": 3212,
    "state_code": "PA",
    "country_id": 235,
    "country_code": "UY",
    "latitude": "-32.31710000",
    "longitude": "-58.08072000",
    "native": null,
    "timezone": "America/Montevideo",
    "translations": {}
  },
  {
    "id": 163276,
    "name": "Perico Moreno",
    "state_id": 3212,
    "state_code": "PA",
    "country_id": 235,
    "country_code": "UY",
    "latitude": "-31.69782113",
    "longitude": "-57.37388285",
    "native": null,
    "timezone": "America/Montevideo",
    "translations": {}
  },
  {
    "id": 162441,
    "name": "Piedra Sola",
    "state_id": 3212,
    "state_code": "PA",
    "country_id": 235,
    "country_code": "UY",
    "latitude": "-32.08200049",
    "longitude": "-56.31002074",
    "native": null,
    "timezone": "America/Montevideo",
    "translations": {}
  },
  {
    "id": 129845,
    "name": "Piedras Coloradas",
    "state_id": 3212,
    "state_code": "PA",
    "country_id": 235,
    "country_code": "UY",
    "latitude": "-32.37183000",
    "longitude": "-57.60901000",
    "native": null,
    "timezone": "America/Montevideo",
    "translations": {}
  },
  {
    "id": 162285,
    "name": "Piñera",
    "state_id": 3212,
    "state_code": "PA",
    "country_id": 235,
    "country_code": "UY",
    "latitude": "-32.32873486",
    "longitude": "-57.04739933",
    "native": null,
    "timezone": "America/Montevideo",
    "translations": {}
  },
  {
    "id": 162623,
    "name": "Porvenir",
    "state_id": 3212,
    "state_code": "PA",
    "country_id": 235,
    "country_code": "UY",
    "latitude": "-32.39369736",
    "longitude": "-57.96957392",
    "native": null,
    "timezone": "America/Montevideo",
    "translations": {}
  },
  {
    "id": 162468,
    "name": "Pueblo Alonzo",
    "state_id": 3212,
    "state_code": "PA",
    "country_id": 235,
    "country_code": "UY",
    "latitude": "-32.39576745",
    "longitude": "-56.72839657",
    "native": null,
    "timezone": "America/Montevideo",
    "translations": {}
  },
  {
    "id": 162451,
    "name": "Pueblo Esperanza",
    "state_id": 3212,
    "state_code": "PA",
    "country_id": 235,
    "country_code": "UY",
    "latitude": "-32.35033235",
    "longitude": "-57.95451945",
    "native": null,
    "timezone": "America/Montevideo",
    "translations": {}
  },
  {
    "id": 162212,
    "name": "Pueblo Federacion",
    "state_id": 3212,
    "state_code": "PA",
    "country_id": 235,
    "country_code": "UY",
    "latitude": "-32.04168065",
    "longitude": "-57.32015831",
    "native": null,
    "timezone": "America/Montevideo",
    "translations": {}
  },
  {
    "id": 162338,
    "name": "Puntas de Arroyo Negro",
    "state_id": 3212,
    "state_code": "PA",
    "country_id": 235,
    "country_code": "UY",
    "latitude": "-32.47741536",
    "longitude": "-57.55993098",
    "native": null,
    "timezone": "America/Montevideo",
    "translations": {}
  },
  {
    "id": 163290,
    "name": "Puntas de Bacacua",
    "state_id": 3212,
    "state_code": "PA",
    "country_id": 235,
    "country_code": "UY",
    "latitude": "-32.36819770",
    "longitude": "-57.51797167",
    "native": null,
    "timezone": "America/Montevideo",
    "translations": {}
  },
  {
    "id": 163278,
    "name": "Puntas de Buricayupi",
    "state_id": 3212,
    "state_code": "PA",
    "country_id": 235,
    "country_code": "UY",
    "latitude": "-31.86775297",
    "longitude": "-57.33761396",
    "native": null,
    "timezone": "America/Montevideo",
    "translations": {}
  },
  {
    "id": 163312,
    "name": "Puntas de Cangue",
    "state_id": 3212,
    "state_code": "PA",
    "country_id": 235,
    "country_code": "UY",
    "latitude": "-32.39633341",
    "longitude": "-58.00857487",
    "native": null,
    "timezone": "America/Montevideo",
    "translations": {}
  },
  {
    "id": 163307,
    "name": "Puntas de las Isletas",
    "state_id": 3212,
    "state_code": "PA",
    "country_id": 235,
    "country_code": "UY",
    "latitude": "-32.33323461",
    "longitude": "-57.79898214",
    "native": null,
    "timezone": "America/Montevideo",
    "translations": {}
  },
  {
    "id": 129850,
    "name": "Quebracho",
    "state_id": 3212,
    "state_code": "PA",
    "country_id": 235,
    "country_code": "UY",
    "latitude": "-31.93526000",
    "longitude": "-57.90140000",
    "native": null,
    "timezone": "America/Montevideo",
    "translations": {}
  },
  {
    "id": 163285,
    "name": "Queguay Grande",
    "state_id": 3212,
    "state_code": "PA",
    "country_id": 235,
    "country_code": "UY",
    "latitude": "-32.14714053",
    "longitude": "-57.42123997",
    "native": null,
    "timezone": "America/Montevideo",
    "translations": {}
  },
  {
    "id": 162246,
    "name": "Queguayar",
    "state_id": 3212,
    "state_code": "PA",
    "country_id": 235,
    "country_code": "UY",
    "latitude": "-32.03219936",
    "longitude": "-57.84917343",
    "native": null,
    "timezone": "America/Montevideo",
    "translations": {}
  },
  {
    "id": 163319,
    "name": "Rabon",
    "state_id": 3212,
    "state_code": "PA",
    "country_id": 235,
    "country_code": "UY",
    "latitude": "-32.52881651",
    "longitude": "-57.96793520",
    "native": null,
    "timezone": "America/Montevideo",
    "translations": {}
  },
  {
    "id": 129861,
    "name": "San Félix",
    "state_id": 3212,
    "state_code": "PA",
    "country_id": 235,
    "country_code": "UY",
    "latitude": "-32.34631000",
    "longitude": "-58.10094000",
    "native": null,
    "timezone": "America/Montevideo",
    "translations": {}
  },
  {
    "id": 163315,
    "name": "San Francisco",
    "state_id": 3212,
    "state_code": "PA",
    "country_id": 235,
    "country_code": "UY",
    "latitude": "-32.30917604",
    "longitude": "-57.99520894",
    "native": null,
    "timezone": "America/Montevideo",
    "translations": {}
  },
  {
    "id": 163294,
    "name": "San Mauricio",
    "state_id": 3212,
    "state_code": "PA",
    "country_id": 235,
    "country_code": "UY",
    "latitude": "-31.54300079",
    "longitude": "-57.80870481",
    "native": null,
    "timezone": "America/Montevideo",
    "translations": {}
  },
  {
    "id": 163318,
    "name": "San Miguel",
    "state_id": 3212,
    "state_code": "PA",
    "country_id": 235,
    "country_code": "UY",
    "latitude": "-32.43770520",
    "longitude": "-57.98068609",
    "native": null,
    "timezone": "America/Montevideo",
    "translations": {}
  },
  {
    "id": 163300,
    "name": "Santa Kilda",
    "state_id": 3212,
    "state_code": "PA",
    "country_id": 235,
    "country_code": "UY",
    "latitude": "-31.83493030",
    "longitude": "-57.74453454",
    "native": null,
    "timezone": "America/Montevideo",
    "translations": {}
  },
  {
    "id": 163305,
    "name": "Sauce de Abajo",
    "state_id": 3212,
    "state_code": "PA",
    "country_id": 235,
    "country_code": "UY",
    "latitude": "-32.12641670",
    "longitude": "-57.64252241",
    "native": null,
    "timezone": "America/Montevideo",
    "translations": {}
  },
  {
    "id": 163280,
    "name": "Sauce del Buricayupi",
    "state_id": 3212,
    "state_code": "PA",
    "country_id": 235,
    "country_code": "UY",
    "latitude": "-31.99751313",
    "longitude": "-57.53869591",
    "native": null,
    "timezone": "America/Montevideo",
    "translations": {}
  },
  {
    "id": 163304,
    "name": "Sauce del Queguay",
    "state_id": 3212,
    "state_code": "PA",
    "country_id": 235,
    "country_code": "UY",
    "latitude": "-32.09475878",
    "longitude": "-57.61065419",
    "native": null,
    "timezone": "America/Montevideo",
    "translations": {}
  },
  {
    "id": 162625,
    "name": "Soto",
    "state_id": 3212,
    "state_code": "PA",
    "country_id": 235,
    "country_code": "UY",
    "latitude": "-31.97529685",
    "longitude": "-57.55467220",
    "native": null,
    "timezone": "America/Montevideo",
    "translations": {}
  },
  {
    "id": 162621,
    "name": "Tambores",
    "state_id": 3212,
    "state_code": "PA",
    "country_id": 235,
    "country_code": "UY",
    "latitude": "-31.87790712",
    "longitude": "-56.24362443",
    "native": null,
    "timezone": "America/Montevideo",
    "translations": {}
  },
  {
    "id": 162254,
    "name": "Termas de Almiron",
    "state_id": 3212,
    "state_code": "PA",
    "country_id": 235,
    "country_code": "UY",
    "latitude": "-32.35825025",
    "longitude": "-57.27003986",
    "native": null,
    "timezone": "America/Montevideo",
    "translations": {}
  },
  {
    "id": 162629,
    "name": "Termas de Guaviyu",
    "state_id": 3212,
    "state_code": "PA",
    "country_id": 235,
    "country_code": "UY",
    "latitude": "-31.83962539",
    "longitude": "-57.89027470",
    "native": null,
    "timezone": "America/Montevideo",
    "translations": {}
  },
  {
    "id": 163293,
    "name": "Tomas Paz",
    "state_id": 3212,
    "state_code": "PA",
    "country_id": 235,
    "country_code": "UY",
    "latitude": "-31.63455221",
    "longitude": "-57.68837145",
    "native": null,
    "timezone": "America/Montevideo",
    "translations": {}
  },
  {
    "id": 163277,
    "name": "Tres Bocas",
    "state_id": 3212,
    "state_code": "PA",
    "country_id": 235,
    "country_code": "UY",
    "latitude": "-31.85332252",
    "longitude": "-57.44498336",
    "native": null,
    "timezone": "America/Montevideo",
    "translations": {}
  },
  {
    "id": 163309,
    "name": "Valdez",
    "state_id": 3212,
    "state_code": "PA",
    "country_id": 235,
    "country_code": "UY",
    "latitude": "-32.46524853",
    "longitude": "-57.80329775",
    "native": null,
    "timezone": "America/Montevideo",
    "translations": {}
  },
  {
    "id": 162631,
    "name": "Villa Maria (Tiatucura)",
    "state_id": 3212,
    "state_code": "PA",
    "country_id": 235,
    "country_code": "UY",
    "latitude": "-32.34535991",
    "longitude": "-56.54481331",
    "native": null,
    "timezone": "America/Montevideo",
    "translations": {}
  },
  {
    "id": 162628,
    "name": "Zeballos",
    "state_id": 3212,
    "state_code": "PA",
    "country_id": 235,
    "country_code": "UY",
    "latitude": "-32.04881529",
    "longitude": "-57.41976135",
    "native": null,
    "timezone": "America/Montevideo",
    "translations": {}
  }
]