[
  {
    "id": 39247,
    "name": "Abscon",
    "state_id": 5027,
    "state_code": "59",
    "country_id": 75,
    "country_code": "FR",
    "latitude": "50.33333000",
    "longitude": "3.30000000",
    "native": null,
    "timezone": "Europe/Paris",
    "translations": {}
  },
  {
    "id": 39324,
    "name": "Allennes-les-Marais",
    "state_id": 5027,
    "state_code": "59",
    "country_id": 75,
    "country_code": "FR",
    "latitude": "50.53754000",
    "longitude": "2.95361000",
    "native": null,
    "timezone": "Europe/Paris",
    "translations": {}
  },
  {
    "id": 39409,
    "name": "Anhiers",
    "state_id": 5027,
    "state_code": "59",
    "country_id": 75,
    "country_code": "FR",
    "latitude": "50.40737000",
    "longitude": "3.15512000",
    "native": null,
    "timezone": "Europe/Paris",
    "translations": {}
  },
  {
    "id": 39411,
    "name": "Aniche",
    "state_id": 5027,
    "state_code": "59",
    "country_id": 75,
    "country_code": "FR",
    "latitude": "50.32995000",
    "longitude": "3.25346000",
    "native": null,
    "timezone": "Europe/Paris",
    "translations": {}
  },
  {
    "id": 39422,
    "name": "Annoeullin",
    "state_id": 5027,
    "state_code": "59",
    "country_id": 75,
    "country_code": "FR",
    "latitude": "50.52925000",
    "longitude": "2.93180000",
    "native": null,
    "timezone": "Europe/Paris",
    "translations": {}
  },
  {
    "id": 39425,
    "name": "Anor",
    "state_id": 5027,
    "state_code": "59",
    "country_id": 75,
    "country_code": "FR",
    "latitude": "49.98999000",
    "longitude": "4.10049000",
    "native": null,
    "timezone": "Europe/Paris",
    "translations": {}
  },
  {
    "id": 39430,
    "name": "Anstaing",
    "state_id": 5027,
    "state_code": "59",
    "country_id": 75,
    "country_code": "FR",
    "latitude": "50.60473000",
    "longitude": "3.19079000",
    "native": null,
    "timezone": "Europe/Paris",
    "translations": {}
  },
  {
    "id": 39438,
    "name": "Anzin",
    "state_id": 5027,
    "state_code": "59",
    "country_id": 75,
    "country_code": "FR",
    "latitude": "50.37201000",
    "longitude": "3.50387000",
    "native": null,
    "timezone": "Europe/Paris",
    "translations": {}
  },
  {
    "id": 39490,
    "name": "Arleux",
    "state_id": 5027,
    "state_code": "59",
    "country_id": 75,
    "country_code": "FR",
    "latitude": "50.28037000",
    "longitude": "3.10448000",
    "native": null,
    "timezone": "Europe/Paris",
    "translations": {}
  },
  {
    "id": 39491,
    "name": "Armbouts-Cappel",
    "state_id": 5027,
    "state_code": "59",
    "country_id": 75,
    "country_code": "FR",
    "latitude": "50.97682000",
    "longitude": "2.35352000",
    "native": null,
    "timezone": "Europe/Paris",
    "translations": {}
  },
  {
    "id": 39493,
    "name": "Armentières",
    "state_id": 5027,
    "state_code": "59",
    "country_id": 75,
    "country_code": "FR",
    "latitude": "50.68568000",
    "longitude": "2.88214000",
    "native": null,
    "timezone": "Europe/Paris",
    "translations": {}
  },
  {
    "id": 39504,
    "name": "Arnèke",
    "state_id": 5027,
    "state_code": "59",
    "country_id": 75,
    "country_code": "FR",
    "latitude": "50.83219000",
    "longitude": "2.40943000",
    "native": null,
    "timezone": "Europe/Paris",
    "translations": {}
  },
  {
    "id": 39530,
    "name": "Artres",
    "state_id": 5027,
    "state_code": "59",
    "country_id": 75,
    "country_code": "FR",
    "latitude": "50.29482000",
    "longitude": "3.54013000",
    "native": null,
    "timezone": "Europe/Paris",
    "translations": {}
  },
  {
    "id": 39561,
    "name": "Attiches",
    "state_id": 5027,
    "state_code": "59",
    "country_id": 75,
    "country_code": "FR",
    "latitude": "50.52220000",
    "longitude": "3.06222000",
    "native": null,
    "timezone": "Europe/Paris",
    "translations": {}
  },
  {
    "id": 39570,
    "name": "Auberchicourt",
    "state_id": 5027,
    "state_code": "59",
    "country_id": 75,
    "country_code": "FR",
    "latitude": "50.33333000",
    "longitude": "3.23333000",
    "native": null,
    "timezone": "Europe/Paris",
    "translations": {}
  },
  {
    "id": 39573,
    "name": "Aubers",
    "state_id": 5027,
    "state_code": "59",
    "country_id": 75,
    "country_code": "FR",
    "latitude": "50.59543000",
    "longitude": "2.82666000",
    "native": null,
    "timezone": "Europe/Paris",
    "translations": {}
  },
  {
    "id": 39580,
    "name": "Aubigny-au-Bac",
    "state_id": 5027,
    "state_code": "59",
    "country_id": 75,
    "country_code": "FR",
    "latitude": "50.26370000",
    "longitude": "3.16448000",
    "native": null,
    "timezone": "Europe/Paris",
    "translations": {}
  },
  {
    "id": 39588,
    "name": "Aubry-du-Hainaut",
    "state_id": 5027,
    "state_code": "59",
    "country_id": 75,
    "country_code": "FR",
    "latitude": "50.36667000",
    "longitude": "3.46667000",
    "native": null,
    "timezone": "Europe/Paris",
    "translations": {}
  },
  {
    "id": 39590,
    "name": "Auby",
    "state_id": 5027,
    "state_code": "59",
    "country_id": 75,
    "country_code": "FR",
    "latitude": "50.41457000",
    "longitude": "3.05396000",
    "native": null,
    "timezone": "Europe/Paris",
    "translations": {}
  },
  {
    "id": 39612,
    "name": "Aulnoy-lez-Valenciennes",
    "state_id": 5027,
    "state_code": "59",
    "country_id": 75,
    "country_code": "FR",
    "latitude": "50.33333000",
    "longitude": "3.53333000",
    "native": null,
    "timezone": "Europe/Paris",
    "translations": {}
  },
  {
    "id": 39613,
    "name": "Aulnoye-Aymeries",
    "state_id": 5027,
    "state_code": "59",
    "country_id": 75,
    "country_code": "FR",
    "latitude": "50.20141000",
    "longitude": "3.83844000",
    "native": null,
    "timezone": "Europe/Paris",
    "translations": {}
  },
  {
    "id": 39661,
    "name": "Avelin",
    "state_id": 5027,
    "state_code": "59",
    "country_id": 75,
    "country_code": "FR",
    "latitude": "50.53968000",
    "longitude": "3.08222000",
    "native": null,
    "timezone": "Europe/Paris",
    "translations": {}
  },
  {
    "id": 39664,
    "name": "Avesnelles",
    "state_id": 5027,
    "state_code": "59",
    "country_id": 75,
    "country_code": "FR",
    "latitude": "50.11782000",
    "longitude": "3.94674000",
    "native": null,
    "timezone": "Europe/Paris",
    "translations": {}
  },
  {
    "id": 39666,
    "name": "Avesnes-le-Sec",
    "state_id": 5027,
    "state_code": "59",
    "country_id": 75,
    "country_code": "FR",
    "latitude": "50.25100000",
    "longitude": "3.37768000",
    "native": null,
    "timezone": "Europe/Paris",
    "translations": {}
  },
  {
    "id": 39667,
    "name": "Avesnes-les-Aubert",
    "state_id": 5027,
    "state_code": "59",
    "country_id": 75,
    "country_code": "FR",
    "latitude": "50.20000000",
    "longitude": "3.38333000",
    "native": null,
    "timezone": "Europe/Paris",
    "translations": {}
  },
  {
    "id": 161674,
    "name": "Avesnes-sur-Helpe",
    "state_id": 5027,
    "state_code": "59",
    "country_id": 75,
    "country_code": "FR",
    "latitude": "50.12240000",
    "longitude": "3.92690000",
    "native": null,
    "timezone": "Europe/Paris",
    "translations": {}
  },
  {
    "id": 39700,
    "name": "Bachant",
    "state_id": 5027,
    "state_code": "59",
    "country_id": 75,
    "country_code": "FR",
    "latitude": "50.21540000",
    "longitude": "3.86835000",
    "native": null,
    "timezone": "Europe/Paris",
    "translations": {}
  },
  {
    "id": 39701,
    "name": "Bachy",
    "state_id": 5027,
    "state_code": "59",
    "country_id": 75,
    "country_code": "FR",
    "latitude": "50.55079000",
    "longitude": "3.25976000",
    "native": null,
    "timezone": "Europe/Paris",
    "translations": {}
  },
  {
    "id": 39725,
    "name": "Bailleul",
    "state_id": 5027,
    "state_code": "59",
    "country_id": 75,
    "country_code": "FR",
    "latitude": "50.73592000",
    "longitude": "2.73594000",
    "native": null,
    "timezone": "Europe/Paris",
    "translations": {}
  },
  {
    "id": 39740,
    "name": "Baisieux",
    "state_id": 5027,
    "state_code": "59",
    "country_id": 75,
    "country_code": "FR",
    "latitude": "50.60841000",
    "longitude": "3.25251000",
    "native": null,
    "timezone": "Europe/Paris",
    "translations": {}
  },
  {
    "id": 39816,
    "name": "Bauvin",
    "state_id": 5027,
    "state_code": "59",
    "country_id": 75,
    "country_code": "FR",
    "latitude": "50.51714000",
    "longitude": "2.89404000",
    "native": null,
    "timezone": "Europe/Paris",
    "translations": {}
  },
  {
    "id": 39818,
    "name": "Bavay",
    "state_id": 5027,
    "state_code": "59",
    "country_id": 75,
    "country_code": "FR",
    "latitude": "50.29828000",
    "longitude": "3.79372000",
    "native": null,
    "timezone": "Europe/Paris",
    "translations": {}
  },
  {
    "id": 39895,
    "name": "Beauvois-en-Cambrésis",
    "state_id": 5027,
    "state_code": "59",
    "country_id": 75,
    "country_code": "FR",
    "latitude": "50.13735000",
    "longitude": "3.37870000",
    "native": null,
    "timezone": "Europe/Paris",
    "translations": {}
  },
  {
    "id": 39908,
    "name": "Bellaing",
    "state_id": 5027,
    "state_code": "59",
    "country_id": 75,
    "country_code": "FR",
    "latitude": "50.36811000",
    "longitude": "3.42515000",
    "native": null,
    "timezone": "Europe/Paris",
    "translations": {}
  },
  {
    "id": 39948,
    "name": "Bergues",
    "state_id": 5027,
    "state_code": "59",
    "country_id": 75,
    "country_code": "FR",
    "latitude": "50.96882000",
    "longitude": "2.43242000",
    "native": null,
    "timezone": "Europe/Paris",
    "translations": {}
  },
  {
    "id": 39949,
    "name": "Berlaimont",
    "state_id": 5027,
    "state_code": "59",
    "country_id": 75,
    "country_code": "FR",
    "latitude": "50.20155000",
    "longitude": "3.81343000",
    "native": null,
    "timezone": "Europe/Paris",
    "translations": {}
  },
  {
    "id": 39966,
    "name": "Bersée",
    "state_id": 5027,
    "state_code": "59",
    "country_id": 75,
    "country_code": "FR",
    "latitude": "50.47978000",
    "longitude": "3.14765000",
    "native": null,
    "timezone": "Europe/Paris",
    "translations": {}
  },
  {
    "id": 39970,
    "name": "Bertry",
    "state_id": 5027,
    "state_code": "59",
    "country_id": 75,
    "country_code": "FR",
    "latitude": "50.08718000",
    "longitude": "3.44298000",
    "native": null,
    "timezone": "Europe/Paris",
    "translations": {}
  },
  {
    "id": 39992,
    "name": "Beuvrages",
    "state_id": 5027,
    "state_code": "59",
    "country_id": 75,
    "country_code": "FR",
    "latitude": "50.38414000",
    "longitude": "3.49420000",
    "native": null,
    "timezone": "Europe/Paris",
    "translations": {}
  },
  {
    "id": 161690,
    "name": "Beuvry-la-Forêt",
    "state_id": 5027,
    "state_code": "59",
    "country_id": 75,
    "country_code": "FR",
    "latitude": "50.45090000",
    "longitude": "3.28320000",
    "native": null,
    "timezone": "Europe/Paris",
    "translations": {}
  },
  {
    "id": 40012,
    "name": "Bierne",
    "state_id": 5027,
    "state_code": "59",
    "country_id": 75,
    "country_code": "FR",
    "latitude": "50.96232000",
    "longitude": "2.40963000",
    "native": null,
    "timezone": "Europe/Paris",
    "translations": {}
  },
  {
    "id": 40058,
    "name": "Blaringhem",
    "state_id": 5027,
    "state_code": "59",
    "country_id": 75,
    "country_code": "FR",
    "latitude": "50.69110000",
    "longitude": "2.40321000",
    "native": null,
    "timezone": "Europe/Paris",
    "translations": {}
  },
  {
    "id": 40080,
    "name": "Boeschepe",
    "state_id": 5027,
    "state_code": "59",
    "country_id": 75,
    "country_code": "FR",
    "latitude": "50.80000000",
    "longitude": "2.70000000",
    "native": null,
    "timezone": "Europe/Paris",
    "translations": {}
  },
  {
    "id": 40085,
    "name": "Bois-Grenier",
    "state_id": 5027,
    "state_code": "59",
    "country_id": 75,
    "country_code": "FR",
    "latitude": "50.64985000",
    "longitude": "2.87409000",
    "native": null,
    "timezone": "Europe/Paris",
    "translations": {}
  },
  {
    "id": 40103,
    "name": "Bollezeele",
    "state_id": 5027,
    "state_code": "59",
    "country_id": 75,
    "country_code": "FR",
    "latitude": "50.86687000",
    "longitude": "2.34751000",
    "native": null,
    "timezone": "Europe/Paris",
    "translations": {}
  },
  {
    "id": 40112,
    "name": "Bondues",
    "state_id": 5027,
    "state_code": "59",
    "country_id": 75,
    "country_code": "FR",
    "latitude": "50.70196000",
    "longitude": "3.09497000",
    "native": null,
    "timezone": "Europe/Paris",
    "translations": {}
  },
  {
    "id": 40151,
    "name": "Bouchain",
    "state_id": 5027,
    "state_code": "59",
    "country_id": 75,
    "country_code": "FR",
    "latitude": "50.28519000",
    "longitude": "3.31491000",
    "native": null,
    "timezone": "Europe/Paris",
    "translations": {}
  },
  {
    "id": 40181,
    "name": "Bourbourg",
    "state_id": 5027,
    "state_code": "59",
    "country_id": 75,
    "country_code": "FR",
    "latitude": "50.94783000",
    "longitude": "2.19576000",
    "native": null,
    "timezone": "Europe/Paris",
    "translations": {}
  },
  {
    "id": 40200,
    "name": "Bourghelles",
    "state_id": 5027,
    "state_code": "59",
    "country_id": 75,
    "country_code": "FR",
    "latitude": "50.56501000",
    "longitude": "3.24447000",
    "native": null,
    "timezone": "Europe/Paris",
    "translations": {}
  },
  {
    "id": 40214,
    "name": "Bousbecque",
    "state_id": 5027,
    "state_code": "59",
    "country_id": 75,
    "country_code": "FR",
    "latitude": "50.77123000",
    "longitude": "3.08459000",
    "native": null,
    "timezone": "Europe/Paris",
    "translations": {}
  },
  {
    "id": 40215,
    "name": "Bousies",
    "state_id": 5027,
    "state_code": "59",
    "country_id": 75,
    "country_code": "FR",
    "latitude": "50.15097000",
    "longitude": "3.61752000",
    "native": null,
    "timezone": "Europe/Paris",
    "translations": {}
  },
  {
    "id": 40220,
    "name": "Boussois",
    "state_id": 5027,
    "state_code": "59",
    "country_id": 75,
    "country_code": "FR",
    "latitude": "50.28907000",
    "longitude": "4.04117000",
    "native": null,
    "timezone": "Europe/Paris",
    "translations": {}
  },
  {
    "id": 40227,
    "name": "Bouvignies",
    "state_id": 5027,
    "state_code": "59",
    "country_id": 75,
    "country_code": "FR",
    "latitude": "50.43627000",
    "longitude": "3.24361000",
    "native": null,
    "timezone": "Europe/Paris",
    "translations": {}
  },
  {
    "id": 40266,
    "name": "Bray-Dunes",
    "state_id": 5027,
    "state_code": "59",
    "country_id": 75,
    "country_code": "FR",
    "latitude": "51.07786000",
    "longitude": "2.51673000",
    "native": null,
    "timezone": "Europe/Paris",
    "translations": {}
  },
  {
    "id": 40336,
    "name": "Brouckerque",
    "state_id": 5027,
    "state_code": "59",
    "country_id": 75,
    "country_code": "FR",
    "latitude": "50.95476000",
    "longitude": "2.29378000",
    "native": null,
    "timezone": "Europe/Paris",
    "translations": {}
  },
  {
    "id": 40339,
    "name": "Bruay-sur-l’Escaut",
    "state_id": 5027,
    "state_code": "59",
    "country_id": 75,
    "country_code": "FR",
    "latitude": "50.39918000",
    "longitude": "3.54379000",
    "native": null,
    "timezone": "Europe/Paris",
    "translations": {}
  },
  {
    "id": 40344,
    "name": "Bruille-lez-Marchiennes",
    "state_id": 5027,
    "state_code": "59",
    "country_id": 75,
    "country_code": "FR",
    "latitude": "50.36068000",
    "longitude": "3.24424000",
    "native": null,
    "timezone": "Europe/Paris",
    "translations": {}
  },
  {
    "id": 40343,
    "name": "Bruille-Saint-Amand",
    "state_id": 5027,
    "state_code": "59",
    "country_id": 75,
    "country_code": "FR",
    "latitude": "50.46605000",
    "longitude": "3.50013000",
    "native": null,
    "timezone": "Europe/Paris",
    "translations": {}
  },
  {
    "id": 40393,
    "name": "Busigny",
    "state_id": 5027,
    "state_code": "59",
    "country_id": 75,
    "country_code": "FR",
    "latitude": "50.03424000",
    "longitude": "3.46713000",
    "native": null,
    "timezone": "Europe/Paris",
    "translations": {}
  },
  {
    "id": 40630,
    "name": "Caëstre",
    "state_id": 5027,
    "state_code": "59",
    "country_id": 75,
    "country_code": "FR",
    "latitude": "50.75838000",
    "longitude": "2.60274000",
    "native": null,
    "timezone": "Europe/Paris",
    "translations": {}
  },
  {
    "id": 40489,
    "name": "Cambrai",
    "state_id": 5027,
    "state_code": "59",
    "country_id": 75,
    "country_code": "FR",
    "latitude": "50.17596000",
    "longitude": "3.23472000",
    "native": null,
    "timezone": "Europe/Paris",
    "translations": {}
  },
  {
    "id": 40499,
    "name": "Camphin-en-Carembault",
    "state_id": 5027,
    "state_code": "59",
    "country_id": 75,
    "country_code": "FR",
    "latitude": "50.51196000",
    "longitude": "2.98710000",
    "native": null,
    "timezone": "Europe/Paris",
    "translations": {}
  },
  {
    "id": 40500,
    "name": "Camphin-en-Pévèle",
    "state_id": 5027,
    "state_code": "59",
    "country_id": 75,
    "country_code": "FR",
    "latitude": "50.59561000",
    "longitude": "3.26082000",
    "native": null,
    "timezone": "Europe/Paris",
    "translations": {}
  },
  {
    "id": 40521,
    "name": "Cantin",
    "state_id": 5027,
    "state_code": "59",
    "country_id": 75,
    "country_code": "FR",
    "latitude": "50.30885000",
    "longitude": "3.12765000",
    "native": null,
    "timezone": "Europe/Paris",
    "translations": {}
  },
  {
    "id": 40529,
    "name": "Capinghem",
    "state_id": 5027,
    "state_code": "59",
    "country_id": 75,
    "country_code": "FR",
    "latitude": "50.64551000",
    "longitude": "2.96193000",
    "native": null,
    "timezone": "Europe/Paris",
    "translations": {}
  },
  {
    "id": 40530,
    "name": "Cappelle-en-Pévèle",
    "state_id": 5027,
    "state_code": "59",
    "country_id": 75,
    "country_code": "FR",
    "latitude": "50.51011000",
    "longitude": "3.17133000",
    "native": null,
    "timezone": "Europe/Paris",
    "translations": {}
  },
  {
    "id": 40531,
    "name": "Cappelle-la-Grande",
    "state_id": 5027,
    "state_code": "59",
    "country_id": 75,
    "country_code": "FR",
    "latitude": "50.99979000",
    "longitude": "2.35848000",
    "native": null,
    "timezone": "Europe/Paris",
    "translations": {}
  },
  {
    "id": 40566,
    "name": "Cartignies",
    "state_id": 5027,
    "state_code": "59",
    "country_id": 75,
    "country_code": "FR",
    "latitude": "50.09290000",
    "longitude": "3.84473000",
    "native": null,
    "timezone": "Europe/Paris",
    "translations": {}
  },
  {
    "id": 40569,
    "name": "Cassel",
    "state_id": 5027,
    "state_code": "59",
    "country_id": 75,
    "country_code": "FR",
    "latitude": "50.80109000",
    "longitude": "2.48527000",
    "native": null,
    "timezone": "Europe/Paris",
    "translations": {}
  },
  {
    "id": 40604,
    "name": "Caudry",
    "state_id": 5027,
    "state_code": "59",
    "country_id": 75,
    "country_code": "FR",
    "latitude": "50.12490000",
    "longitude": "3.41186000",
    "native": null,
    "timezone": "Europe/Paris",
    "translations": {}
  },
  {
    "id": 41015,
    "name": "Chéreng",
    "state_id": 5027,
    "state_code": "59",
    "country_id": 75,
    "country_code": "FR",
    "latitude": "50.61059000",
    "longitude": "3.20666000",
    "native": null,
    "timezone": "Europe/Paris",
    "translations": {}
  },
  {
    "id": 41044,
    "name": "Clary",
    "state_id": 5027,
    "state_code": "59",
    "country_id": 75,
    "country_code": "FR",
    "latitude": "50.07789000",
    "longitude": "3.39943000",
    "native": null,
    "timezone": "Europe/Paris",
    "translations": {}
  },
  {
    "id": 41089,
    "name": "Colleret",
    "state_id": 5027,
    "state_code": "59",
    "country_id": 75,
    "country_code": "FR",
    "latitude": "50.25693000",
    "longitude": "4.08083000",
    "native": null,
    "timezone": "Europe/Paris",
    "translations": {}
  },
  {
    "id": 41116,
    "name": "Comines",
    "state_id": 5027,
    "state_code": "59",
    "country_id": 75,
    "country_code": "FR",
    "latitude": "50.76150000",
    "longitude": "3.01063000",
    "native": null,
    "timezone": "Europe/Paris",
    "translations": {}
  },
  {
    "id": 41141,
    "name": "Condé-sur-l’Escaut",
    "state_id": 5027,
    "state_code": "59",
    "country_id": 75,
    "country_code": "FR",
    "latitude": "50.45436000",
    "longitude": "3.58884000",
    "native": null,
    "timezone": "Europe/Paris",
    "translations": {}
  },
  {
    "id": 41219,
    "name": "Coudekerque-Branche",
    "state_id": 5027,
    "state_code": "59",
    "country_id": 75,
    "country_code": "FR",
    "latitude": "51.02288000",
    "longitude": "2.39359000",
    "native": null,
    "timezone": "Europe/Paris",
    "translations": {}
  },
  {
    "id": 41220,
    "name": "Coudekerque-Village",
    "state_id": 5027,
    "state_code": "59",
    "country_id": 75,
    "country_code": "FR",
    "latitude": "51.00000000",
    "longitude": "2.41667000",
    "native": null,
    "timezone": "Europe/Paris",
    "translations": {}
  },
  {
    "id": 41246,
    "name": "Courchelettes",
    "state_id": 5027,
    "state_code": "59",
    "country_id": 75,
    "country_code": "FR",
    "latitude": "50.34043000",
    "longitude": "3.05938000",
    "native": null,
    "timezone": "Europe/Paris",
    "translations": {}
  },
  {
    "id": 41276,
    "name": "Cousolre",
    "state_id": 5027,
    "state_code": "59",
    "country_id": 75,
    "country_code": "FR",
    "latitude": "50.24607000",
    "longitude": "4.14941000",
    "native": null,
    "timezone": "Europe/Paris",
    "translations": {}
  },
  {
    "id": 41281,
    "name": "Coutiches",
    "state_id": 5027,
    "state_code": "59",
    "country_id": 75,
    "country_code": "FR",
    "latitude": "50.45520000",
    "longitude": "3.20384000",
    "native": null,
    "timezone": "Europe/Paris",
    "translations": {}
  },
  {
    "id": 41306,
    "name": "Crespin",
    "state_id": 5027,
    "state_code": "59",
    "country_id": 75,
    "country_code": "FR",
    "latitude": "50.42110000",
    "longitude": "3.66137000",
    "native": null,
    "timezone": "Europe/Paris",
    "translations": {}
  },
  {
    "id": 41325,
    "name": "Croix",
    "state_id": 5027,
    "state_code": "59",
    "country_id": 75,
    "country_code": "FR",
    "latitude": "50.67846000",
    "longitude": "3.14930000",
    "native": null,
    "timezone": "Europe/Paris",
    "translations": {}
  },
  {
    "id": 41366,
    "name": "Cuincy",
    "state_id": 5027,
    "state_code": "59",
    "country_id": 75,
    "country_code": "FR",
    "latitude": "50.37933000",
    "longitude": "3.05301000",
    "native": null,
    "timezone": "Europe/Paris",
    "translations": {}
  },
  {
    "id": 41375,
    "name": "Curgies",
    "state_id": 5027,
    "state_code": "59",
    "country_id": 75,
    "country_code": "FR",
    "latitude": "50.32975000",
    "longitude": "3.60299000",
    "native": null,
    "timezone": "Europe/Paris",
    "translations": {}
  },
  {
    "id": 41388,
    "name": "Cysoing",
    "state_id": 5027,
    "state_code": "59",
    "country_id": 75,
    "country_code": "FR",
    "latitude": "50.56939000",
    "longitude": "3.21627000",
    "native": null,
    "timezone": "Europe/Paris",
    "translations": {}
  },
  {
    "id": 41446,
    "name": "Dechy",
    "state_id": 5027,
    "state_code": "59",
    "country_id": 75,
    "country_code": "FR",
    "latitude": "50.35000000",
    "longitude": "3.11667000",
    "native": null,
    "timezone": "Europe/Paris",
    "translations": {}
  },
  {
    "id": 41450,
    "name": "Denain",
    "state_id": 5027,
    "state_code": "59",
    "country_id": 75,
    "country_code": "FR",
    "latitude": "50.32930000",
    "longitude": "3.39430000",
    "native": null,
    "timezone": "Europe/Paris",
    "translations": {}
  },
  {
    "id": 41463,
    "name": "Deûlémont",
    "state_id": 5027,
    "state_code": "59",
    "country_id": 75,
    "country_code": "FR",
    "latitude": "50.73333000",
    "longitude": "2.95000000",
    "native": null,
    "timezone": "Europe/Paris",
    "translations": {}
  },
  {
    "id": 41528,
    "name": "Don",
    "state_id": 5027,
    "state_code": "59",
    "country_id": 75,
    "country_code": "FR",
    "latitude": "50.54912000",
    "longitude": "2.91817000",
    "native": null,
    "timezone": "Europe/Paris",
    "translations": {}
  },
  {
    "id": 41545,
    "name": "Douai",
    "state_id": 5027,
    "state_code": "59",
    "country_id": 75,
    "country_code": "FR",
    "latitude": "50.37069000",
    "longitude": "3.07922000",
    "native": null,
    "timezone": "Europe/Paris",
    "translations": {}
  },
  {
    "id": 41549,
    "name": "Douchy-les-Mines",
    "state_id": 5027,
    "state_code": "59",
    "country_id": 75,
    "country_code": "FR",
    "latitude": "50.30080000",
    "longitude": "3.39270000",
    "native": null,
    "timezone": "Europe/Paris",
    "translations": {}
  },
  {
    "id": 41592,
    "name": "Dunkerque",
    "state_id": 5027,
    "state_code": "59",
    "country_id": 75,
    "country_code": "FR",
    "latitude": "51.03297000",
    "longitude": "2.37700000",
    "native": null,
    "timezone": "Europe/Paris",
    "translations": {}
  },
  {
    "id": 48037,
    "name": "Écaillon",
    "state_id": 5027,
    "state_code": "59",
    "country_id": 75,
    "country_code": "FR",
    "latitude": "50.35034000",
    "longitude": "3.21664000",
    "native": null,
    "timezone": "Europe/Paris",
    "translations": {}
  },
  {
    "id": 48067,
    "name": "Émerchicourt",
    "state_id": 5027,
    "state_code": "59",
    "country_id": 75,
    "country_code": "FR",
    "latitude": "50.30786000",
    "longitude": "3.24537000",
    "native": null,
    "timezone": "Europe/Paris",
    "translations": {}
  },
  {
    "id": 41667,
    "name": "Emmerin",
    "state_id": 5027,
    "state_code": "59",
    "country_id": 75,
    "country_code": "FR",
    "latitude": "50.59475000",
    "longitude": "3.00124000",
    "native": null,
    "timezone": "Europe/Paris",
    "translations": {}
  },
  {
    "id": 41670,
    "name": "Englefontaine",
    "state_id": 5027,
    "state_code": "59",
    "country_id": 75,
    "country_code": "FR",
    "latitude": "50.19091000",
    "longitude": "3.64401000",
    "native": null,
    "timezone": "Europe/Paris",
    "translations": {}
  },
  {
    "id": 41673,
    "name": "Ennetières-en-Weppes",
    "state_id": 5027,
    "state_code": "59",
    "country_id": 75,
    "country_code": "FR",
    "latitude": "50.63530000",
    "longitude": "2.94012000",
    "native": null,
    "timezone": "Europe/Paris",
    "translations": {}
  },
  {
    "id": 41674,
    "name": "Ennevelin",
    "state_id": 5027,
    "state_code": "59",
    "country_id": 75,
    "country_code": "FR",
    "latitude": "50.54121000",
    "longitude": "3.12972000",
    "native": null,
    "timezone": "Europe/Paris",
    "translations": {}
  },
  {
    "id": 41699,
    "name": "Erquinghem-Lys",
    "state_id": 5027,
    "state_code": "59",
    "country_id": 75,
    "country_code": "FR",
    "latitude": "50.67601000",
    "longitude": "2.84505000",
    "native": null,
    "timezone": "Europe/Paris",
    "translations": {}
  },
  {
    "id": 41701,
    "name": "Erre",
    "state_id": 5027,
    "state_code": "59",
    "country_id": 75,
    "country_code": "FR",
    "latitude": "50.36252000",
    "longitude": "3.31561000",
    "native": null,
    "timezone": "Europe/Paris",
    "translations": {}
  },
  {
    "id": 41706,
    "name": "Escaudain",
    "state_id": 5027,
    "state_code": "59",
    "country_id": 75,
    "country_code": "FR",
    "latitude": "50.33315000",
    "longitude": "3.34430000",
    "native": null,
    "timezone": "Europe/Paris",
    "translations": {}
  },
  {
    "id": 41707,
    "name": "Escaudœuvres",
    "state_id": 5027,
    "state_code": "59",
    "country_id": 75,
    "country_code": "FR",
    "latitude": "50.20000000",
    "longitude": "3.26667000",
    "native": null,
    "timezone": "Europe/Paris",
    "translations": {}
  },
  {
    "id": 41708,
    "name": "Escautpont",
    "state_id": 5027,
    "state_code": "59",
    "country_id": 75,
    "country_code": "FR",
    "latitude": "50.41875000",
    "longitude": "3.55341000",
    "native": null,
    "timezone": "Europe/Paris",
    "translations": {}
  },
  {
    "id": 41720,
    "name": "Esquelbecq",
    "state_id": 5027,
    "state_code": "59",
    "country_id": 75,
    "country_code": "FR",
    "latitude": "50.88694000",
    "longitude": "2.43215000",
    "native": null,
    "timezone": "Europe/Paris",
    "translations": {}
  },
  {
    "id": 41730,
    "name": "Estaires",
    "state_id": 5027,
    "state_code": "59",
    "country_id": 75,
    "country_code": "FR",
    "latitude": "50.64574000",
    "longitude": "2.72782000",
    "native": null,
    "timezone": "Europe/Paris",
    "translations": {}
  },
  {
    "id": 41737,
    "name": "Estrées",
    "state_id": 5027,
    "state_code": "59",
    "country_id": 75,
    "country_code": "FR",
    "latitude": "50.30079000",
    "longitude": "3.06980000",
    "native": null,
    "timezone": "Europe/Paris",
    "translations": {}
  },
  {
    "id": 41762,
    "name": "Faches-Thumesnil",
    "state_id": 5027,
    "state_code": "59",
    "country_id": 75,
    "country_code": "FR",
    "latitude": "50.58333000",
    "longitude": "3.06667000",
    "native": null,
    "timezone": "Europe/Paris",
    "translations": {}
  },
  {
    "id": 41769,
    "name": "Famars",
    "state_id": 5027,
    "state_code": "59",
    "country_id": 75,
    "country_code": "FR",
    "latitude": "50.31743000",
    "longitude": "3.51945000",
    "native": null,
    "timezone": "Europe/Paris",
    "translations": {}
  },
  {
    "id": 41780,
    "name": "Faumont",
    "state_id": 5027,
    "state_code": "59",
    "country_id": 75,
    "country_code": "FR",
    "latitude": "50.46017000",
    "longitude": "3.13713000",
    "native": null,
    "timezone": "Europe/Paris",
    "translations": {}
  },
  {
    "id": 42000,
    "name": "Féchain",
    "state_id": 5027,
    "state_code": "59",
    "country_id": 75,
    "country_code": "FR",
    "latitude": "50.26638000",
    "longitude": "3.21024000",
    "native": null,
    "timezone": "Europe/Paris",
    "translations": {}
  },
  {
    "id": 41792,
    "name": "Feignies",
    "state_id": 5027,
    "state_code": "59",
    "country_id": 75,
    "country_code": "FR",
    "latitude": "50.29806000",
    "longitude": "3.91534000",
    "native": null,
    "timezone": "Europe/Paris",
    "translations": {}
  },
  {
    "id": 41797,
    "name": "Fenain",
    "state_id": 5027,
    "state_code": "59",
    "country_id": 75,
    "country_code": "FR",
    "latitude": "50.36667000",
    "longitude": "3.30000000",
    "native": null,
    "timezone": "Europe/Paris",
    "translations": {}
  },
  {
    "id": 42005,
    "name": "Férin",
    "state_id": 5027,
    "state_code": "59",
    "country_id": 75,
    "country_code": "FR",
    "latitude": "50.32732000",
    "longitude": "3.07415000",
    "native": null,
    "timezone": "Europe/Paris",
    "translations": {}
  },
  {
    "id": 41805,
    "name": "Ferrière-la-Grande",
    "state_id": 5027,
    "state_code": "59",
    "country_id": 75,
    "country_code": "FR",
    "latitude": "50.25521000",
    "longitude": "3.99288000",
    "native": null,
    "timezone": "Europe/Paris",
    "translations": {}
  },
  {
    "id": 41837,
    "name": "Flers-en-Escrebieux",
    "state_id": 5027,
    "state_code": "59",
    "country_id": 75,
    "country_code": "FR",
    "latitude": "50.39790000",
    "longitude": "3.06038000",
    "native": null,
    "timezone": "Europe/Paris",
    "translations": {}
  },
  {
    "id": 41853,
    "name": "Flines-lès-Mortagne",
    "state_id": 5027,
    "state_code": "59",
    "country_id": 75,
    "country_code": "FR",
    "latitude": "50.50281000",
    "longitude": "3.46495000",
    "native": null,
    "timezone": "Europe/Paris",
    "translations": {}
  },
  {
    "id": 41852,
    "name": "Flines-lez-Raches",
    "state_id": 5027,
    "state_code": "59",
    "country_id": 75,
    "country_code": "FR",
    "latitude": "50.41667000",
    "longitude": "3.18333000",
    "native": null,
    "timezone": "Europe/Paris",
    "translations": {}
  },
  {
    "id": 41878,
    "name": "Fontaine-au-Pire",
    "state_id": 5027,
    "state_code": "59",
    "country_id": 75,
    "country_code": "FR",
    "latitude": "50.13250000",
    "longitude": "3.37667000",
    "native": null,
    "timezone": "Europe/Paris",
    "translations": {}
  },
  {
    "id": 41877,
    "name": "Fontaine-Notre-Dame",
    "state_id": 5027,
    "state_code": "59",
    "country_id": 75,
    "country_code": "FR",
    "latitude": "50.16681000",
    "longitude": "3.15812000",
    "native": null,
    "timezone": "Europe/Paris",
    "translations": {}
  },
  {
    "id": 41911,
    "name": "Forest-sur-Marque",
    "state_id": 5027,
    "state_code": "59",
    "country_id": 75,
    "country_code": "FR",
    "latitude": "50.63341000",
    "longitude": "3.18939000",
    "native": null,
    "timezone": "Europe/Paris",
    "translations": {}
  },
  {
    "id": 41917,
    "name": "Fort-Mardyck",
    "state_id": 5027,
    "state_code": "59",
    "country_id": 75,
    "country_code": "FR",
    "latitude": "51.02899000",
    "longitude": "2.30724000",
    "native": null,
    "timezone": "Europe/Paris",
    "translations": {}
  },
  {
    "id": 41935,
    "name": "Fourmies",
    "state_id": 5027,
    "state_code": "59",
    "country_id": 75,
    "country_code": "FR",
    "latitude": "50.01532000",
    "longitude": "4.04784000",
    "native": null,
    "timezone": "Europe/Paris",
    "translations": {}
  },
  {
    "id": 41936,
    "name": "Fournes-en-Weppes",
    "state_id": 5027,
    "state_code": "59",
    "country_id": 75,
    "country_code": "FR",
    "latitude": "50.58497000",
    "longitude": "2.88793000",
    "native": null,
    "timezone": "Europe/Paris",
    "translations": {}
  },
  {
    "id": 41955,
    "name": "Frelinghien",
    "state_id": 5027,
    "state_code": "59",
    "country_id": 75,
    "country_code": "FR",
    "latitude": "50.71667000",
    "longitude": "2.93333000",
    "native": null,
    "timezone": "Europe/Paris",
    "translations": {}
  },
  {
    "id": 41959,
    "name": "Fresnes-sur-Escaut",
    "state_id": 5027,
    "state_code": "59",
    "country_id": 75,
    "country_code": "FR",
    "latitude": "50.43382000",
    "longitude": "3.57752000",
    "native": null,
    "timezone": "Europe/Paris",
    "translations": {}
  },
  {
    "id": 41963,
    "name": "Fretin",
    "state_id": 5027,
    "state_code": "59",
    "country_id": 75,
    "country_code": "FR",
    "latitude": "50.55745000",
    "longitude": "3.13668000",
    "native": null,
    "timezone": "Europe/Paris",
    "translations": {}
  },
  {
    "id": 42063,
    "name": "Genech",
    "state_id": 5027,
    "state_code": "59",
    "country_id": 75,
    "country_code": "FR",
    "latitude": "50.53122000",
    "longitude": "3.21651000",
    "native": null,
    "timezone": "Europe/Paris",
    "translations": {}
  },
  {
    "id": 42085,
    "name": "Ghyvelde",
    "state_id": 5027,
    "state_code": "59",
    "country_id": 75,
    "country_code": "FR",
    "latitude": "51.05275000",
    "longitude": "2.52642000",
    "native": null,
    "timezone": "Europe/Paris",
    "translations": {}
  },
  {
    "id": 42116,
    "name": "Godewaersvelde",
    "state_id": 5027,
    "state_code": "59",
    "country_id": 75,
    "country_code": "FR",
    "latitude": "50.79399000",
    "longitude": "2.64456000",
    "native": null,
    "timezone": "Europe/Paris",
    "translations": {}
  },
  {
    "id": 42303,
    "name": "Gœulzin",
    "state_id": 5027,
    "state_code": "59",
    "country_id": 75,
    "country_code": "FR",
    "latitude": "50.31667000",
    "longitude": "3.10000000",
    "native": null,
    "timezone": "Europe/Paris",
    "translations": {}
  },
  {
    "id": 42122,
    "name": "Gommegnies",
    "state_id": 5027,
    "state_code": "59",
    "country_id": 75,
    "country_code": "FR",
    "latitude": "50.27155000",
    "longitude": "3.70625000",
    "native": null,
    "timezone": "Europe/Paris",
    "translations": {}
  },
  {
    "id": 42125,
    "name": "Gondecourt",
    "state_id": 5027,
    "state_code": "59",
    "country_id": 75,
    "country_code": "FR",
    "latitude": "50.54469000",
    "longitude": "2.98378000",
    "native": null,
    "timezone": "Europe/Paris",
    "translations": {}
  },
  {
    "id": 42159,
    "name": "Gouzeaucourt",
    "state_id": 5027,
    "state_code": "59",
    "country_id": 75,
    "country_code": "FR",
    "latitude": "50.05606000",
    "longitude": "3.12351000",
    "native": null,
    "timezone": "Europe/Paris",
    "translations": {}
  },
  {
    "id": 42173,
    "name": "Grand-Fort-Philippe",
    "state_id": 5027,
    "state_code": "59",
    "country_id": 75,
    "country_code": "FR",
    "latitude": "50.99961000",
    "longitude": "2.10784000",
    "native": null,
    "timezone": "Europe/Paris",
    "translations": {}
  },
  {
    "id": 42176,
    "name": "Grande-Synthe",
    "state_id": 5027,
    "state_code": "59",
    "country_id": 75,
    "country_code": "FR",
    "latitude": "51.01540000",
    "longitude": "2.29975000",
    "native": null,
    "timezone": "Europe/Paris",
    "translations": {}
  },
  {
    "id": 42189,
    "name": "Gravelines",
    "state_id": 5027,
    "state_code": "59",
    "country_id": 75,
    "country_code": "FR",
    "latitude": "50.98651000",
    "longitude": "2.12807000",
    "native": null,
    "timezone": "Europe/Paris",
    "translations": {}
  },
  {
    "id": 42231,
    "name": "Gruson",
    "state_id": 5027,
    "state_code": "59",
    "country_id": 75,
    "country_code": "FR",
    "latitude": "50.59583000",
    "longitude": "3.20777000",
    "native": null,
    "timezone": "Europe/Paris",
    "translations": {}
  },
  {
    "id": 42247,
    "name": "Guesnain",
    "state_id": 5027,
    "state_code": "59",
    "country_id": 75,
    "country_code": "FR",
    "latitude": "50.35000000",
    "longitude": "3.15000000",
    "native": null,
    "timezone": "Europe/Paris",
    "translations": {}
  },
  {
    "id": 42314,
    "name": "Hallennes-lez-Haubourdin",
    "state_id": 5027,
    "state_code": "59",
    "country_id": 75,
    "country_code": "FR",
    "latitude": "50.61667000",
    "longitude": "2.96667000",
    "native": null,
    "timezone": "Europe/Paris",
    "translations": {}
  },
  {
    "id": 42316,
    "name": "Halluin",
    "state_id": 5027,
    "state_code": "59",
    "country_id": 75,
    "country_code": "FR",
    "latitude": "50.78628000",
    "longitude": "3.12611000",
    "native": null,
    "timezone": "Europe/Paris",
    "translations": {}
  },
  {
    "id": 42332,
    "name": "Hasnon",
    "state_id": 5027,
    "state_code": "59",
    "country_id": 75,
    "country_code": "FR",
    "latitude": "50.42472000",
    "longitude": "3.38657000",
    "native": null,
    "timezone": "Europe/Paris",
    "translations": {}
  },
  {
    "id": 42334,
    "name": "Haspres",
    "state_id": 5027,
    "state_code": "59",
    "country_id": 75,
    "country_code": "FR",
    "latitude": "50.25829000",
    "longitude": "3.41695000",
    "native": null,
    "timezone": "Europe/Paris",
    "translations": {}
  },
  {
    "id": 42336,
    "name": "Haubourdin",
    "state_id": 5027,
    "state_code": "59",
    "country_id": 75,
    "country_code": "FR",
    "latitude": "50.60826000",
    "longitude": "2.99143000",
    "native": null,
    "timezone": "Europe/Paris",
    "translations": {}
  },
  {
    "id": 42338,
    "name": "Haulchin",
    "state_id": 5027,
    "state_code": "59",
    "country_id": 75,
    "country_code": "FR",
    "latitude": "50.31720000",
    "longitude": "3.43599000",
    "native": null,
    "timezone": "Europe/Paris",
    "translations": {}
  },
  {
    "id": 42339,
    "name": "Haussy",
    "state_id": 5027,
    "state_code": "59",
    "country_id": 75,
    "country_code": "FR",
    "latitude": "50.21830000",
    "longitude": "3.47683000",
    "native": null,
    "timezone": "Europe/Paris",
    "translations": {}
  },
  {
    "id": 42354,
    "name": "Hautmont",
    "state_id": 5027,
    "state_code": "59",
    "country_id": 75,
    "country_code": "FR",
    "latitude": "50.25077000",
    "longitude": "3.92143000",
    "native": null,
    "timezone": "Europe/Paris",
    "translations": {}
  },
  {
    "id": 42358,
    "name": "Haveluy",
    "state_id": 5027,
    "state_code": "59",
    "country_id": 75,
    "country_code": "FR",
    "latitude": "50.35289000",
    "longitude": "3.40389000",
    "native": null,
    "timezone": "Europe/Paris",
    "translations": {}
  },
  {
    "id": 42359,
    "name": "Haverskerque",
    "state_id": 5027,
    "state_code": "59",
    "country_id": 75,
    "country_code": "FR",
    "latitude": "50.64089000",
    "longitude": "2.54162000",
    "native": null,
    "timezone": "Europe/Paris",
    "translations": {}
  },
  {
    "id": 42362,
    "name": "Hazebrouck",
    "state_id": 5027,
    "state_code": "59",
    "country_id": 75,
    "country_code": "FR",
    "latitude": "50.72374000",
    "longitude": "2.53729000",
    "native": null,
    "timezone": "Europe/Paris",
    "translations": {}
  },
  {
    "id": 42451,
    "name": "Hélesmes",
    "state_id": 5027,
    "state_code": "59",
    "country_id": 75,
    "country_code": "FR",
    "latitude": "50.37036000",
    "longitude": "3.35918000",
    "native": null,
    "timezone": "Europe/Paris",
    "translations": {}
  },
  {
    "id": 42366,
    "name": "Hem",
    "state_id": 5027,
    "state_code": "59",
    "country_id": 75,
    "country_code": "FR",
    "latitude": "50.65256000",
    "longitude": "3.18681000",
    "native": null,
    "timezone": "Europe/Paris",
    "translations": {}
  },
  {
    "id": 42376,
    "name": "Hergnies",
    "state_id": 5027,
    "state_code": "59",
    "country_id": 75,
    "country_code": "FR",
    "latitude": "50.47287000",
    "longitude": "3.52612000",
    "native": null,
    "timezone": "Europe/Paris",
    "translations": {}
  },
  {
    "id": 42460,
    "name": "Hérin",
    "state_id": 5027,
    "state_code": "59",
    "country_id": 75,
    "country_code": "FR",
    "latitude": "50.35557000",
    "longitude": "3.45309000",
    "native": null,
    "timezone": "Europe/Paris",
    "translations": {}
  },
  {
    "id": 42377,
    "name": "Herlies",
    "state_id": 5027,
    "state_code": "59",
    "country_id": 75,
    "country_code": "FR",
    "latitude": "50.57753000",
    "longitude": "2.85285000",
    "native": null,
    "timezone": "Europe/Paris",
    "translations": {}
  },
  {
    "id": 42387,
    "name": "Herzeele",
    "state_id": 5027,
    "state_code": "59",
    "country_id": 75,
    "country_code": "FR",
    "latitude": "50.88584000",
    "longitude": "2.53510000",
    "native": null,
    "timezone": "Europe/Paris",
    "translations": {}
  },
  {
    "id": 42416,
    "name": "Hondschoote",
    "state_id": 5027,
    "state_code": "59",
    "country_id": 75,
    "country_code": "FR",
    "latitude": "50.97800000",
    "longitude": "2.58372000",
    "native": null,
    "timezone": "Europe/Paris",
    "translations": {}
  },
  {
    "id": 42419,
    "name": "Hordain",
    "state_id": 5027,
    "state_code": "59",
    "country_id": 75,
    "country_code": "FR",
    "latitude": "50.26306000",
    "longitude": "3.31358000",
    "native": null,
    "timezone": "Europe/Paris",
    "translations": {}
  },
  {
    "id": 42421,
    "name": "Hornaing",
    "state_id": 5027,
    "state_code": "59",
    "country_id": 75,
    "country_code": "FR",
    "latitude": "50.36835000",
    "longitude": "3.33707000",
    "native": null,
    "timezone": "Europe/Paris",
    "translations": {}
  },
  {
    "id": 42429,
    "name": "Houplin-Ancoisne",
    "state_id": 5027,
    "state_code": "59",
    "country_id": 75,
    "country_code": "FR",
    "latitude": "50.56284000",
    "longitude": "3.00251000",
    "native": null,
    "timezone": "Europe/Paris",
    "translations": {}
  },
  {
    "id": 42430,
    "name": "Houplines",
    "state_id": 5027,
    "state_code": "59",
    "country_id": 75,
    "country_code": "FR",
    "latitude": "50.69499000",
    "longitude": "2.91518000",
    "native": null,
    "timezone": "Europe/Paris",
    "translations": {}
  },
  {
    "id": 42434,
    "name": "Hoymille",
    "state_id": 5027,
    "state_code": "59",
    "country_id": 75,
    "country_code": "FR",
    "latitude": "50.97187000",
    "longitude": "2.44738000",
    "native": null,
    "timezone": "Europe/Paris",
    "translations": {}
  },
  {
    "id": 42481,
    "name": "Illies",
    "state_id": 5027,
    "state_code": "59",
    "country_id": 75,
    "country_code": "FR",
    "latitude": "50.56144000",
    "longitude": "2.83011000",
    "native": null,
    "timezone": "Europe/Paris",
    "translations": {}
  },
  {
    "id": 42518,
    "name": "Iwuy",
    "state_id": 5027,
    "state_code": "59",
    "country_id": 75,
    "country_code": "FR",
    "latitude": "50.23300000",
    "longitude": "3.32058000",
    "native": null,
    "timezone": "Europe/Paris",
    "translations": {}
  },
  {
    "id": 42549,
    "name": "Jenlain",
    "state_id": 5027,
    "state_code": "59",
    "country_id": 75,
    "country_code": "FR",
    "latitude": "50.31164000",
    "longitude": "3.62872000",
    "native": null,
    "timezone": "Europe/Paris",
    "translations": {}
  },
  {
    "id": 42550,
    "name": "Jeumont",
    "state_id": 5027,
    "state_code": "59",
    "country_id": 75,
    "country_code": "FR",
    "latitude": "50.29658000",
    "longitude": "4.10108000",
    "native": null,
    "timezone": "Europe/Paris",
    "translations": {}
  },
  {
    "id": 42614,
    "name": "Killem",
    "state_id": 5027,
    "state_code": "59",
    "country_id": 75,
    "country_code": "FR",
    "latitude": "50.95779000",
    "longitude": "2.56068000",
    "native": null,
    "timezone": "Europe/Paris",
    "translations": {}
  },
  {
    "id": 42635,
    "name": "La Bassée",
    "state_id": 5027,
    "state_code": "59",
    "country_id": 75,
    "country_code": "FR",
    "latitude": "50.53424000",
    "longitude": "2.80620000",
    "native": null,
    "timezone": "Europe/Paris",
    "translations": {}
  },
  {
    "id": 161812,
    "name": "La Chapelle-d'Armentières",
    "state_id": 5027,
    "state_code": "59",
    "country_id": 75,
    "country_code": "FR",
    "latitude": "50.66410000",
    "longitude": "2.89440000",
    "native": null,
    "timezone": "Europe/Paris",
    "translations": {}
  },
  {
    "id": 42769,
    "name": "La Gorgue",
    "state_id": 5027,
    "state_code": "59",
    "country_id": 75,
    "country_code": "FR",
    "latitude": "50.63790000",
    "longitude": "2.71502000",
    "native": null,
    "timezone": "Europe/Paris",
    "translations": {}
  },
  {
    "id": 42793,
    "name": "La Longueville",
    "state_id": 5027,
    "state_code": "59",
    "country_id": 75,
    "country_code": "FR",
    "latitude": "50.28939000",
    "longitude": "3.85672000",
    "native": null,
    "timezone": "Europe/Paris",
    "translations": {}
  },
  {
    "id": 42797,
    "name": "La Madeleine",
    "state_id": 5027,
    "state_code": "59",
    "country_id": 75,
    "country_code": "FR",
    "latitude": "50.64603000",
    "longitude": "3.07585000",
    "native": null,
    "timezone": "Europe/Paris",
    "translations": {}
  },
  {
    "id": 42877,
    "name": "La Sentinelle",
    "state_id": 5027,
    "state_code": "59",
    "country_id": 75,
    "country_code": "FR",
    "latitude": "50.35115000",
    "longitude": "3.48425000",
    "native": null,
    "timezone": "Europe/Paris",
    "translations": {}
  },
  {
    "id": 42976,
    "name": "Lallaing",
    "state_id": 5027,
    "state_code": "59",
    "country_id": 75,
    "country_code": "FR",
    "latitude": "50.39012000",
    "longitude": "3.16949000",
    "native": null,
    "timezone": "Europe/Paris",
    "translations": {}
  },
  {
    "id": 42986,
    "name": "Lambersart",
    "state_id": 5027,
    "state_code": "59",
    "country_id": 75,
    "country_code": "FR",
    "latitude": "50.65000000",
    "longitude": "3.03333000",
    "native": null,
    "timezone": "Europe/Paris",
    "translations": {}
  },
  {
    "id": 42988,
    "name": "Lambres-lez-Douai",
    "state_id": 5027,
    "state_code": "59",
    "country_id": 75,
    "country_code": "FR",
    "latitude": "50.35000000",
    "longitude": "3.06667000",
    "native": null,
    "timezone": "Europe/Paris",
    "translations": {}
  },
  {
    "id": 42999,
    "name": "Landas",
    "state_id": 5027,
    "state_code": "59",
    "country_id": 75,
    "country_code": "FR",
    "latitude": "50.47269000",
    "longitude": "3.30367000",
    "native": null,
    "timezone": "Europe/Paris",
    "translations": {}
  },
  {
    "id": 43009,
    "name": "Landrecies",
    "state_id": 5027,
    "state_code": "59",
    "country_id": 75,
    "country_code": "FR",
    "latitude": "50.12499000",
    "longitude": "3.69171000",
    "native": null,
    "timezone": "Europe/Paris",
    "translations": {}
  },
  {
    "id": 43038,
    "name": "Lannoy",
    "state_id": 5027,
    "state_code": "59",
    "country_id": 75,
    "country_code": "FR",
    "latitude": "50.66674000",
    "longitude": "3.21012000",
    "native": null,
    "timezone": "Europe/Paris",
    "translations": {}
  },
  {
    "id": 43105,
    "name": "Lauwin-Planque",
    "state_id": 5027,
    "state_code": "59",
    "country_id": 75,
    "country_code": "FR",
    "latitude": "50.39024000",
    "longitude": "3.04510000",
    "native": null,
    "timezone": "Europe/Paris",
    "translations": {}
  },
  {
    "id": 161835,
    "name": "Le Cateau-Cambrésis",
    "state_id": 5027,
    "state_code": "59",
    "country_id": 75,
    "country_code": "FR",
    "latitude": "50.08730000",
    "longitude": "3.53540000",
    "native": null,
    "timezone": "Europe/Paris",
    "translations": {}
  },
  {
    "id": 43181,
    "name": "Le Doulieu",
    "state_id": 5027,
    "state_code": "59",
    "country_id": 75,
    "country_code": "FR",
    "latitude": "50.68194000",
    "longitude": "2.71741000",
    "native": null,
    "timezone": "Europe/Paris",
    "translations": {}
  },
  {
    "id": 43290,
    "name": "Le Quesnoy",
    "state_id": 5027,
    "state_code": "59",
    "country_id": 75,
    "country_code": "FR",
    "latitude": "50.24797000",
    "longitude": "3.63656000",
    "native": null,
    "timezone": "Europe/Paris",
    "translations": {}
  },
  {
    "id": 43338,
    "name": "Lecelles",
    "state_id": 5027,
    "state_code": "59",
    "country_id": 75,
    "country_code": "FR",
    "latitude": "50.46779000",
    "longitude": "3.40096000",
    "native": null,
    "timezone": "Europe/Paris",
    "translations": {}
  },
  {
    "id": 43681,
    "name": "Lécluse",
    "state_id": 5027,
    "state_code": "59",
    "country_id": 75,
    "country_code": "FR",
    "latitude": "50.27671000",
    "longitude": "3.04045000",
    "native": null,
    "timezone": "Europe/Paris",
    "translations": {}
  },
  {
    "id": 43341,
    "name": "Leers",
    "state_id": 5027,
    "state_code": "59",
    "country_id": 75,
    "country_code": "FR",
    "latitude": "50.68217000",
    "longitude": "3.24429000",
    "native": null,
    "timezone": "Europe/Paris",
    "translations": {}
  },
  {
    "id": 43342,
    "name": "Leffrinckoucke",
    "state_id": 5027,
    "state_code": "59",
    "country_id": 75,
    "country_code": "FR",
    "latitude": "51.03457000",
    "longitude": "2.46452000",
    "native": null,
    "timezone": "Europe/Paris",
    "translations": {}
  },
  {
    "id": 43441,
    "name": "Lesquin",
    "state_id": 5027,
    "state_code": "59",
    "country_id": 75,
    "country_code": "FR",
    "latitude": "50.58232000",
    "longitude": "3.11900000",
    "native": null,
    "timezone": "Europe/Paris",
    "translations": {}
  },
  {
    "id": 43448,
    "name": "Leval",
    "state_id": 5027,
    "state_code": "59",
    "country_id": 75,
    "country_code": "FR",
    "latitude": "50.18106000",
    "longitude": "3.83093000",
    "native": null,
    "timezone": "Europe/Paris",
    "translations": {}
  },
  {
    "id": 43454,
    "name": "Lewarde",
    "state_id": 5027,
    "state_code": "59",
    "country_id": 75,
    "country_code": "FR",
    "latitude": "50.34173000",
    "longitude": "3.16782000",
    "native": null,
    "timezone": "Europe/Paris",
    "translations": {}
  },
  {
    "id": 43460,
    "name": "Lezennes",
    "state_id": 5027,
    "state_code": "59",
    "country_id": 75,
    "country_code": "FR",
    "latitude": "50.61553000",
    "longitude": "3.11354000",
    "native": null,
    "timezone": "Europe/Paris",
    "translations": {}
  },
  {
    "id": 43469,
    "name": "Lieu-Saint-Amand",
    "state_id": 5027,
    "state_code": "59",
    "country_id": 75,
    "country_code": "FR",
    "latitude": "50.27318000",
    "longitude": "3.34624000",
    "native": null,
    "timezone": "Europe/Paris",
    "translations": {}
  },
  {
    "id": 43478,
    "name": "Ligny-en-Cambrésis",
    "state_id": 5027,
    "state_code": "59",
    "country_id": 75,
    "country_code": "FR",
    "latitude": "50.10123000",
    "longitude": "3.37841000",
    "native": null,
    "timezone": "Europe/Paris",
    "translations": {}
  },
  {
    "id": 43485,
    "name": "Lille",
    "state_id": 5027,
    "state_code": "59",
    "country_id": 75,
    "country_code": "FR",
    "latitude": "50.63297000",
    "longitude": "3.05858000",
    "native": null,
    "timezone": "Europe/Paris",
    "translations": {}
  },
  {
    "id": 43503,
    "name": "Linselles",
    "state_id": 5027,
    "state_code": "59",
    "country_id": 75,
    "country_code": "FR",
    "latitude": "50.73708000",
    "longitude": "3.07878000",
    "native": null,
    "timezone": "Europe/Paris",
    "translations": {}
  },
  {
    "id": 43549,
    "name": "Lomme",
    "state_id": 5027,
    "state_code": "59",
    "country_id": 75,
    "country_code": "FR",
    "latitude": "50.64358000",
    "longitude": "2.98715000",
    "native": null,
    "timezone": "Europe/Paris",
    "translations": {}
  },
  {
    "id": 43550,
    "name": "Lompret",
    "state_id": 5027,
    "state_code": "59",
    "country_id": 75,
    "country_code": "FR",
    "latitude": "50.66931000",
    "longitude": "2.98968000",
    "native": null,
    "timezone": "Europe/Paris",
    "translations": {}
  },
  {
    "id": 43578,
    "name": "Looberghe",
    "state_id": 5027,
    "state_code": "59",
    "country_id": 75,
    "country_code": "FR",
    "latitude": "50.91694000",
    "longitude": "2.27439000",
    "native": null,
    "timezone": "Europe/Paris",
    "translations": {}
  },
  {
    "id": 43579,
    "name": "Loon-Plage",
    "state_id": 5027,
    "state_code": "59",
    "country_id": 75,
    "country_code": "FR",
    "latitude": "50.99647000",
    "longitude": "2.21770000",
    "native": null,
    "timezone": "Europe/Paris",
    "translations": {}
  },
  {
    "id": 43580,
    "name": "Loos",
    "state_id": 5027,
    "state_code": "59",
    "country_id": 75,
    "country_code": "FR",
    "latitude": "50.60982000",
    "longitude": "3.01874000",
    "native": null,
    "timezone": "Europe/Paris",
    "translations": {}
  },
  {
    "id": 43607,
    "name": "Lourches",
    "state_id": 5027,
    "state_code": "59",
    "country_id": 75,
    "country_code": "FR",
    "latitude": "50.31354000",
    "longitude": "3.35258000",
    "native": null,
    "timezone": "Europe/Paris",
    "translations": {}
  },
  {
    "id": 43619,
    "name": "Louvroil",
    "state_id": 5027,
    "state_code": "59",
    "country_id": 75,
    "country_code": "FR",
    "latitude": "50.26427000",
    "longitude": "3.96272000",
    "native": null,
    "timezone": "Europe/Paris",
    "translations": {}
  },
  {
    "id": 43679,
    "name": "Lys-lez-Lannoy",
    "state_id": 5027,
    "state_code": "59",
    "country_id": 75,
    "country_code": "FR",
    "latitude": "50.66667000",
    "longitude": "3.21667000",
    "native": null,
    "timezone": "Europe/Paris",
    "translations": {}
  },
  {
    "id": 43738,
    "name": "Maing",
    "state_id": 5027,
    "state_code": "59",
    "country_id": 75,
    "country_code": "FR",
    "latitude": "50.30791000",
    "longitude": "3.48447000",
    "native": null,
    "timezone": "Europe/Paris",
    "translations": {}
  },
  {
    "id": 43800,
    "name": "Marchiennes",
    "state_id": 5027,
    "state_code": "59",
    "country_id": 75,
    "country_code": "FR",
    "latitude": "50.40000000",
    "longitude": "3.28333000",
    "native": null,
    "timezone": "Europe/Paris",
    "translations": {}
  },
  {
    "id": 43811,
    "name": "Marcoing",
    "state_id": 5027,
    "state_code": "59",
    "country_id": 75,
    "country_code": "FR",
    "latitude": "50.12110000",
    "longitude": "3.17321000",
    "native": null,
    "timezone": "Europe/Paris",
    "translations": {}
  },
  {
    "id": 43816,
    "name": "Marcq-en-Barœul",
    "state_id": 5027,
    "state_code": "59",
    "country_id": 75,
    "country_code": "FR",
    "latitude": "50.66667000",
    "longitude": "3.08333000",
    "native": null,
    "timezone": "Europe/Paris",
    "translations": {}
  },
  {
    "id": 43824,
    "name": "Maretz",
    "state_id": 5027,
    "state_code": "59",
    "country_id": 75,
    "country_code": "FR",
    "latitude": "50.04530000",
    "longitude": "3.41808000",
    "native": null,
    "timezone": "Europe/Paris",
    "translations": {}
  },
  {
    "id": 43865,
    "name": "Maroilles",
    "state_id": 5027,
    "state_code": "59",
    "country_id": 75,
    "country_code": "FR",
    "latitude": "50.13508000",
    "longitude": "3.76132000",
    "native": null,
    "timezone": "Europe/Paris",
    "translations": {}
  },
  {
    "id": 43870,
    "name": "Marpent",
    "state_id": 5027,
    "state_code": "59",
    "country_id": 75,
    "country_code": "FR",
    "latitude": "50.29252000",
    "longitude": "4.07936000",
    "native": null,
    "timezone": "Europe/Paris",
    "translations": {}
  },
  {
    "id": 43872,
    "name": "Marquette-en-Ostrevant",
    "state_id": 5027,
    "state_code": "59",
    "country_id": 75,
    "country_code": "FR",
    "latitude": "50.28333000",
    "longitude": "3.26667000",
    "native": null,
    "timezone": "Europe/Paris",
    "translations": {}
  },
  {
    "id": 43873,
    "name": "Marquette-lez-Lille",
    "state_id": 5027,
    "state_code": "59",
    "country_id": 75,
    "country_code": "FR",
    "latitude": "50.67628000",
    "longitude": "3.06613000",
    "native": null,
    "timezone": "Europe/Paris",
    "translations": {}
  },
  {
    "id": 43874,
    "name": "Marquillies",
    "state_id": 5027,
    "state_code": "59",
    "country_id": 75,
    "country_code": "FR",
    "latitude": "50.55577000",
    "longitude": "2.87067000",
    "native": null,
    "timezone": "Europe/Paris",
    "translations": {}
  },
  {
    "id": 43929,
    "name": "Masnières",
    "state_id": 5027,
    "state_code": "59",
    "country_id": 75,
    "country_code": "FR",
    "latitude": "50.11489000",
    "longitude": "3.20889000",
    "native": null,
    "timezone": "Europe/Paris",
    "translations": {}
  },
  {
    "id": 43930,
    "name": "Masny",
    "state_id": 5027,
    "state_code": "59",
    "country_id": 75,
    "country_code": "FR",
    "latitude": "50.34797000",
    "longitude": "3.20165000",
    "native": null,
    "timezone": "Europe/Paris",
    "translations": {}
  },
  {
    "id": 43945,
    "name": "Maubeuge",
    "state_id": 5027,
    "state_code": "59",
    "country_id": 75,
    "country_code": "FR",
    "latitude": "50.27875000",
    "longitude": "3.97267000",
    "native": null,
    "timezone": "Europe/Paris",
    "translations": {}
  },
  {
    "id": 44474,
    "name": "Mérignies",
    "state_id": 5027,
    "state_code": "59",
    "country_id": 75,
    "country_code": "FR",
    "latitude": "50.50609000",
    "longitude": "3.11043000",
    "native": null,
    "timezone": "Europe/Paris",
    "translations": {}
  },
  {
    "id": 44484,
    "name": "Méteren",
    "state_id": 5027,
    "state_code": "59",
    "country_id": 75,
    "country_code": "FR",
    "latitude": "50.73333000",
    "longitude": "2.70000000",
    "native": null,
    "timezone": "Europe/Paris",
    "translations": {}
  },
  {
    "id": 44129,
    "name": "Monchecourt",
    "state_id": 5027,
    "state_code": "59",
    "country_id": 75,
    "country_code": "FR",
    "latitude": "50.30413000",
    "longitude": "3.21029000",
    "native": null,
    "timezone": "Europe/Paris",
    "translations": {}
  },
  {
    "id": 44148,
    "name": "Mons-en-Barœul",
    "state_id": 5027,
    "state_code": "59",
    "country_id": 75,
    "country_code": "FR",
    "latitude": "50.63333000",
    "longitude": "3.11667000",
    "native": null,
    "timezone": "Europe/Paris",
    "translations": {}
  },
  {
    "id": 44149,
    "name": "Mons-en-Pévèle",
    "state_id": 5027,
    "state_code": "59",
    "country_id": 75,
    "country_code": "FR",
    "latitude": "50.47926000",
    "longitude": "3.09767000",
    "native": null,
    "timezone": "Europe/Paris",
    "translations": {}
  },
  {
    "id": 44259,
    "name": "Montigny-en-Ostrevent",
    "state_id": 5027,
    "state_code": "59",
    "country_id": 75,
    "country_code": "FR",
    "latitude": "50.36667000",
    "longitude": "3.18333000",
    "native": null,
    "timezone": "Europe/Paris",
    "translations": {}
  },
  {
    "id": 44343,
    "name": "Morbecque",
    "state_id": 5027,
    "state_code": "59",
    "country_id": 75,
    "country_code": "FR",
    "latitude": "50.69365000",
    "longitude": "2.51787000",
    "native": null,
    "timezone": "Europe/Paris",
    "translations": {}
  },
  {
    "id": 44369,
    "name": "Mortagne-du-Nord",
    "state_id": 5027,
    "state_code": "59",
    "country_id": 75,
    "country_code": "FR",
    "latitude": "50.50352000",
    "longitude": "3.45352000",
    "native": null,
    "timezone": "Europe/Paris",
    "translations": {}
  },
  {
    "id": 44384,
    "name": "Mouchin",
    "state_id": 5027,
    "state_code": "59",
    "country_id": 75,
    "country_code": "FR",
    "latitude": "50.51639000",
    "longitude": "3.29627000",
    "native": null,
    "timezone": "Europe/Paris",
    "translations": {}
  },
  {
    "id": 44414,
    "name": "Mouvaux",
    "state_id": 5027,
    "state_code": "59",
    "country_id": 75,
    "country_code": "FR",
    "latitude": "50.69944000",
    "longitude": "3.13429000",
    "native": null,
    "timezone": "Europe/Paris",
    "translations": {}
  },
  {
    "id": 44537,
    "name": "Neuf-Berquin",
    "state_id": 5027,
    "state_code": "59",
    "country_id": 75,
    "country_code": "FR",
    "latitude": "50.66065000",
    "longitude": "2.67213000",
    "native": null,
    "timezone": "Europe/Paris",
    "translations": {}
  },
  {
    "id": 44567,
    "name": "Neuville-en-Ferrain",
    "state_id": 5027,
    "state_code": "59",
    "country_id": 75,
    "country_code": "FR",
    "latitude": "50.74839000",
    "longitude": "3.15676000",
    "native": null,
    "timezone": "Europe/Paris",
    "translations": {}
  },
  {
    "id": 44563,
    "name": "Neuville-Saint-Rémy",
    "state_id": 5027,
    "state_code": "59",
    "country_id": 75,
    "country_code": "FR",
    "latitude": "50.18618000",
    "longitude": "3.22404000",
    "native": null,
    "timezone": "Europe/Paris",
    "translations": {}
  },
  {
    "id": 44570,
    "name": "Neuville-sur-Escaut",
    "state_id": 5027,
    "state_code": "59",
    "country_id": 75,
    "country_code": "FR",
    "latitude": "50.30000000",
    "longitude": "3.35000000",
    "native": null,
    "timezone": "Europe/Paris",
    "translations": {}
  },
  {
    "id": 44594,
    "name": "Nieppe",
    "state_id": 5027,
    "state_code": "59",
    "country_id": 75,
    "country_code": "FR",
    "latitude": "50.70425000",
    "longitude": "2.83506000",
    "native": null,
    "timezone": "Europe/Paris",
    "translations": {}
  },
  {
    "id": 44634,
    "name": "Nomain",
    "state_id": 5027,
    "state_code": "59",
    "country_id": 75,
    "country_code": "FR",
    "latitude": "50.49857000",
    "longitude": "3.24991000",
    "native": null,
    "timezone": "Europe/Paris",
    "translations": {}
  },
  {
    "id": 44640,
    "name": "Nord",
    "state_id": 5027,
    "state_code": "59",
    "country_id": 75,
    "country_code": "FR",
    "latitude": "50.33333000",
    "longitude": "3.36197000",
    "native": null,
    "timezone": "Europe/Paris",
    "translations": {}
  },
  {
    "id": 44744,
    "name": "Onnaing",
    "state_id": 5027,
    "state_code": "59",
    "country_id": 75,
    "country_code": "FR",
    "latitude": "50.38584000",
    "longitude": "3.59963000",
    "native": null,
    "timezone": "Europe/Paris",
    "translations": {}
  },
  {
    "id": 44759,
    "name": "Orchies",
    "state_id": 5027,
    "state_code": "59",
    "country_id": 75,
    "country_code": "FR",
    "latitude": "50.46667000",
    "longitude": "3.23333000",
    "native": null,
    "timezone": "Europe/Paris",
    "translations": {}
  },
  {
    "id": 44794,
    "name": "Ostricourt",
    "state_id": 5027,
    "state_code": "59",
    "country_id": 75,
    "country_code": "FR",
    "latitude": "50.45145000",
    "longitude": "3.03417000",
    "native": null,
    "timezone": "Europe/Paris",
    "translations": {}
  },
  {
    "id": 44880,
    "name": "Pecquencourt",
    "state_id": 5027,
    "state_code": "59",
    "country_id": 75,
    "country_code": "FR",
    "latitude": "50.37850000",
    "longitude": "3.21277000",
    "native": null,
    "timezone": "Europe/Paris",
    "translations": {}
  },
  {
    "id": 45350,
    "name": "Pérenchies",
    "state_id": 5027,
    "state_code": "59",
    "country_id": 75,
    "country_code": "FR",
    "latitude": "50.67013000",
    "longitude": "2.97024000",
    "native": null,
    "timezone": "Europe/Paris",
    "translations": {}
  },
  {
    "id": 44919,
    "name": "Petite-Forêt",
    "state_id": 5027,
    "state_code": "59",
    "country_id": 75,
    "country_code": "FR",
    "latitude": "50.36667000",
    "longitude": "3.48333000",
    "native": null,
    "timezone": "Europe/Paris",
    "translations": {}
  },
  {
    "id": 44942,
    "name": "Phalempin",
    "state_id": 5027,
    "state_code": "59",
    "country_id": 75,
    "country_code": "FR",
    "latitude": "50.51691000",
    "longitude": "3.01584000",
    "native": null,
    "timezone": "Europe/Paris",
    "translations": {}
  },
  {
    "id": 45140,
    "name": "Poix-du-Nord",
    "state_id": 5027,
    "state_code": "59",
    "country_id": 75,
    "country_code": "FR",
    "latitude": "50.18927000",
    "longitude": "3.60956000",
    "native": null,
    "timezone": "Europe/Paris",
    "translations": {}
  },
  {
    "id": 45196,
    "name": "Pont-à-Marcq",
    "state_id": 5027,
    "state_code": "59",
    "country_id": 75,
    "country_code": "FR",
    "latitude": "50.52213000",
    "longitude": "3.11441000",
    "native": null,
    "timezone": "Europe/Paris",
    "translations": {}
  },
  {
    "id": 45192,
    "name": "Pont-sur-Sambre",
    "state_id": 5027,
    "state_code": "59",
    "country_id": 75,
    "country_code": "FR",
    "latitude": "50.22195000",
    "longitude": "3.84693000",
    "native": null,
    "timezone": "Europe/Paris",
    "translations": {}
  },
  {
    "id": 45310,
    "name": "Prémesques",
    "state_id": 5027,
    "state_code": "59",
    "country_id": 75,
    "country_code": "FR",
    "latitude": "50.65572000",
    "longitude": "2.95162000",
    "native": null,
    "timezone": "Europe/Paris",
    "translations": {}
  },
  {
    "id": 45312,
    "name": "Préseau",
    "state_id": 5027,
    "state_code": "59",
    "country_id": 75,
    "country_code": "FR",
    "latitude": "50.31122000",
    "longitude": "3.57434000",
    "native": null,
    "timezone": "Europe/Paris",
    "translations": {}
  },
  {
    "id": 45295,
    "name": "Prouvy",
    "state_id": 5027,
    "state_code": "59",
    "country_id": 75,
    "country_code": "FR",
    "latitude": "50.31793000",
    "longitude": "3.45096000",
    "native": null,
    "timezone": "Europe/Paris",
    "translations": {}
  },
  {
    "id": 45296,
    "name": "Proville",
    "state_id": 5027,
    "state_code": "59",
    "country_id": 75,
    "country_code": "FR",
    "latitude": "50.16137000",
    "longitude": "3.20629000",
    "native": null,
    "timezone": "Europe/Paris",
    "translations": {}
  },
  {
    "id": 45297,
    "name": "Provin",
    "state_id": 5027,
    "state_code": "59",
    "country_id": 75,
    "country_code": "FR",
    "latitude": "50.51430000",
    "longitude": "2.90794000",
    "native": null,
    "timezone": "Europe/Paris",
    "translations": {}
  },
  {
    "id": 45371,
    "name": "Quaëdypre",
    "state_id": 5027,
    "state_code": "59",
    "country_id": 75,
    "country_code": "FR",
    "latitude": "50.93527000",
    "longitude": "2.45445000",
    "native": null,
    "timezone": "Europe/Paris",
    "translations": {}
  },
  {
    "id": 45370,
    "name": "Quarouble",
    "state_id": 5027,
    "state_code": "59",
    "country_id": 75,
    "country_code": "FR",
    "latitude": "50.38634000",
    "longitude": "3.62306000",
    "native": null,
    "timezone": "Europe/Paris",
    "translations": {}
  },
  {
    "id": 45377,
    "name": "Quesnoy-sur-Deûle",
    "state_id": 5027,
    "state_code": "59",
    "country_id": 75,
    "country_code": "FR",
    "latitude": "50.71359000",
    "longitude": "2.99996000",
    "native": null,
    "timezone": "Europe/Paris",
    "translations": {}
  },
  {
    "id": 45404,
    "name": "Quiévrechain",
    "state_id": 5027,
    "state_code": "59",
    "country_id": 75,
    "country_code": "FR",
    "latitude": "50.39172000",
    "longitude": "3.66815000",
    "native": null,
    "timezone": "Europe/Paris",
    "translations": {}
  },
  {
    "id": 45405,
    "name": "Quiévy",
    "state_id": 5027,
    "state_code": "59",
    "country_id": 75,
    "country_code": "FR",
    "latitude": "50.16804000",
    "longitude": "3.42834000",
    "native": null,
    "timezone": "Europe/Paris",
    "translations": {}
  },
  {
    "id": 45682,
    "name": "Râches",
    "state_id": 5027,
    "state_code": "59",
    "country_id": 75,
    "country_code": "FR",
    "latitude": "50.41706000",
    "longitude": "3.13635000",
    "native": null,
    "timezone": "Europe/Paris",
    "translations": {}
  },
  {
    "id": 45414,
    "name": "Radinghem-en-Weppes",
    "state_id": 5027,
    "state_code": "59",
    "country_id": 75,
    "country_code": "FR",
    "latitude": "50.61884000",
    "longitude": "2.90924000",
    "native": null,
    "timezone": "Europe/Paris",
    "translations": {}
  },
  {
    "id": 45418,
    "name": "Raillencourt-Sainte-Olle",
    "state_id": 5027,
    "state_code": "59",
    "country_id": 75,
    "country_code": "FR",
    "latitude": "50.18333000",
    "longitude": "3.16667000",
    "native": null,
    "timezone": "Europe/Paris",
    "translations": {}
  },
  {
    "id": 45419,
    "name": "Raimbeaucourt",
    "state_id": 5027,
    "state_code": "59",
    "country_id": 75,
    "country_code": "FR",
    "latitude": "50.43466000",
    "longitude": "3.09333000",
    "native": null,
    "timezone": "Europe/Paris",
    "translations": {}
  },
  {
    "id": 45420,
    "name": "Raismes",
    "state_id": 5027,
    "state_code": "59",
    "country_id": 75,
    "country_code": "FR",
    "latitude": "50.38333000",
    "longitude": "3.48333000",
    "native": null,
    "timezone": "Europe/Paris",
    "translations": {}
  },
  {
    "id": 45441,
    "name": "Recquignies",
    "state_id": 5027,
    "state_code": "59",
    "country_id": 75,
    "country_code": "FR",
    "latitude": "50.28396000",
    "longitude": "4.03722000",
    "native": null,
    "timezone": "Europe/Paris",
    "translations": {}
  },
  {
    "id": 45459,
    "name": "Renescure",
    "state_id": 5027,
    "state_code": "59",
    "country_id": 75,
    "country_code": "FR",
    "latitude": "50.72754000",
    "longitude": "2.36801000",
    "native": null,
    "timezone": "Europe/Paris",
    "translations": {}
  },
  {
    "id": 45479,
    "name": "Rexpoëde",
    "state_id": 5027,
    "state_code": "59",
    "country_id": 75,
    "country_code": "FR",
    "latitude": "50.93926000",
    "longitude": "2.53914000",
    "native": null,
    "timezone": "Europe/Paris",
    "translations": {}
  },
  {
    "id": 45501,
    "name": "Rieulay",
    "state_id": 5027,
    "state_code": "59",
    "country_id": 75,
    "country_code": "FR",
    "latitude": "50.37856000",
    "longitude": "3.25284000",
    "native": null,
    "timezone": "Europe/Paris",
    "translations": {}
  },
  {
    "id": 45508,
    "name": "Rieux-en-Cambrésis",
    "state_id": 5027,
    "state_code": "59",
    "country_id": 75,
    "country_code": "FR",
    "latitude": "50.20069000",
    "longitude": "3.35232000",
    "native": null,
    "timezone": "Europe/Paris",
    "translations": {}
  },
  {
    "id": 45697,
    "name": "Rœulx",
    "state_id": 5027,
    "state_code": "59",
    "country_id": 75,
    "country_code": "FR",
    "latitude": "50.30000000",
    "longitude": "3.33333000",
    "native": null,
    "timezone": "Europe/Paris",
    "translations": {}
  },
  {
    "id": 45585,
    "name": "Ronchin",
    "state_id": 5027,
    "state_code": "59",
    "country_id": 75,
    "country_code": "FR",
    "latitude": "50.59883000",
    "longitude": "3.09056000",
    "native": null,
    "timezone": "Europe/Paris",
    "translations": {}
  },
  {
    "id": 45586,
    "name": "Roncq",
    "state_id": 5027,
    "state_code": "59",
    "country_id": 75,
    "country_code": "FR",
    "latitude": "50.75330000",
    "longitude": "3.12131000",
    "native": null,
    "timezone": "Europe/Paris",
    "translations": {}
  },
  {
    "id": 45587,
    "name": "Roost-Warendin",
    "state_id": 5027,
    "state_code": "59",
    "country_id": 75,
    "country_code": "FR",
    "latitude": "50.41920000",
    "longitude": "3.10374000",
    "native": null,
    "timezone": "Europe/Paris",
    "translations": {}
  },
  {
    "id": 45612,
    "name": "Rosult",
    "state_id": 5027,
    "state_code": "59",
    "country_id": 75,
    "country_code": "FR",
    "latitude": "50.45888000",
    "longitude": "3.35902000",
    "native": null,
    "timezone": "Europe/Paris",
    "translations": {}
  },
  {
    "id": 45616,
    "name": "Roubaix",
    "state_id": 5027,
    "state_code": "59",
    "country_id": 75,
    "country_code": "FR",
    "latitude": "50.69421000",
    "longitude": "3.17456000",
    "native": null,
    "timezone": "Europe/Paris",
    "translations": {}
  },
  {
    "id": 45635,
    "name": "Rousies",
    "state_id": 5027,
    "state_code": "59",
    "country_id": 75,
    "country_code": "FR",
    "latitude": "50.27346000",
    "longitude": "4.00382000",
    "native": null,
    "timezone": "Europe/Paris",
    "translations": {}
  },
  {
    "id": 45670,
    "name": "Rumegies",
    "state_id": 5027,
    "state_code": "59",
    "country_id": 75,
    "country_code": "FR",
    "latitude": "50.48877000",
    "longitude": "3.35131000",
    "native": null,
    "timezone": "Europe/Paris",
    "translations": {}
  },
  {
    "id": 45673,
    "name": "Rumilly-en-Cambrésis",
    "state_id": 5027,
    "state_code": "59",
    "country_id": 75,
    "country_code": "FR",
    "latitude": "50.12691000",
    "longitude": "3.21874000",
    "native": null,
    "timezone": "Europe/Paris",
    "translations": {}
  },
  {
    "id": 45719,
    "name": "Sailly-lez-Lannoy",
    "state_id": 5027,
    "state_code": "59",
    "country_id": 75,
    "country_code": "FR",
    "latitude": "50.65000000",
    "longitude": "3.21667000",
    "native": null,
    "timezone": "Europe/Paris",
    "translations": {}
  },
  {
    "id": 45722,
    "name": "Sainghin-en-Mélantois",
    "state_id": 5027,
    "state_code": "59",
    "country_id": 75,
    "country_code": "FR",
    "latitude": "50.58836000",
    "longitude": "3.16619000",
    "native": null,
    "timezone": "Europe/Paris",
    "translations": {}
  },
  {
    "id": 45723,
    "name": "Sainghin-en-Weppes",
    "state_id": 5027,
    "state_code": "59",
    "country_id": 75,
    "country_code": "FR",
    "latitude": "50.56407000",
    "longitude": "2.89804000",
    "native": null,
    "timezone": "Europe/Paris",
    "translations": {}
  },
  {
    "id": 45724,
    "name": "Sains-du-Nord",
    "state_id": 5027,
    "state_code": "59",
    "country_id": 75,
    "country_code": "FR",
    "latitude": "50.09377000",
    "longitude": "4.00898000",
    "native": null,
    "timezone": "Europe/Paris",
    "translations": {}
  },
  {
    "id": 45744,
    "name": "Saint-Amand-les-Eaux",
    "state_id": 5027,
    "state_code": "59",
    "country_id": 75,
    "country_code": "FR",
    "latitude": "50.44718000",
    "longitude": "3.43076000",
    "native": null,
    "timezone": "Europe/Paris",
    "translations": {}
  },
  {
    "id": 45766,
    "name": "Saint-André-lez-Lille",
    "state_id": 5027,
    "state_code": "59",
    "country_id": 75,
    "country_code": "FR",
    "latitude": "50.66667000",
    "longitude": "3.05000000",
    "native": null,
    "timezone": "Europe/Paris",
    "translations": {}
  },
  {
    "id": 45779,
    "name": "Saint-Aubert",
    "state_id": 5027,
    "state_code": "59",
    "country_id": 75,
    "country_code": "FR",
    "latitude": "50.20805000",
    "longitude": "3.41727000",
    "native": null,
    "timezone": "Europe/Paris",
    "translations": {}
  },
  {
    "id": 46066,
    "name": "Saint-Hilaire-lez-Cambrai",
    "state_id": 5027,
    "state_code": "59",
    "country_id": 75,
    "country_code": "FR",
    "latitude": "50.18419000",
    "longitude": "3.41327000",
    "native": null,
    "timezone": "Europe/Paris",
    "translations": {}
  },
  {
    "id": 46079,
    "name": "Saint-Jans-Cappel",
    "state_id": 5027,
    "state_code": "59",
    "country_id": 75,
    "country_code": "FR",
    "latitude": "50.76387000",
    "longitude": "2.72227000",
    "native": null,
    "timezone": "Europe/Paris",
    "translations": {}
  },
  {
    "id": 46456,
    "name": "Saint-Pol-sur-Mer",
    "state_id": 5027,
    "state_code": "59",
    "country_id": 75,
    "country_code": "FR",
    "latitude": "51.03116000",
    "longitude": "2.33983000",
    "native": null,
    "timezone": "Europe/Paris",
    "translations": {}
  },
  {
    "id": 46476,
    "name": "Saint-Python",
    "state_id": 5027,
    "state_code": "59",
    "country_id": 75,
    "country_code": "FR",
    "latitude": "50.19001000",
    "longitude": "3.48027000",
    "native": null,
    "timezone": "Europe/Paris",
    "translations": {}
  },
  {
    "id": 46525,
    "name": "Saint-Saulve",
    "state_id": 5027,
    "state_code": "59",
    "country_id": 75,
    "country_code": "FR",
    "latitude": "50.37141000",
    "longitude": "3.55612000",
    "native": null,
    "timezone": "Europe/Paris",
    "translations": {}
  },
  {
    "id": 46557,
    "name": "Saint-Souplet",
    "state_id": 5027,
    "state_code": "59",
    "country_id": 75,
    "country_code": "FR",
    "latitude": "50.05639000",
    "longitude": "3.53179000",
    "native": null,
    "timezone": "Europe/Paris",
    "translations": {}
  },
  {
    "id": 46572,
    "name": "Saint-Sylvestre-Cappel",
    "state_id": 5027,
    "state_code": "59",
    "country_id": 75,
    "country_code": "FR",
    "latitude": "50.77625000",
    "longitude": "2.55622000",
    "native": null,
    "timezone": "Europe/Paris",
    "translations": {}
  },
  {
    "id": 46765,
    "name": "Salomé",
    "state_id": 5027,
    "state_code": "59",
    "country_id": 75,
    "country_code": "FR",
    "latitude": "50.53352000",
    "longitude": "2.84709000",
    "native": null,
    "timezone": "Europe/Paris",
    "translations": {}
  },
  {
    "id": 46777,
    "name": "Saméon",
    "state_id": 5027,
    "state_code": "59",
    "country_id": 75,
    "country_code": "FR",
    "latitude": "50.47135000",
    "longitude": "3.33544000",
    "native": null,
    "timezone": "Europe/Paris",
    "translations": {}
  },
  {
    "id": 46799,
    "name": "Santes",
    "state_id": 5027,
    "state_code": "59",
    "country_id": 75,
    "country_code": "FR",
    "latitude": "50.59316000",
    "longitude": "2.96289000",
    "native": null,
    "timezone": "Europe/Paris",
    "translations": {}
  },
  {
    "id": 46819,
    "name": "Sars-Poteries",
    "state_id": 5027,
    "state_code": "59",
    "country_id": 75,
    "country_code": "FR",
    "latitude": "50.16928000",
    "longitude": "4.02676000",
    "native": null,
    "timezone": "Europe/Paris",
    "translations": {}
  },
  {
    "id": 46847,
    "name": "Saultain",
    "state_id": 5027,
    "state_code": "59",
    "country_id": 75,
    "country_code": "FR",
    "latitude": "50.33676000",
    "longitude": "3.57723000",
    "native": null,
    "timezone": "Europe/Paris",
    "translations": {}
  },
  {
    "id": 46851,
    "name": "Saulzoir",
    "state_id": 5027,
    "state_code": "59",
    "country_id": 75,
    "country_code": "FR",
    "latitude": "50.24057000",
    "longitude": "3.44430000",
    "native": null,
    "timezone": "Europe/Paris",
    "translations": {}
  },
  {
    "id": 46910,
    "name": "Sebourg",
    "state_id": 5027,
    "state_code": "59",
    "country_id": 75,
    "country_code": "FR",
    "latitude": "50.34249000",
    "longitude": "3.64352000",
    "native": null,
    "timezone": "Europe/Paris",
    "translations": {}
  },
  {
    "id": 46911,
    "name": "Seclin",
    "state_id": 5027,
    "state_code": "59",
    "country_id": 75,
    "country_code": "FR",
    "latitude": "50.54873000",
    "longitude": "3.02731000",
    "native": null,
    "timezone": "Europe/Paris",
    "translations": {}
  },
  {
    "id": 46935,
    "name": "Selvigny",
    "state_id": 5027,
    "state_code": "59",
    "country_id": 75,
    "country_code": "FR",
    "latitude": "50.07971000",
    "longitude": "3.34899000",
    "native": null,
    "timezone": "Europe/Paris",
    "translations": {}
  },
  {
    "id": 46952,
    "name": "Sequedin",
    "state_id": 5027,
    "state_code": "59",
    "country_id": 75,
    "country_code": "FR",
    "latitude": "50.62575000",
    "longitude": "2.98276000",
    "native": null,
    "timezone": "Europe/Paris",
    "translations": {}
  },
  {
    "id": 47003,
    "name": "Sin-le-Noble",
    "state_id": 5027,
    "state_code": "59",
    "country_id": 75,
    "country_code": "FR",
    "latitude": "50.36159000",
    "longitude": "3.13113000",
    "native": null,
    "timezone": "Europe/Paris",
    "translations": {}
  },
  {
    "id": 47015,
    "name": "Socx",
    "state_id": 5027,
    "state_code": "59",
    "country_id": 75,
    "country_code": "FR",
    "latitude": "50.93571000",
    "longitude": "2.42422000",
    "native": null,
    "timezone": "Europe/Paris",
    "translations": {}
  },
  {
    "id": 47033,
    "name": "Solre-le-Château",
    "state_id": 5027,
    "state_code": "59",
    "country_id": 75,
    "country_code": "FR",
    "latitude": "50.17432000",
    "longitude": "4.08898000",
    "native": null,
    "timezone": "Europe/Paris",
    "translations": {}
  },
  {
    "id": 47034,
    "name": "Somain",
    "state_id": 5027,
    "state_code": "59",
    "country_id": 75,
    "country_code": "FR",
    "latitude": "50.35961000",
    "longitude": "3.28108000",
    "native": null,
    "timezone": "Europe/Paris",
    "translations": {}
  },
  {
    "id": 47094,
    "name": "Spycker",
    "state_id": 5027,
    "state_code": "59",
    "country_id": 75,
    "country_code": "FR",
    "latitude": "50.96915000",
    "longitude": "2.32184000",
    "native": null,
    "timezone": "Europe/Paris",
    "translations": {}
  },
  {
    "id": 47099,
    "name": "Steenbecque",
    "state_id": 5027,
    "state_code": "59",
    "country_id": 75,
    "country_code": "FR",
    "latitude": "50.67421000",
    "longitude": "2.48442000",
    "native": null,
    "timezone": "Europe/Paris",
    "translations": {}
  },
  {
    "id": 47100,
    "name": "Steene",
    "state_id": 5027,
    "state_code": "59",
    "country_id": 75,
    "country_code": "FR",
    "latitude": "50.95228000",
    "longitude": "2.36813000",
    "native": null,
    "timezone": "Europe/Paris",
    "translations": {}
  },
  {
    "id": 47101,
    "name": "Steenvoorde",
    "state_id": 5027,
    "state_code": "59",
    "country_id": 75,
    "country_code": "FR",
    "latitude": "50.81046000",
    "longitude": "2.58244000",
    "native": null,
    "timezone": "Europe/Paris",
    "translations": {}
  },
  {
    "id": 47102,
    "name": "Steenwerck",
    "state_id": 5027,
    "state_code": "59",
    "country_id": 75,
    "country_code": "FR",
    "latitude": "50.70199000",
    "longitude": "2.77829000",
    "native": null,
    "timezone": "Europe/Paris",
    "translations": {}
  },
  {
    "id": 47197,
    "name": "Templemars",
    "state_id": 5027,
    "state_code": "59",
    "country_id": 75,
    "country_code": "FR",
    "latitude": "50.57387000",
    "longitude": "3.05437000",
    "native": null,
    "timezone": "Europe/Paris",
    "translations": {}
  },
  {
    "id": 47198,
    "name": "Templeuve-en-Pévèle",
    "state_id": 5027,
    "state_code": "59",
    "country_id": 75,
    "country_code": "FR",
    "latitude": "50.52336000",
    "longitude": "3.17809000",
    "native": null,
    "timezone": "Europe/Paris",
    "translations": {}
  },
  {
    "id": 47417,
    "name": "Téteghem",
    "state_id": 5027,
    "state_code": "59",
    "country_id": 75,
    "country_code": "FR",
    "latitude": "51.01859000",
    "longitude": "2.44454000",
    "native": null,
    "timezone": "Europe/Paris",
    "translations": {}
  },
  {
    "id": 162051,
    "name": "Téteghem-Coudekerque-Village",
    "state_id": 5027,
    "state_code": "59",
    "country_id": 75,
    "country_code": "FR",
    "latitude": "51.00920000",
    "longitude": "2.44530000",
    "native": null,
    "timezone": "Europe/Paris",
    "translations": {}
  },
  {
    "id": 47226,
    "name": "Thiant",
    "state_id": 5027,
    "state_code": "59",
    "country_id": 75,
    "country_code": "FR",
    "latitude": "50.30480000",
    "longitude": "3.44796000",
    "native": null,
    "timezone": "Europe/Paris",
    "translations": {}
  },
  {
    "id": 47260,
    "name": "Thumeries",
    "state_id": 5027,
    "state_code": "59",
    "country_id": 75,
    "country_code": "FR",
    "latitude": "50.47662000",
    "longitude": "3.05500000",
    "native": null,
    "timezone": "Europe/Paris",
    "translations": {}
  },
  {
    "id": 47261,
    "name": "Thun-Saint-Amand",
    "state_id": 5027,
    "state_code": "59",
    "country_id": 75,
    "country_code": "FR",
    "latitude": "50.47276000",
    "longitude": "3.45115000",
    "native": null,
    "timezone": "Europe/Paris",
    "translations": {}
  },
  {
    "id": 47308,
    "name": "Toufflers",
    "state_id": 5027,
    "state_code": "59",
    "country_id": 75,
    "country_code": "FR",
    "latitude": "50.66039000",
    "longitude": "3.23358000",
    "native": null,
    "timezone": "Europe/Paris",
    "translations": {}
  },
  {
    "id": 47320,
    "name": "Tourcoing",
    "state_id": 5027,
    "state_code": "59",
    "country_id": 75,
    "country_code": "FR",
    "latitude": "50.72391000",
    "longitude": "3.16117000",
    "native": null,
    "timezone": "Europe/Paris",
    "translations": {}
  },
  {
    "id": 47399,
    "name": "Trélon",
    "state_id": 5027,
    "state_code": "59",
    "country_id": 75,
    "country_code": "FR",
    "latitude": "50.05805000",
    "longitude": "4.10200000",
    "native": null,
    "timezone": "Europe/Paris",
    "translations": {}
  },
  {
    "id": 47365,
    "name": "Tressin",
    "state_id": 5027,
    "state_code": "59",
    "country_id": 75,
    "country_code": "FR",
    "latitude": "50.61750000",
    "longitude": "3.19354000",
    "native": null,
    "timezone": "Europe/Paris",
    "translations": {}
  },
  {
    "id": 47376,
    "name": "Trith-Saint-Léger",
    "state_id": 5027,
    "state_code": "59",
    "country_id": 75,
    "country_code": "FR",
    "latitude": "50.31667000",
    "longitude": "3.48333000",
    "native": null,
    "timezone": "Europe/Paris",
    "translations": {}
  },
  {
    "id": 47444,
    "name": "Uxem",
    "state_id": 5027,
    "state_code": "59",
    "country_id": 75,
    "country_code": "FR",
    "latitude": "51.02170000",
    "longitude": "2.48376000",
    "native": null,
    "timezone": "Europe/Paris",
    "translations": {}
  },
  {
    "id": 47474,
    "name": "Valenciennes",
    "state_id": 5027,
    "state_code": "59",
    "country_id": 75,
    "country_code": "FR",
    "latitude": "50.35909000",
    "longitude": "3.52506000",
    "native": null,
    "timezone": "Europe/Paris",
    "translations": {}
  },
  {
    "id": 47569,
    "name": "Vendegies-sur-Écaillon",
    "state_id": 5027,
    "state_code": "59",
    "country_id": 75,
    "country_code": "FR",
    "latitude": "50.26224000",
    "longitude": "3.51256000",
    "native": null,
    "timezone": "Europe/Paris",
    "translations": {}
  },
  {
    "id": 47573,
    "name": "Vendeville",
    "state_id": 5027,
    "state_code": "59",
    "country_id": 75,
    "country_code": "FR",
    "latitude": "50.57693000",
    "longitude": "3.07870000",
    "native": null,
    "timezone": "Europe/Paris",
    "translations": {}
  },
  {
    "id": 47602,
    "name": "Verlinghem",
    "state_id": 5027,
    "state_code": "59",
    "country_id": 75,
    "country_code": "FR",
    "latitude": "50.68291000",
    "longitude": "2.99907000",
    "native": null,
    "timezone": "Europe/Paris",
    "translations": {}
  },
  {
    "id": 47686,
    "name": "Viesly",
    "state_id": 5027,
    "state_code": "59",
    "country_id": 75,
    "country_code": "FR",
    "latitude": "50.15345000",
    "longitude": "3.46236000",
    "native": null,
    "timezone": "Europe/Paris",
    "translations": {}
  },
  {
    "id": 47687,
    "name": "Vieux-Berquin",
    "state_id": 5027,
    "state_code": "59",
    "country_id": 75,
    "country_code": "FR",
    "latitude": "50.69489000",
    "longitude": "2.64444000",
    "native": null,
    "timezone": "Europe/Paris",
    "translations": {}
  },
  {
    "id": 47690,
    "name": "Vieux-Condé",
    "state_id": 5027,
    "state_code": "59",
    "country_id": 75,
    "country_code": "FR",
    "latitude": "50.45944000",
    "longitude": "3.56738000",
    "native": null,
    "timezone": "Europe/Paris",
    "translations": {}
  },
  {
    "id": 47766,
    "name": "Villeneuve-d'Ascq",
    "state_id": 5027,
    "state_code": "59",
    "country_id": 75,
    "country_code": "FR",
    "latitude": "50.61669000",
    "longitude": "3.16664000",
    "native": null,
    "timezone": "Europe/Paris",
    "translations": {}
  },
  {
    "id": 47803,
    "name": "Villers-en-Cauchies",
    "state_id": 5027,
    "state_code": "59",
    "country_id": 75,
    "country_code": "FR",
    "latitude": "50.22574000",
    "longitude": "3.40362000",
    "native": null,
    "timezone": "Europe/Paris",
    "translations": {}
  },
  {
    "id": 47799,
    "name": "Villers-Outréaux",
    "state_id": 5027,
    "state_code": "59",
    "country_id": 75,
    "country_code": "FR",
    "latitude": "50.03590000",
    "longitude": "3.29947000",
    "native": null,
    "timezone": "Europe/Paris",
    "translations": {}
  },
  {
    "id": 47800,
    "name": "Villers-Pol",
    "state_id": 5027,
    "state_code": "59",
    "country_id": 75,
    "country_code": "FR",
    "latitude": "50.28460000",
    "longitude": "3.61449000",
    "native": null,
    "timezone": "Europe/Paris",
    "translations": {}
  },
  {
    "id": 47919,
    "name": "Vred",
    "state_id": 5027,
    "state_code": "59",
    "country_id": 75,
    "country_code": "FR",
    "latitude": "50.39455000",
    "longitude": "3.23029000",
    "native": null,
    "timezone": "Europe/Paris",
    "translations": {}
  },
  {
    "id": 47935,
    "name": "Wahagnies",
    "state_id": 5027,
    "state_code": "59",
    "country_id": 75,
    "country_code": "FR",
    "latitude": "50.48665000",
    "longitude": "3.03448000",
    "native": null,
    "timezone": "Europe/Paris",
    "translations": {}
  },
  {
    "id": 47939,
    "name": "Walincourt-Selvigny",
    "state_id": 5027,
    "state_code": "59",
    "country_id": 75,
    "country_code": "FR",
    "latitude": "50.06667000",
    "longitude": "3.33333000",
    "native": null,
    "timezone": "Europe/Paris",
    "translations": {}
  },
  {
    "id": 47940,
    "name": "Wallers",
    "state_id": 5027,
    "state_code": "59",
    "country_id": 75,
    "country_code": "FR",
    "latitude": "50.37432000",
    "longitude": "3.39188000",
    "native": null,
    "timezone": "Europe/Paris",
    "translations": {}
  },
  {
    "id": 47942,
    "name": "Wambrechies",
    "state_id": 5027,
    "state_code": "59",
    "country_id": 75,
    "country_code": "FR",
    "latitude": "50.68276000",
    "longitude": "3.04784000",
    "native": null,
    "timezone": "Europe/Paris",
    "translations": {}
  },
  {
    "id": 47943,
    "name": "Wandignies-Hamage",
    "state_id": 5027,
    "state_code": "59",
    "country_id": 75,
    "country_code": "FR",
    "latitude": "50.39609000",
    "longitude": "3.31450000",
    "native": null,
    "timezone": "Europe/Paris",
    "translations": {}
  },
  {
    "id": 47947,
    "name": "Wargnies-le-Grand",
    "state_id": 5027,
    "state_code": "59",
    "country_id": 75,
    "country_code": "FR",
    "latitude": "50.30751000",
    "longitude": "3.66038000",
    "native": null,
    "timezone": "Europe/Paris",
    "translations": {}
  },
  {
    "id": 47948,
    "name": "Warhem",
    "state_id": 5027,
    "state_code": "59",
    "country_id": 75,
    "country_code": "FR",
    "latitude": "50.97592000",
    "longitude": "2.49303000",
    "native": null,
    "timezone": "Europe/Paris",
    "translations": {}
  },
  {
    "id": 47951,
    "name": "Wasquehal",
    "state_id": 5027,
    "state_code": "59",
    "country_id": 75,
    "country_code": "FR",
    "latitude": "50.67043000",
    "longitude": "3.13382000",
    "native": null,
    "timezone": "Europe/Paris",
    "translations": {}
  },
  {
    "id": 47955,
    "name": "Watten",
    "state_id": 5027,
    "state_code": "59",
    "country_id": 75,
    "country_code": "FR",
    "latitude": "50.83685000",
    "longitude": "2.21346000",
    "native": null,
    "timezone": "Europe/Paris",
    "translations": {}
  },
  {
    "id": 47956,
    "name": "Wattignies",
    "state_id": 5027,
    "state_code": "59",
    "country_id": 75,
    "country_code": "FR",
    "latitude": "50.58639000",
    "longitude": "3.04394000",
    "native": null,
    "timezone": "Europe/Paris",
    "translations": {}
  },
  {
    "id": 47957,
    "name": "Wattrelos",
    "state_id": 5027,
    "state_code": "59",
    "country_id": 75,
    "country_code": "FR",
    "latitude": "50.70118000",
    "longitude": "3.21812000",
    "native": null,
    "timezone": "Europe/Paris",
    "translations": {}
  },
  {
    "id": 47960,
    "name": "Wavrechain-sous-Denain",
    "state_id": 5027,
    "state_code": "59",
    "country_id": 75,
    "country_code": "FR",
    "latitude": "50.33224000",
    "longitude": "3.41252000",
    "native": null,
    "timezone": "Europe/Paris",
    "translations": {}
  },
  {
    "id": 47961,
    "name": "Wavrin",
    "state_id": 5027,
    "state_code": "59",
    "country_id": 75,
    "country_code": "FR",
    "latitude": "50.57386000",
    "longitude": "2.93630000",
    "native": null,
    "timezone": "Europe/Paris",
    "translations": {}
  },
  {
    "id": 47962,
    "name": "Waziers",
    "state_id": 5027,
    "state_code": "59",
    "country_id": 75,
    "country_code": "FR",
    "latitude": "50.38717000",
    "longitude": "3.11490000",
    "native": null,
    "timezone": "Europe/Paris",
    "translations": {}
  },
  {
    "id": 47964,
    "name": "Wervicq-Sud",
    "state_id": 5027,
    "state_code": "59",
    "country_id": 75,
    "country_code": "FR",
    "latitude": "50.77450000",
    "longitude": "3.04207000",
    "native": null,
    "timezone": "Europe/Paris",
    "translations": {}
  },
  {
    "id": 47970,
    "name": "Wignehies",
    "state_id": 5027,
    "state_code": "59",
    "country_id": 75,
    "country_code": "FR",
    "latitude": "50.01550000",
    "longitude": "4.00913000",
    "native": null,
    "timezone": "Europe/Paris",
    "translations": {}
  },
  {
    "id": 47972,
    "name": "Willems",
    "state_id": 5027,
    "state_code": "59",
    "country_id": 75,
    "country_code": "FR",
    "latitude": "50.63206000",
    "longitude": "3.23840000",
    "native": null,
    "timezone": "Europe/Paris",
    "translations": {}
  },
  {
    "id": 47980,
    "name": "Winnezeele",
    "state_id": 5027,
    "state_code": "59",
    "country_id": 75,
    "country_code": "FR",
    "latitude": "50.84100000",
    "longitude": "2.55118000",
    "native": null,
    "timezone": "Europe/Paris",
    "translations": {}
  },
  {
    "id": 47996,
    "name": "Wormhout",
    "state_id": 5027,
    "state_code": "59",
    "country_id": 75,
    "country_code": "FR",
    "latitude": "50.88129000",
    "longitude": "2.46901000",
    "native": null,
    "timezone": "Europe/Paris",
    "translations": {}
  },
  {
    "id": 48025,
    "name": "Zegerscappel",
    "state_id": 5027,
    "state_code": "59",
    "country_id": 75,
    "country_code": "FR",
    "latitude": "50.88333000",
    "longitude": "2.40000000",
    "native": null,
    "timezone": "Europe/Paris",
    "translations": {}
  },
  {
    "id": 48030,
    "name": "Zuydcoote",
    "state_id": 5027,
    "state_code": "59",
    "country_id": 75,
    "country_code": "FR",
    "latitude": "51.06096000",
    "longitude": "2.49338000",
    "native": null,
    "timezone": "Europe/Paris",
    "translations": {}
  }
]