[
  {
    "id": 135273,
    "name": "Acquaro",
    "state_id": 1737,
    "state_code": "VV",
    "country_id": 107,
    "country_code": "IT",
    "latitude": "38.55729000",
    "longitude": "16.18781000",
    "native": null,
    "timezone": "Europe/Rome",
    "translations": {}
  },
  {
    "id": 135585,
    "name": "Arena",
    "state_id": 1737,
    "state_code": "VV",
    "country_id": 107,
    "country_code": "IT",
    "latitude": "38.56235000",
    "longitude": "16.21060000",
    "native": null,
    "timezone": "Europe/Rome",
    "translations": {}
  },
  {
    "id": 136325,
    "name": "Briatico",
    "state_id": 1737,
    "state_code": "VV",
    "country_id": 107,
    "country_code": "IT",
    "latitude": "38.72254000",
    "longitude": "16.02737000",
    "native": null,
    "timezone": "Europe/Rome",
    "translations": {}
  },
  {
    "id": 136347,
    "name": "Brognaturo",
    "state_id": 1737,
    "state_code": "VV",
    "country_id": 107,
    "country_code": "IT",
    "latitude": "38.60128000",
    "longitude": "16.34140000",
    "native": null,
    "timezone": "Europe/Rome",
    "translations": {}
  },
  {
    "id": 136770,
    "name": "Capistrano",
    "state_id": 1737,
    "state_code": "VV",
    "country_id": 107,
    "country_code": "IT",
    "latitude": "38.69131000",
    "longitude": "16.28935000",
    "native": null,
    "timezone": "Europe/Rome",
    "translations": {}
  },
  {
    "id": 137617,
    "name": "Cessaniti",
    "state_id": 1737,
    "state_code": "VV",
    "country_id": 107,
    "country_code": "IT",
    "latitude": "38.66395000",
    "longitude": "16.02959000",
    "native": null,
    "timezone": "Europe/Rome",
    "translations": {}
  },
  {
    "id": 138230,
    "name": "Dasà",
    "state_id": 1737,
    "state_code": "VV",
    "country_id": 107,
    "country_code": "IT",
    "latitude": "38.56514000",
    "longitude": "16.19521000",
    "native": null,
    "timezone": "Europe/Rome",
    "translations": {}
  },
  {
    "id": 138268,
    "name": "Dinami",
    "state_id": 1737,
    "state_code": "VV",
    "country_id": 107,
    "country_code": "IT",
    "latitude": "38.53136000",
    "longitude": "16.14461000",
    "native": null,
    "timezone": "Europe/Rome",
    "translations": {}
  },
  {
    "id": 138327,
    "name": "Drapia",
    "state_id": 1737,
    "state_code": "VV",
    "country_id": 107,
    "country_code": "IT",
    "latitude": "38.66612000",
    "longitude": "15.91122000",
    "native": null,
    "timezone": "Europe/Rome",
    "translations": {}
  },
  {
    "id": 138395,
    "name": "Fabrizia",
    "state_id": 1737,
    "state_code": "VV",
    "country_id": 107,
    "country_code": "IT",
    "latitude": "38.48989000",
    "longitude": "16.29832000",
    "native": null,
    "timezone": "Europe/Rome",
    "translations": {}
  },
  {
    "id": 138522,
    "name": "Filadelfia",
    "state_id": 1737,
    "state_code": "VV",
    "country_id": 107,
    "country_code": "IT",
    "latitude": "38.78468000",
    "longitude": "16.29200000",
    "native": null,
    "timezone": "Europe/Rome",
    "translations": {}
  },
  {
    "id": 138524,
    "name": "Filandari",
    "state_id": 1737,
    "state_code": "VV",
    "country_id": 107,
    "country_code": "IT",
    "latitude": "38.61508000",
    "longitude": "16.03140000",
    "native": null,
    "timezone": "Europe/Rome",
    "translations": {}
  },
  {
    "id": 138532,
    "name": "Filogaso",
    "state_id": 1737,
    "state_code": "VV",
    "country_id": 107,
    "country_code": "IT",
    "latitude": "38.68287000",
    "longitude": "16.22584000",
    "native": null,
    "timezone": "Europe/Rome",
    "translations": {}
  },
  {
    "id": 138692,
    "name": "Francavilla Angitola",
    "state_id": 1737,
    "state_code": "VV",
    "country_id": 107,
    "country_code": "IT",
    "latitude": "38.78016000",
    "longitude": "16.27228000",
    "native": null,
    "timezone": "Europe/Rome",
    "translations": {}
  },
  {
    "id": 138702,
    "name": "Francica",
    "state_id": 1737,
    "state_code": "VV",
    "country_id": 107,
    "country_code": "IT",
    "latitude": "38.61697000",
    "longitude": "16.10007000",
    "native": null,
    "timezone": "Europe/Rome",
    "translations": {}
  },
  {
    "id": 138919,
    "name": "Gerocarne",
    "state_id": 1737,
    "state_code": "VV",
    "country_id": 107,
    "country_code": "IT",
    "latitude": "38.58767000",
    "longitude": "16.21818000",
    "native": null,
    "timezone": "Europe/Rome",
    "translations": {}
  },
  {
    "id": 139280,
    "name": "Jonadi",
    "state_id": 1737,
    "state_code": "VV",
    "country_id": 107,
    "country_code": "IT",
    "latitude": "38.62988000",
    "longitude": "16.06100000",
    "native": null,
    "timezone": "Europe/Rome",
    "translations": {}
  },
  {
    "id": 139281,
    "name": "Joppolo",
    "state_id": 1737,
    "state_code": "VV",
    "country_id": 107,
    "country_code": "IT",
    "latitude": "38.58338000",
    "longitude": "15.89709000",
    "native": null,
    "timezone": "Europe/Rome",
    "translations": {}
  },
  {
    "id": 139517,
    "name": "Limbadi-Caroni",
    "state_id": 1737,
    "state_code": "VV",
    "country_id": 107,
    "country_code": "IT",
    "latitude": "38.55902000",
    "longitude": "15.96441000",
    "native": null,
    "timezone": "Europe/Rome",
    "translations": {}
  },
  {
    "id": 139746,
    "name": "Maierato",
    "state_id": 1737,
    "state_code": "VV",
    "country_id": 107,
    "country_code": "IT",
    "latitude": "38.71111000",
    "longitude": "16.17532000",
    "native": null,
    "timezone": "Europe/Rome",
    "translations": {}
  },
  {
    "id": 140147,
    "name": "Mileto",
    "state_id": 1737,
    "state_code": "VV",
    "country_id": 107,
    "country_code": "IT",
    "latitude": "38.60780000",
    "longitude": "16.06751000",
    "native": null,
    "timezone": "Europe/Rome",
    "translations": {}
  },
  {
    "id": 140285,
    "name": "Mongiana",
    "state_id": 1737,
    "state_code": "VV",
    "country_id": 107,
    "country_code": "IT",
    "latitude": "38.51477000",
    "longitude": "16.31940000",
    "native": null,
    "timezone": "Europe/Rome",
    "translations": {}
  },
  {
    "id": 140523,
    "name": "Monterosso Calabro",
    "state_id": 1737,
    "state_code": "VV",
    "country_id": 107,
    "country_code": "IT",
    "latitude": "38.71746000",
    "longitude": "16.29066000",
    "native": null,
    "timezone": "Europe/Rome",
    "translations": {}
  },
  {
    "id": 140717,
    "name": "Nardodipace",
    "state_id": 1737,
    "state_code": "VV",
    "country_id": 107,
    "country_code": "IT",
    "latitude": "38.47418000",
    "longitude": "16.34295000",
    "native": null,
    "timezone": "Europe/Rome",
    "translations": {}
  },
  {
    "id": 140766,
    "name": "Nicotera",
    "state_id": 1737,
    "state_code": "VV",
    "country_id": 107,
    "country_code": "IT",
    "latitude": "38.54915000",
    "longitude": "15.93584000",
    "native": null,
    "timezone": "Europe/Rome",
    "translations": {}
  },
  {
    "id": 58280,
    "name": "Pannaconi",
    "state_id": 1737,
    "state_code": "VV",
    "country_id": 107,
    "country_code": "IT",
    "latitude": "38.69291000",
    "longitude": "16.04411000",
    "native": null,
    "timezone": "Europe/Rome",
    "translations": {}
  },
  {
    "id": 58297,
    "name": "Paravati",
    "state_id": 1737,
    "state_code": "VV",
    "country_id": 107,
    "country_code": "IT",
    "latitude": "38.59020000",
    "longitude": "16.05815000",
    "native": null,
    "timezone": "Europe/Rome",
    "translations": {}
  },
  {
    "id": 58305,
    "name": "Parghelia",
    "state_id": 1737,
    "state_code": "VV",
    "country_id": 107,
    "country_code": "IT",
    "latitude": "38.68189000",
    "longitude": "15.92075000",
    "native": null,
    "timezone": "Europe/Rome",
    "translations": {}
  },
  {
    "id": 58432,
    "name": "Pernocari-Presinaci",
    "state_id": 1737,
    "state_code": "VV",
    "country_id": 107,
    "country_code": "IT",
    "latitude": "38.61184000",
    "longitude": "16.00463000",
    "native": null,
    "timezone": "Europe/Rome",
    "translations": {}
  },
  {
    "id": 58708,
    "name": "Piscopio",
    "state_id": 1737,
    "state_code": "VV",
    "country_id": 107,
    "country_code": "IT",
    "latitude": "38.66361000",
    "longitude": "16.11101000",
    "native": null,
    "timezone": "Europe/Rome",
    "translations": {}
  },
  {
    "id": 58726,
    "name": "Pizzo",
    "state_id": 1737,
    "state_code": "VV",
    "country_id": 107,
    "country_code": "IT",
    "latitude": "38.75259000",
    "longitude": "16.18696000",
    "native": null,
    "timezone": "Europe/Rome",
    "translations": {}
  },
  {
    "id": 58730,
    "name": "Pizzoni",
    "state_id": 1737,
    "state_code": "VV",
    "country_id": 107,
    "country_code": "IT",
    "latitude": "38.62286000",
    "longitude": "16.24876000",
    "native": null,
    "timezone": "Europe/Rome",
    "translations": {}
  },
  {
    "id": 58787,
    "name": "Polia",
    "state_id": 1737,
    "state_code": "VV",
    "country_id": 107,
    "country_code": "IT",
    "latitude": "38.75118000",
    "longitude": "16.31220000",
    "native": null,
    "timezone": "Europe/Rome",
    "translations": {}
  },
  {
    "id": 59362,
    "name": "Ricadi",
    "state_id": 1737,
    "state_code": "VV",
    "country_id": 107,
    "country_code": "IT",
    "latitude": "38.62517000",
    "longitude": "15.86674000",
    "native": null,
    "timezone": "Europe/Rome",
    "translations": {}
  },
  {
    "id": 59581,
    "name": "Rombiolo",
    "state_id": 1737,
    "state_code": "VV",
    "country_id": 107,
    "country_code": "IT",
    "latitude": "38.59535000",
    "longitude": "16.00237000",
    "native": null,
    "timezone": "Europe/Rome",
    "translations": {}
  },
  {
    "id": 59850,
    "name": "San Calogero",
    "state_id": 1737,
    "state_code": "VV",
    "country_id": 107,
    "country_code": "IT",
    "latitude": "38.57447000",
    "longitude": "16.01933000",
    "native": null,
    "timezone": "Europe/Rome",
    "translations": {}
  },
  {
    "id": 59881,
    "name": "San Costantino Calabro",
    "state_id": 1737,
    "state_code": "VV",
    "country_id": 107,
    "country_code": "IT",
    "latitude": "38.63283000",
    "longitude": "16.07571000",
    "native": null,
    "timezone": "Europe/Rome",
    "translations": {}
  },
  {
    "id": 60022,
    "name": "San Gregorio d'Ippona",
    "state_id": 1737,
    "state_code": "VV",
    "country_id": 107,
    "country_code": "IT",
    "latitude": "38.64528000",
    "longitude": "16.10356000",
    "native": null,
    "timezone": "Europe/Rome",
    "translations": {}
  },
  {
    "id": 60140,
    "name": "San Nicola da Crissa",
    "state_id": 1737,
    "state_code": "VV",
    "country_id": 107,
    "country_code": "IT",
    "latitude": "38.66354000",
    "longitude": "16.28592000",
    "native": null,
    "timezone": "Europe/Rome",
    "translations": {}
  },
  {
    "id": 60144,
    "name": "San Nicolò",
    "state_id": 1737,
    "state_code": "VV",
    "country_id": 107,
    "country_code": "IT",
    "latitude": "38.63426000",
    "longitude": "15.85147000",
    "native": null,
    "timezone": "Europe/Rome",
    "translations": {}
  },
  {
    "id": 60409,
    "name": "Sant'Onofrio",
    "state_id": 1737,
    "state_code": "VV",
    "country_id": 107,
    "country_code": "IT",
    "latitude": "38.69752000",
    "longitude": "16.14755000",
    "native": null,
    "timezone": "Europe/Rome",
    "translations": {}
  },
  {
    "id": 60431,
    "name": "Santa Domenica",
    "state_id": 1737,
    "state_code": "VV",
    "country_id": 107,
    "country_code": "IT",
    "latitude": "38.66220000",
    "longitude": "15.86289000",
    "native": null,
    "timezone": "Europe/Rome",
    "translations": {}
  },
  {
    "id": 60752,
    "name": "Serra San Bruno",
    "state_id": 1737,
    "state_code": "VV",
    "country_id": 107,
    "country_code": "IT",
    "latitude": "38.57474000",
    "longitude": "16.32622000",
    "native": null,
    "timezone": "Europe/Rome",
    "translations": {}
  },
  {
    "id": 60861,
    "name": "Simbario",
    "state_id": 1737,
    "state_code": "VV",
    "country_id": 107,
    "country_code": "IT",
    "latitude": "38.61157000",
    "longitude": "16.33597000",
    "native": null,
    "timezone": "Europe/Rome",
    "translations": {}
  },
  {
    "id": 60958,
    "name": "Sorianello",
    "state_id": 1737,
    "state_code": "VV",
    "country_id": 107,
    "country_code": "IT",
    "latitude": "38.59415000",
    "longitude": "16.23212000",
    "native": null,
    "timezone": "Europe/Rome",
    "translations": {}
  },
  {
    "id": 60959,
    "name": "Soriano Calabro",
    "state_id": 1737,
    "state_code": "VV",
    "country_id": 107,
    "country_code": "IT",
    "latitude": "38.60038000",
    "longitude": "16.22205000",
    "native": null,
    "timezone": "Europe/Rome",
    "translations": {}
  },
  {
    "id": 60989,
    "name": "Spadola",
    "state_id": 1737,
    "state_code": "VV",
    "country_id": 107,
    "country_code": "IT",
    "latitude": "38.60378000",
    "longitude": "16.33700000",
    "native": null,
    "timezone": "Europe/Rome",
    "translations": {}
  },
  {
    "id": 61012,
    "name": "Spilinga",
    "state_id": 1737,
    "state_code": "VV",
    "country_id": 107,
    "country_code": "IT",
    "latitude": "38.62825000",
    "longitude": "15.90572000",
    "native": null,
    "timezone": "Europe/Rome",
    "translations": {}
  },
  {
    "id": 61060,
    "name": "Stefanaconi",
    "state_id": 1737,
    "state_code": "VV",
    "country_id": 107,
    "country_code": "IT",
    "latitude": "38.67788000",
    "longitude": "16.12420000",
    "native": null,
    "timezone": "Europe/Rome",
    "translations": {}
  },
  {
    "id": 61556,
    "name": "Tropea",
    "state_id": 1737,
    "state_code": "VV",
    "country_id": 107,
    "country_code": "IT",
    "latitude": "38.67449000",
    "longitude": "15.89505000",
    "native": null,
    "timezone": "Europe/Rome",
    "translations": {}
  },
  {
    "id": 61709,
    "name": "Vallelonga",
    "state_id": 1737,
    "state_code": "VV",
    "country_id": 107,
    "country_code": "IT",
    "latitude": "38.64742000",
    "longitude": "16.29659000",
    "native": null,
    "timezone": "Europe/Rome",
    "translations": {}
  },
  {
    "id": 61785,
    "name": "Vazzano",
    "state_id": 1737,
    "state_code": "VV",
    "country_id": 107,
    "country_code": "IT",
    "latitude": "38.63288000",
    "longitude": "16.24800000",
    "native": null,
    "timezone": "Europe/Rome",
    "translations": {}
  },
  {
    "id": 61907,
    "name": "Vibo Valentia",
    "state_id": 1737,
    "state_code": "VV",
    "country_id": 107,
    "country_code": "IT",
    "latitude": "38.67618000",
    "longitude": "16.10094000",
    "native": null,
    "timezone": "Europe/Rome",
    "translations": {}
  },
  {
    "id": 62228,
    "name": "Zaccanopoli",
    "state_id": 1737,
    "state_code": "VV",
    "country_id": 107,
    "country_code": "IT",
    "latitude": "38.66548000",
    "longitude": "15.92874000",
    "native": null,
    "timezone": "Europe/Rome",
    "translations": {}
  },
  {
    "id": 62233,
    "name": "Zambrone",
    "state_id": 1737,
    "state_code": "VV",
    "country_id": 107,
    "country_code": "IT",
    "latitude": "38.69878000",
    "longitude": "15.98982000",
    "native": null,
    "timezone": "Europe/Rome",
    "translations": {}
  },
  {
    "id": 62287,
    "name": "Zungri",
    "state_id": 1737,
    "state_code": "VV",
    "country_id": 107,
    "country_code": "IT",
    "latitude": "38.65668000",
    "longitude": "15.98409000",
    "native": null,
    "timezone": "Europe/Rome",
    "translations": {}
  }
]