[
  {
    "id": 162141,
    "name": "18 de Julio - Pueblo Nuevo",
    "state_id": 3204,
    "state_code": "SJ",
    "country_id": 235,
    "country_code": "UY",
    "latitude": "-34.44187256",
    "longitude": "-56.44619290",
    "native": null,
    "timezone": "America/Montevideo",
    "translations": {}
  },
  {
    "id": 163037,
    "name": "Arroyo de la Virgen",
    "state_id": 3204,
    "state_code": "SJ",
    "country_id": 235,
    "country_code": "UY",
    "latitude": "-34.29995465",
    "longitude": "-56.44647039",
    "native": null,
    "timezone": "America/Montevideo",
    "translations": {}
  },
  {
    "id": 163057,
    "name": "Arroyo Llano",
    "state_id": 3204,
    "state_code": "SJ",
    "country_id": 235,
    "country_code": "UY",
    "latitude": "-34.36593235",
    "longitude": "-56.76802884",
    "native": null,
    "timezone": "America/Montevideo",
    "translations": {}
  },
  {
    "id": 163950,
    "name": "Autodromo",
    "state_id": 3204,
    "state_code": "SJ",
    "country_id": 235,
    "country_code": "UY",
    "latitude": "-34.76022167",
    "longitude": "-56.41326281",
    "native": null,
    "timezone": "America/Montevideo",
    "translations": {}
  },
  {
    "id": 163800,
    "name": "Autodromo Nacional",
    "state_id": 3204,
    "state_code": "SJ",
    "country_id": 235,
    "country_code": "UY",
    "latitude": "-34.75838525",
    "longitude": "-56.41748016",
    "native": null,
    "timezone": "America/Montevideo",
    "translations": {}
  },
  {
    "id": 163845,
    "name": "Bañado",
    "state_id": 3204,
    "state_code": "SJ",
    "country_id": 235,
    "country_code": "UY",
    "latitude": "-34.38382019",
    "longitude": "-56.70331707",
    "native": null,
    "timezone": "America/Montevideo",
    "translations": {}
  },
  {
    "id": 163091,
    "name": "Bella Vista",
    "state_id": 3204,
    "state_code": "SJ",
    "country_id": 235,
    "country_code": "UY",
    "latitude": "-34.30875375",
    "longitude": "-56.96399787",
    "native": null,
    "timezone": "America/Montevideo",
    "translations": {}
  },
  {
    "id": 162682,
    "name": "Boca del Cufre",
    "state_id": 3204,
    "state_code": "SJ",
    "country_id": 235,
    "country_code": "UY",
    "latitude": "-34.44375611",
    "longitude": "-57.14746068",
    "native": null,
    "timezone": "America/Montevideo",
    "translations": {}
  },
  {
    "id": 163072,
    "name": "Cagancha",
    "state_id": 3204,
    "state_code": "SJ",
    "country_id": 235,
    "country_code": "UY",
    "latitude": "-34.46427609",
    "longitude": "-56.55037570",
    "native": null,
    "timezone": "America/Montevideo",
    "translations": {}
  },
  {
    "id": 163064,
    "name": "Cagancha Chico",
    "state_id": 3204,
    "state_code": "SJ",
    "country_id": 235,
    "country_code": "UY",
    "latitude": "-34.27991995",
    "longitude": "-56.58188279",
    "native": null,
    "timezone": "America/Montevideo",
    "translations": {}
  },
  {
    "id": 162221,
    "name": "Cañada Grande",
    "state_id": 3204,
    "state_code": "SJ",
    "country_id": 235,
    "country_code": "UY",
    "latitude": "-34.46763128",
    "longitude": "-56.75068536",
    "native": null,
    "timezone": "America/Montevideo",
    "translations": {}
  },
  {
    "id": 162411,
    "name": "Capurro",
    "state_id": 3204,
    "state_code": "SJ",
    "country_id": 235,
    "country_code": "UY",
    "latitude": "-34.42990625",
    "longitude": "-56.46433465",
    "native": null,
    "timezone": "America/Montevideo",
    "translations": {}
  },
  {
    "id": 162633,
    "name": "Carreta Quemada",
    "state_id": 3204,
    "state_code": "SJ",
    "country_id": 235,
    "country_code": "UY",
    "latitude": "-34.17187802",
    "longitude": "-56.55448052",
    "native": null,
    "timezone": "America/Montevideo",
    "translations": {}
  },
  {
    "id": 162339,
    "name": "Ceramicas del Sur",
    "state_id": 3204,
    "state_code": "SJ",
    "country_id": 235,
    "country_code": "UY",
    "latitude": "-34.70751467",
    "longitude": "-56.49683166",
    "native": null,
    "timezone": "America/Montevideo",
    "translations": {}
  },
  {
    "id": 163048,
    "name": "Chamizo",
    "state_id": 3204,
    "state_code": "SJ",
    "country_id": 235,
    "country_code": "UY",
    "latitude": "-34.16693319",
    "longitude": "-56.68973151",
    "native": null,
    "timezone": "America/Montevideo",
    "translations": {}
  },
  {
    "id": 163806,
    "name": "Ciudad del Plata",
    "state_id": 3204,
    "state_code": "SJ",
    "country_id": 235,
    "country_code": "UY",
    "latitude": "-34.75363792",
    "longitude": "-56.41276362",
    "native": null,
    "timezone": "America/Montevideo",
    "translations": {}
  },
  {
    "id": 162218,
    "name": "Cololo Tinosa",
    "state_id": 3204,
    "state_code": "SJ",
    "country_id": 235,
    "country_code": "UY",
    "latitude": "-34.61474393",
    "longitude": "-56.65667174",
    "native": null,
    "timezone": "America/Montevideo",
    "translations": {}
  },
  {
    "id": 163089,
    "name": "Colonia America",
    "state_id": 3204,
    "state_code": "SJ",
    "country_id": 235,
    "country_code": "UY",
    "latitude": "-34.20738115",
    "longitude": "-56.96575013",
    "native": null,
    "timezone": "America/Montevideo",
    "translations": {}
  },
  {
    "id": 162647,
    "name": "Colonia Delta",
    "state_id": 3204,
    "state_code": "SJ",
    "country_id": 235,
    "country_code": "UY",
    "latitude": "-34.43941876",
    "longitude": "-57.02072538",
    "native": null,
    "timezone": "America/Montevideo",
    "translations": {}
  },
  {
    "id": 162705,
    "name": "Colonia Dr. Bernardo Etchepare",
    "state_id": 3204,
    "state_code": "SJ",
    "country_id": 235,
    "country_code": "UY",
    "latitude": "-34.43544149",
    "longitude": "-56.43383573",
    "native": null,
    "timezone": "America/Montevideo",
    "translations": {}
  },
  {
    "id": 163904,
    "name": "Colonia Fernandez Crespo",
    "state_id": 3204,
    "state_code": "SJ",
    "country_id": 235,
    "country_code": "UY",
    "latitude": "-34.48944200",
    "longitude": "-56.92962364",
    "native": null,
    "timezone": "America/Montevideo",
    "translations": {}
  },
  {
    "id": 162957,
    "name": "Colonia Italia",
    "state_id": 3204,
    "state_code": "SJ",
    "country_id": 235,
    "country_code": "UY",
    "latitude": "-34.62202411",
    "longitude": "-56.64156825",
    "native": null,
    "timezone": "America/Montevideo",
    "translations": {}
  },
  {
    "id": 163080,
    "name": "Colonia Juan Maria Perez",
    "state_id": 3204,
    "state_code": "SJ",
    "country_id": 235,
    "country_code": "UY",
    "latitude": "-34.65182940",
    "longitude": "-56.76740608",
    "native": null,
    "timezone": "America/Montevideo",
    "translations": {}
  },
  {
    "id": 163096,
    "name": "Colonia San Joaquin",
    "state_id": 3204,
    "state_code": "SJ",
    "country_id": 235,
    "country_code": "UY",
    "latitude": "-34.48261066",
    "longitude": "-56.89185527",
    "native": null,
    "timezone": "America/Montevideo",
    "translations": {}
  },
  {
    "id": 163042,
    "name": "Colonia Wilson",
    "state_id": 3204,
    "state_code": "SJ",
    "country_id": 235,
    "country_code": "UY",
    "latitude": "-34.71649988",
    "longitude": "-56.52133399",
    "native": null,
    "timezone": "America/Montevideo",
    "translations": {}
  },
  {
    "id": 163051,
    "name": "Coronilla",
    "state_id": 3204,
    "state_code": "SJ",
    "country_id": 235,
    "country_code": "UY",
    "latitude": "-34.14047112",
    "longitude": "-56.84151966",
    "native": null,
    "timezone": "America/Montevideo",
    "translations": {}
  },
  {
    "id": 163081,
    "name": "Costa del Mauricio",
    "state_id": 3204,
    "state_code": "SJ",
    "country_id": 235,
    "country_code": "UY",
    "latitude": "-34.68474867",
    "longitude": "-56.67222056",
    "native": null,
    "timezone": "America/Montevideo",
    "translations": {}
  },
  {
    "id": 162643,
    "name": "Costas de Pereira - Rapetti",
    "state_id": 3204,
    "state_code": "SJ",
    "country_id": 235,
    "country_code": "UY",
    "latitude": "-34.46020311",
    "longitude": "-56.89948516",
    "native": null,
    "timezone": "America/Montevideo",
    "translations": {}
  },
  {
    "id": 163050,
    "name": "Costas del Sauce",
    "state_id": 3204,
    "state_code": "SJ",
    "country_id": 235,
    "country_code": "UY",
    "latitude": "-34.16285674",
    "longitude": "-56.87867695",
    "native": null,
    "timezone": "America/Montevideo",
    "translations": {}
  },
  {
    "id": 163061,
    "name": "Cruz de los Caminos",
    "state_id": 3204,
    "state_code": "SJ",
    "country_id": 235,
    "country_code": "UY",
    "latitude": "-34.26045577",
    "longitude": "-56.70010945",
    "native": null,
    "timezone": "America/Montevideo",
    "translations": {}
  },
  {
    "id": 163903,
    "name": "Cuchilla de Pereira",
    "state_id": 3204,
    "state_code": "SJ",
    "country_id": 235,
    "country_code": "UY",
    "latitude": "-34.35492783",
    "longitude": "-56.86716229",
    "native": null,
    "timezone": "America/Montevideo",
    "translations": {}
  },
  {
    "id": 163039,
    "name": "Cuchilla del Vichadero",
    "state_id": 3204,
    "state_code": "SJ",
    "country_id": 235,
    "country_code": "UY",
    "latitude": "-34.41591883",
    "longitude": "-56.50630566",
    "native": null,
    "timezone": "America/Montevideo",
    "translations": {}
  },
  {
    "id": 163036,
    "name": "Cuchilla Seca",
    "state_id": 3204,
    "state_code": "SJ",
    "country_id": 235,
    "country_code": "UY",
    "latitude": "-34.16346042",
    "longitude": "-56.47523642",
    "native": null,
    "timezone": "America/Montevideo",
    "translations": {}
  },
  {
    "id": 129797,
    "name": "Delta del Tigre",
    "state_id": 3204,
    "state_code": "SJ",
    "country_id": 235,
    "country_code": "UY",
    "latitude": "-34.76488000",
    "longitude": "-56.36450000",
    "native": null,
    "timezone": "America/Montevideo",
    "translations": {}
  },
  {
    "id": 129801,
    "name": "Ecilda Paullier",
    "state_id": 3204,
    "state_code": "SJ",
    "country_id": 235,
    "country_code": "UY",
    "latitude": "-34.35778000",
    "longitude": "-57.04883000",
    "native": null,
    "timezone": "America/Montevideo",
    "translations": {}
  },
  {
    "id": 163090,
    "name": "Escudero",
    "state_id": 3204,
    "state_code": "SJ",
    "country_id": 235,
    "country_code": "UY",
    "latitude": "-34.25720626",
    "longitude": "-56.97960469",
    "native": null,
    "timezone": "America/Montevideo",
    "translations": {}
  },
  {
    "id": 162174,
    "name": "Estacion Rodriguez",
    "state_id": 3204,
    "state_code": "SJ",
    "country_id": 235,
    "country_code": "UY",
    "latitude": "-34.38111002",
    "longitude": "-56.53788080",
    "native": null,
    "timezone": "America/Montevideo",
    "translations": {}
  },
  {
    "id": 163047,
    "name": "Fajardo",
    "state_id": 3204,
    "state_code": "SJ",
    "country_id": 235,
    "country_code": "UY",
    "latitude": "-34.17484469",
    "longitude": "-56.55503794",
    "native": null,
    "timezone": "America/Montevideo",
    "translations": {}
  },
  {
    "id": 163053,
    "name": "Fajina",
    "state_id": 3204,
    "state_code": "SJ",
    "country_id": 235,
    "country_code": "UY",
    "latitude": "-34.19111617",
    "longitude": "-56.80889552",
    "native": null,
    "timezone": "America/Montevideo",
    "translations": {}
  },
  {
    "id": 162511,
    "name": "Gonzalez",
    "state_id": 3204,
    "state_code": "SJ",
    "country_id": 235,
    "country_code": "UY",
    "latitude": "-34.23168520",
    "longitude": "-56.87600409",
    "native": null,
    "timezone": "America/Montevideo",
    "translations": {}
  },
  {
    "id": 163086,
    "name": "Guaycuru",
    "state_id": 3204,
    "state_code": "SJ",
    "country_id": 235,
    "country_code": "UY",
    "latitude": "-34.05934182",
    "longitude": "-57.03602339",
    "native": null,
    "timezone": "America/Montevideo",
    "translations": {}
  },
  {
    "id": 162681,
    "name": "Ituzaingo",
    "state_id": 3204,
    "state_code": "SJ",
    "country_id": 235,
    "country_code": "UY",
    "latitude": "-34.42036807",
    "longitude": "-56.42404785",
    "native": null,
    "timezone": "America/Montevideo",
    "translations": {}
  },
  {
    "id": 163059,
    "name": "Jesus Maria",
    "state_id": 3204,
    "state_code": "SJ",
    "country_id": 235,
    "country_code": "UY",
    "latitude": "-34.25098812",
    "longitude": "-56.79952719",
    "native": null,
    "timezone": "America/Montevideo",
    "translations": {}
  },
  {
    "id": 162377,
    "name": "Juan Soler",
    "state_id": 3204,
    "state_code": "SJ",
    "country_id": 235,
    "country_code": "UY",
    "latitude": "-34.32234484",
    "longitude": "-56.80553091",
    "native": null,
    "timezone": "America/Montevideo",
    "translations": {}
  },
  {
    "id": 163071,
    "name": "Juncal",
    "state_id": 3204,
    "state_code": "SJ",
    "country_id": 235,
    "country_code": "UY",
    "latitude": "-34.41652752",
    "longitude": "-56.80252899",
    "native": null,
    "timezone": "America/Montevideo",
    "translations": {}
  },
  {
    "id": 162190,
    "name": "Kiyu - Ordeig",
    "state_id": 3204,
    "state_code": "SJ",
    "country_id": 235,
    "country_code": "UY",
    "latitude": "-34.69918940",
    "longitude": "-56.73201328",
    "native": null,
    "timezone": "America/Montevideo",
    "translations": {}
  },
  {
    "id": 162220,
    "name": "La Boyada",
    "state_id": 3204,
    "state_code": "SJ",
    "country_id": 235,
    "country_code": "UY",
    "latitude": "-34.40801748",
    "longitude": "-56.98741432",
    "native": null,
    "timezone": "America/Montevideo",
    "translations": {}
  },
  {
    "id": 163054,
    "name": "La Casilla",
    "state_id": 3204,
    "state_code": "SJ",
    "country_id": 235,
    "country_code": "UY",
    "latitude": "-34.27646866",
    "longitude": "-56.84486553",
    "native": null,
    "timezone": "America/Montevideo",
    "translations": {}
  },
  {
    "id": 163067,
    "name": "La Cuchilla",
    "state_id": 3204,
    "state_code": "SJ",
    "country_id": 235,
    "country_code": "UY",
    "latitude": "-34.36401774",
    "longitude": "-56.53292089",
    "native": null,
    "timezone": "America/Montevideo",
    "translations": {}
  },
  {
    "id": 163055,
    "name": "Laurel",
    "state_id": 3204,
    "state_code": "SJ",
    "country_id": 235,
    "country_code": "UY",
    "latitude": "-34.31186756",
    "longitude": "-56.84020868",
    "native": null,
    "timezone": "America/Montevideo",
    "translations": {}
  },
  {
    "id": 129823,
    "name": "Libertad",
    "state_id": 3204,
    "state_code": "SJ",
    "country_id": 235,
    "country_code": "UY",
    "latitude": "-34.63459000",
    "longitude": "-56.61739000",
    "native": null,
    "timezone": "America/Montevideo",
    "translations": {}
  },
  {
    "id": 163087,
    "name": "Mahoma",
    "state_id": 3204,
    "state_code": "SJ",
    "country_id": 235,
    "country_code": "UY",
    "latitude": "-34.06036960",
    "longitude": "-56.88409453",
    "native": null,
    "timezone": "America/Montevideo",
    "translations": {}
  },
  {
    "id": 162504,
    "name": "Mal Abrigo",
    "state_id": 3204,
    "state_code": "SJ",
    "country_id": 235,
    "country_code": "UY",
    "latitude": "-34.14810034",
    "longitude": "-56.95201418",
    "native": null,
    "timezone": "America/Montevideo",
    "translations": {}
  },
  {
    "id": 162482,
    "name": "Mangrullo",
    "state_id": 3204,
    "state_code": "SJ",
    "country_id": 235,
    "country_code": "UY",
    "latitude": "-34.58385060",
    "longitude": "-56.83908468",
    "native": null,
    "timezone": "America/Montevideo",
    "translations": {}
  },
  {
    "id": 162684,
    "name": "Monte Grande",
    "state_id": 3204,
    "state_code": "SJ",
    "country_id": 235,
    "country_code": "UY",
    "latitude": "-34.74089901",
    "longitude": "-56.41304592",
    "native": null,
    "timezone": "America/Montevideo",
    "translations": {}
  },
  {
    "id": 163045,
    "name": "Mundo Azul",
    "state_id": 3204,
    "state_code": "SJ",
    "country_id": 235,
    "country_code": "UY",
    "latitude": "-34.14960400",
    "longitude": "-56.56323125",
    "native": null,
    "timezone": "America/Montevideo",
    "translations": {}
  },
  {
    "id": 163046,
    "name": "Mundo Azul Aguirre",
    "state_id": 3204,
    "state_code": "SJ",
    "country_id": 235,
    "country_code": "UY",
    "latitude": "-34.13063752",
    "longitude": "-56.61824564",
    "native": null,
    "timezone": "America/Montevideo",
    "translations": {}
  },
  {
    "id": 163083,
    "name": "Orillas del Plata",
    "state_id": 3204,
    "state_code": "SJ",
    "country_id": 235,
    "country_code": "UY",
    "latitude": "-34.66296058",
    "longitude": "-56.58416682",
    "native": null,
    "timezone": "America/Montevideo",
    "translations": {}
  },
  {
    "id": 163058,
    "name": "Pachina",
    "state_id": 3204,
    "state_code": "SJ",
    "country_id": 235,
    "country_code": "UY",
    "latitude": "-34.28694185",
    "longitude": "-56.77001899",
    "native": null,
    "timezone": "America/Montevideo",
    "translations": {}
  },
  {
    "id": 163060,
    "name": "Panta",
    "state_id": 3204,
    "state_code": "SJ",
    "country_id": 235,
    "country_code": "UY",
    "latitude": "-34.22811985",
    "longitude": "-56.76726698",
    "native": null,
    "timezone": "America/Montevideo",
    "translations": {}
  },
  {
    "id": 163088,
    "name": "Pantanoso",
    "state_id": 3204,
    "state_code": "SJ",
    "country_id": 235,
    "country_code": "UY",
    "latitude": "-34.21971107",
    "longitude": "-57.04860645",
    "native": null,
    "timezone": "America/Montevideo",
    "translations": {}
  },
  {
    "id": 162709,
    "name": "Parque Postel",
    "state_id": 3204,
    "state_code": "SJ",
    "country_id": 235,
    "country_code": "UY",
    "latitude": "-34.75958313",
    "longitude": "-56.39299022",
    "native": null,
    "timezone": "America/Montevideo",
    "translations": {}
  },
  {
    "id": 162366,
    "name": "Parque Postel Cnel. Adrian Medina",
    "state_id": 3204,
    "state_code": "SJ",
    "country_id": 235,
    "country_code": "UY",
    "latitude": "-34.75828010",
    "longitude": "-56.39740250",
    "native": null,
    "timezone": "America/Montevideo",
    "translations": {}
  },
  {
    "id": 163041,
    "name": "Paso Belastiqui",
    "state_id": 3204,
    "state_code": "SJ",
    "country_id": 235,
    "country_code": "UY",
    "latitude": "-34.53661350",
    "longitude": "-56.44938116",
    "native": null,
    "timezone": "America/Montevideo",
    "translations": {}
  },
  {
    "id": 163062,
    "name": "Paso de Cames",
    "state_id": 3204,
    "state_code": "SJ",
    "country_id": 235,
    "country_code": "UY",
    "latitude": "-34.20696450",
    "longitude": "-56.53718148",
    "native": null,
    "timezone": "America/Montevideo",
    "translations": {}
  },
  {
    "id": 163097,
    "name": "Paso de las Piedras",
    "state_id": 3204,
    "state_code": "SJ",
    "country_id": 235,
    "country_code": "UY",
    "latitude": "-34.43996232",
    "longitude": "-56.96305423",
    "native": null,
    "timezone": "America/Montevideo",
    "translations": {}
  },
  {
    "id": 163035,
    "name": "Paso de Mas",
    "state_id": 3204,
    "state_code": "SJ",
    "country_id": 235,
    "country_code": "UY",
    "latitude": "-34.04840781",
    "longitude": "-56.45693183",
    "native": null,
    "timezone": "America/Montevideo",
    "translations": {}
  },
  {
    "id": 163056,
    "name": "Paso del Carreton",
    "state_id": 3204,
    "state_code": "SJ",
    "country_id": 235,
    "country_code": "UY",
    "latitude": "-34.36447694",
    "longitude": "-56.82519044",
    "native": null,
    "timezone": "America/Montevideo",
    "translations": {}
  },
  {
    "id": 163085,
    "name": "Paso del Guaycuru",
    "state_id": 3204,
    "state_code": "SJ",
    "country_id": 235,
    "country_code": "UY",
    "latitude": "-33.98573186",
    "longitude": "-56.98255789",
    "native": null,
    "timezone": "America/Montevideo",
    "translations": {}
  },
  {
    "id": 163049,
    "name": "Paso del Rey",
    "state_id": 3204,
    "state_code": "SJ",
    "country_id": 235,
    "country_code": "UY",
    "latitude": "-34.16283176",
    "longitude": "-56.75953187",
    "native": null,
    "timezone": "America/Montevideo",
    "translations": {}
  },
  {
    "id": 163092,
    "name": "Pavon",
    "state_id": 3204,
    "state_code": "SJ",
    "country_id": 235,
    "country_code": "UY",
    "latitude": "-34.31228111",
    "longitude": "-56.90730772",
    "native": null,
    "timezone": "America/Montevideo",
    "translations": {}
  },
  {
    "id": 162380,
    "name": "Penino",
    "state_id": 3204,
    "state_code": "SJ",
    "country_id": 235,
    "country_code": "UY",
    "latitude": "-34.75477725",
    "longitude": "-56.42456207",
    "native": null,
    "timezone": "America/Montevideo",
    "translations": {}
  },
  {
    "id": 163066,
    "name": "Perico Perez",
    "state_id": 3204,
    "state_code": "SJ",
    "country_id": 235,
    "country_code": "UY",
    "latitude": "-34.28288472",
    "longitude": "-56.61883979",
    "native": null,
    "timezone": "America/Montevideo",
    "translations": {}
  },
  {
    "id": 163093,
    "name": "Picada Gambetta",
    "state_id": 3204,
    "state_code": "SJ",
    "country_id": 235,
    "country_code": "UY",
    "latitude": "-34.39642360",
    "longitude": "-57.07542814",
    "native": null,
    "timezone": "America/Montevideo",
    "translations": {}
  },
  {
    "id": 162201,
    "name": "Playa Pascual",
    "state_id": 3204,
    "state_code": "SJ",
    "country_id": 235,
    "country_code": "UY",
    "latitude": "-34.74226798",
    "longitude": "-56.45396097",
    "native": null,
    "timezone": "America/Montevideo",
    "translations": {}
  },
  {
    "id": 163956,
    "name": "Pueblo Nuevo",
    "state_id": 3204,
    "state_code": "SJ",
    "country_id": 235,
    "country_code": "UY",
    "latitude": "-34.44316077",
    "longitude": "-56.44247050",
    "native": null,
    "timezone": "America/Montevideo",
    "translations": {}
  },
  {
    "id": 163038,
    "name": "Puntas de Cagancha",
    "state_id": 3204,
    "state_code": "SJ",
    "country_id": 235,
    "country_code": "UY",
    "latitude": "-34.30113237",
    "longitude": "-56.51410456",
    "native": null,
    "timezone": "America/Montevideo",
    "translations": {}
  },
  {
    "id": 163877,
    "name": "Puntas de Cañada Grande",
    "state_id": 3204,
    "state_code": "SJ",
    "country_id": 235,
    "country_code": "UY",
    "latitude": "-34.40776278",
    "longitude": "-56.73854099",
    "native": null,
    "timezone": "America/Montevideo",
    "translations": {}
  },
  {
    "id": 163044,
    "name": "Puntas de Chamizo",
    "state_id": 3204,
    "state_code": "SJ",
    "country_id": 235,
    "country_code": "UY",
    "latitude": "-33.88259225",
    "longitude": "-56.60704935",
    "native": null,
    "timezone": "America/Montevideo",
    "translations": {}
  },
  {
    "id": 163076,
    "name": "Puntas de Gregorio",
    "state_id": 3204,
    "state_code": "SJ",
    "country_id": 235,
    "country_code": "UY",
    "latitude": "-34.46948750",
    "longitude": "-56.75243874",
    "native": null,
    "timezone": "America/Montevideo",
    "translations": {}
  },
  {
    "id": 163070,
    "name": "Puntas de Laurel",
    "state_id": 3204,
    "state_code": "SJ",
    "country_id": 235,
    "country_code": "UY",
    "latitude": "-34.39197176",
    "longitude": "-56.87376194",
    "native": null,
    "timezone": "America/Montevideo",
    "translations": {}
  },
  {
    "id": 163084,
    "name": "Puntas de Tropa Vieja",
    "state_id": 3204,
    "state_code": "SJ",
    "country_id": 235,
    "country_code": "UY",
    "latitude": "-34.67868613",
    "longitude": "-56.55425776",
    "native": null,
    "timezone": "America/Montevideo",
    "translations": {}
  },
  {
    "id": 129849,
    "name": "Puntas de Valdéz",
    "state_id": 3204,
    "state_code": "SJ",
    "country_id": 235,
    "country_code": "UY",
    "latitude": "-34.58550000",
    "longitude": "-56.70097000",
    "native": null,
    "timezone": "America/Montevideo",
    "translations": {}
  },
  {
    "id": 162656,
    "name": "Radial Ruta 3",
    "state_id": 3204,
    "state_code": "SJ",
    "country_id": 235,
    "country_code": "UY",
    "latitude": "-34.55008055",
    "longitude": "-56.75868015",
    "native": null,
    "timezone": "America/Montevideo",
    "translations": {}
  },
  {
    "id": 129851,
    "name": "Rafael Perazza",
    "state_id": 3204,
    "state_code": "SJ",
    "country_id": 235,
    "country_code": "UY",
    "latitude": "-34.52335000",
    "longitude": "-56.79710000",
    "native": null,
    "timezone": "America/Montevideo",
    "translations": {}
  },
  {
    "id": 162261,
    "name": "Raigon",
    "state_id": 3204,
    "state_code": "SJ",
    "country_id": 235,
    "country_code": "UY",
    "latitude": "-34.34054984",
    "longitude": "-56.66705967",
    "native": null,
    "timezone": "America/Montevideo",
    "translations": {}
  },
  {
    "id": 163040,
    "name": "Rincon de Albano",
    "state_id": 3204,
    "state_code": "SJ",
    "country_id": 235,
    "country_code": "UY",
    "latitude": "-34.47655586",
    "longitude": "-56.49835074",
    "native": null,
    "timezone": "America/Montevideo",
    "translations": {}
  },
  {
    "id": 163095,
    "name": "Rincon de Arazati",
    "state_id": 3204,
    "state_code": "SJ",
    "country_id": 235,
    "country_code": "UY",
    "latitude": "-34.47986311",
    "longitude": "-57.05049324",
    "native": null,
    "timezone": "America/Montevideo",
    "translations": {}
  },
  {
    "id": 163063,
    "name": "Rincon de Arias",
    "state_id": 3204,
    "state_code": "SJ",
    "country_id": 235,
    "country_code": "UY",
    "latitude": "-34.24956727",
    "longitude": "-56.58077323",
    "native": null,
    "timezone": "America/Montevideo",
    "translations": {}
  },
  {
    "id": 163082,
    "name": "Rincon de Buschental",
    "state_id": 3204,
    "state_code": "SJ",
    "country_id": 235,
    "country_code": "UY",
    "latitude": "-34.58923605",
    "longitude": "-56.52661427",
    "native": null,
    "timezone": "America/Montevideo",
    "translations": {}
  },
  {
    "id": 163094,
    "name": "Rincon de Cufre",
    "state_id": 3204,
    "state_code": "SJ",
    "country_id": 235,
    "country_code": "UY",
    "latitude": "-34.44733541",
    "longitude": "-57.07009760",
    "native": null,
    "timezone": "America/Montevideo",
    "translations": {}
  },
  {
    "id": 163807,
    "name": "Rincon de la Bolsa",
    "state_id": 3204,
    "state_code": "SJ",
    "country_id": 235,
    "country_code": "UY",
    "latitude": "-34.75426473",
    "longitude": "-56.41310722",
    "native": null,
    "timezone": "America/Montevideo",
    "translations": {}
  },
  {
    "id": 163073,
    "name": "Rincon de la Torre",
    "state_id": 3204,
    "state_code": "SJ",
    "country_id": 235,
    "country_code": "UY",
    "latitude": "-34.45958940",
    "longitude": "-56.61416304",
    "native": null,
    "timezone": "America/Montevideo",
    "translations": {}
  },
  {
    "id": 162304,
    "name": "Rincon de Nazareth",
    "state_id": 3204,
    "state_code": "SJ",
    "country_id": 235,
    "country_code": "UY",
    "latitude": "-34.31034855",
    "longitude": "-56.70537302",
    "native": null,
    "timezone": "America/Montevideo",
    "translations": {}
  },
  {
    "id": 162266,
    "name": "Rincon del Pino",
    "state_id": 3204,
    "state_code": "SJ",
    "country_id": 235,
    "country_code": "UY",
    "latitude": "-34.50286711",
    "longitude": "-56.83526513",
    "native": null,
    "timezone": "America/Montevideo",
    "translations": {}
  },
  {
    "id": 163069,
    "name": "Rocho",
    "state_id": 3204,
    "state_code": "SJ",
    "country_id": 235,
    "country_code": "UY",
    "latitude": "-34.33521843",
    "longitude": "-56.73413889",
    "native": null,
    "timezone": "America/Montevideo",
    "translations": {}
  },
  {
    "id": 129854,
    "name": "Rodríguez",
    "state_id": 3204,
    "state_code": "SJ",
    "country_id": 235,
    "country_code": "UY",
    "latitude": "-34.38100000",
    "longitude": "-56.53797000",
    "native": null,
    "timezone": "America/Montevideo",
    "translations": {}
  },
  {
    "id": 162422,
    "name": "Safici",
    "state_id": 3204,
    "state_code": "SJ",
    "country_id": 235,
    "country_code": "UY",
    "latitude": "-34.74697140",
    "longitude": "-56.41684767",
    "native": null,
    "timezone": "America/Montevideo",
    "translations": {}
  },
  {
    "id": 162677,
    "name": "San Fernando",
    "state_id": 3204,
    "state_code": "SJ",
    "country_id": 235,
    "country_code": "UY",
    "latitude": "-34.76637192",
    "longitude": "-56.38538211",
    "native": null,
    "timezone": "America/Montevideo",
    "translations": {}
  },
  {
    "id": 162445,
    "name": "San Fernando Chico",
    "state_id": 3204,
    "state_code": "SJ",
    "country_id": 235,
    "country_code": "UY",
    "latitude": "-34.77392576",
    "longitude": "-56.36293898",
    "native": null,
    "timezone": "America/Montevideo",
    "translations": {}
  },
  {
    "id": 162699,
    "name": "San Gregorio",
    "state_id": 3204,
    "state_code": "SJ",
    "country_id": 235,
    "country_code": "UY",
    "latitude": "-33.93829031",
    "longitude": "-56.75250197",
    "native": null,
    "timezone": "America/Montevideo",
    "translations": {}
  },
  {
    "id": 129864,
    "name": "San José de Mayo",
    "state_id": 3204,
    "state_code": "SJ",
    "country_id": 235,
    "country_code": "UY",
    "latitude": "-34.33750000",
    "longitude": "-56.71361000",
    "native": null,
    "timezone": "America/Montevideo",
    "translations": {}
  },
  {
    "id": 162195,
    "name": "Santa Monica",
    "state_id": 3204,
    "state_code": "SJ",
    "country_id": 235,
    "country_code": "UY",
    "latitude": "-34.73611459",
    "longitude": "-56.43347909",
    "native": null,
    "timezone": "America/Montevideo",
    "translations": {}
  },
  {
    "id": 163078,
    "name": "Sauce",
    "state_id": 3204,
    "state_code": "SJ",
    "country_id": 235,
    "country_code": "UY",
    "latitude": "-34.50633447",
    "longitude": "-56.69708933",
    "native": null,
    "timezone": "America/Montevideo",
    "translations": {}
  },
  {
    "id": 163079,
    "name": "Sauce Chico",
    "state_id": 3204,
    "state_code": "SJ",
    "country_id": 235,
    "country_code": "UY",
    "latitude": "-34.54612102",
    "longitude": "-56.69357205",
    "native": null,
    "timezone": "America/Montevideo",
    "translations": {}
  },
  {
    "id": 162685,
    "name": "Scavino",
    "state_id": 3204,
    "state_code": "SJ",
    "country_id": 235,
    "country_code": "UY",
    "latitude": "-34.36947704",
    "longitude": "-57.04790425",
    "native": null,
    "timezone": "America/Montevideo",
    "translations": {}
  },
  {
    "id": 163052,
    "name": "Tabarez",
    "state_id": 3204,
    "state_code": "SJ",
    "country_id": 235,
    "country_code": "UY",
    "latitude": "-34.09743832",
    "longitude": "-56.56111612",
    "native": null,
    "timezone": "America/Montevideo",
    "translations": {}
  },
  {
    "id": 163075,
    "name": "Tala de Pereira",
    "state_id": 3204,
    "state_code": "SJ",
    "country_id": 235,
    "country_code": "UY",
    "latitude": "-34.45007521",
    "longitude": "-56.78269011",
    "native": null,
    "timezone": "America/Montevideo",
    "translations": {}
  },
  {
    "id": 163065,
    "name": "Tranquera Colorada",
    "state_id": 3204,
    "state_code": "SJ",
    "country_id": 235,
    "country_code": "UY",
    "latitude": "-34.31040921",
    "longitude": "-56.59247912",
    "native": null,
    "timezone": "America/Montevideo",
    "translations": {}
  },
  {
    "id": 163043,
    "name": "Tropas Viejas",
    "state_id": 3204,
    "state_code": "SJ",
    "country_id": 235,
    "country_code": "UY",
    "latitude": "-34.73257011",
    "longitude": "-56.45052999",
    "native": null,
    "timezone": "America/Montevideo",
    "translations": {}
  },
  {
    "id": 162305,
    "name": "Tropezon",
    "state_id": 3204,
    "state_code": "SJ",
    "country_id": 235,
    "country_code": "UY",
    "latitude": "-34.39603401",
    "longitude": "-56.54858613",
    "native": null,
    "timezone": "America/Montevideo",
    "translations": {}
  },
  {
    "id": 163077,
    "name": "Valdez Chico",
    "state_id": 3204,
    "state_code": "SJ",
    "country_id": 235,
    "country_code": "UY",
    "latitude": "-34.53212660",
    "longitude": "-56.61832065",
    "native": null,
    "timezone": "America/Montevideo",
    "translations": {}
  },
  {
    "id": 162683,
    "name": "Villa Maria",
    "state_id": 3204,
    "state_code": "SJ",
    "country_id": 235,
    "country_code": "UY",
    "latitude": "-34.51554485",
    "longitude": "-56.76192446",
    "native": null,
    "timezone": "America/Montevideo",
    "translations": {}
  },
  {
    "id": 163801,
    "name": "Villa Olimpica",
    "state_id": 3204,
    "state_code": "SJ",
    "country_id": 235,
    "country_code": "UY",
    "latitude": "-34.74193222",
    "longitude": "-56.46589777",
    "native": null,
    "timezone": "America/Montevideo",
    "translations": {}
  },
  {
    "id": 162439,
    "name": "Villa Rives",
    "state_id": 3204,
    "state_code": "SJ",
    "country_id": 235,
    "country_code": "UY",
    "latitude": "-34.77343829",
    "longitude": "-56.37298060",
    "native": null,
    "timezone": "America/Montevideo",
    "translations": {}
  },
  {
    "id": 163068,
    "name": "Zanja Honda",
    "state_id": 3204,
    "state_code": "SJ",
    "country_id": 235,
    "country_code": "UY",
    "latitude": "-34.36147693",
    "longitude": "-56.61282122",
    "native": null,
    "timezone": "America/Montevideo",
    "translations": {}
  }
]