[
  {
    "id": 135250,
    "name": "Acciano",
    "state_id": 1781,
    "state_code": "AQ",
    "country_id": 107,
    "country_code": "IT",
    "latitude": "42.17677000",
    "longitude": "13.71783000",
    "native": null,
    "timezone": "Europe/Rome",
    "translations": {}
  },
  {
    "id": 135325,
    "name": "Aielli",
    "state_id": 1781,
    "state_code": "AQ",
    "country_id": 107,
    "country_code": "IT",
    "latitude": "42.08146000",
    "longitude": "13.59113000",
    "native": null,
    "timezone": "Europe/Rome",
    "translations": {}
  },
  {
    "id": 135400,
    "name": "Alfedena",
    "state_id": 1781,
    "state_code": "AQ",
    "country_id": 107,
    "country_code": "IT",
    "latitude": "41.73545000",
    "longitude": "14.03500000",
    "native": null,
    "timezone": "Europe/Rome",
    "translations": {}
  },
  {
    "id": 135523,
    "name": "Anversa degli Abruzzi",
    "state_id": 1781,
    "state_code": "AQ",
    "country_id": 107,
    "country_code": "IT",
    "latitude": "41.99478000",
    "longitude": "13.80379000",
    "native": null,
    "timezone": "Europe/Rome",
    "translations": {}
  },
  {
    "id": 135672,
    "name": "Ateleta",
    "state_id": 1781,
    "state_code": "AQ",
    "country_id": 107,
    "country_code": "IT",
    "latitude": "41.85435000",
    "longitude": "14.19806000",
    "native": null,
    "timezone": "Europe/Rome",
    "translations": {}
  },
  {
    "id": 135704,
    "name": "Avezzano",
    "state_id": 1781,
    "state_code": "AQ",
    "country_id": 107,
    "country_code": "IT",
    "latitude": "42.02896000",
    "longitude": "13.42641000",
    "native": null,
    "timezone": "Europe/Rome",
    "translations": {}
  },
  {
    "id": 135795,
    "name": "Balsorano",
    "state_id": 1781,
    "state_code": "AQ",
    "country_id": 107,
    "country_code": "IT",
    "latitude": "41.80982000",
    "longitude": "13.55980000",
    "native": null,
    "timezone": "Europe/Rome",
    "translations": {}
  },
  {
    "id": 135796,
    "name": "Balsorano Nuovo",
    "state_id": 1781,
    "state_code": "AQ",
    "country_id": 107,
    "country_code": "IT",
    "latitude": "41.80881000",
    "longitude": "13.56069000",
    "native": null,
    "timezone": "Europe/Rome",
    "translations": {}
  },
  {
    "id": 135847,
    "name": "Barete",
    "state_id": 1781,
    "state_code": "AQ",
    "country_id": 107,
    "country_code": "IT",
    "latitude": "42.45009000",
    "longitude": "13.28061000",
    "native": null,
    "timezone": "Europe/Rome",
    "translations": {}
  },
  {
    "id": 135858,
    "name": "Barisciano",
    "state_id": 1781,
    "state_code": "AQ",
    "country_id": 107,
    "country_code": "IT",
    "latitude": "42.32465000",
    "longitude": "13.59036000",
    "native": null,
    "timezone": "Europe/Rome",
    "translations": {}
  },
  {
    "id": 135870,
    "name": "Barrea",
    "state_id": 1781,
    "state_code": "AQ",
    "country_id": 107,
    "country_code": "IT",
    "latitude": "41.75543000",
    "longitude": "13.99095000",
    "native": null,
    "timezone": "Europe/Rome",
    "translations": {}
  },
  {
    "id": 136062,
    "name": "Bisegna",
    "state_id": 1781,
    "state_code": "AQ",
    "country_id": 107,
    "country_code": "IT",
    "latitude": "41.92113000",
    "longitude": "13.75760000",
    "native": null,
    "timezone": "Europe/Rome",
    "translations": {}
  },
  {
    "id": 136397,
    "name": "Bugnara",
    "state_id": 1781,
    "state_code": "AQ",
    "country_id": 107,
    "country_code": "IT",
    "latitude": "42.02383000",
    "longitude": "13.86141000",
    "native": null,
    "timezone": "Europe/Rome",
    "translations": {}
  },
  {
    "id": 136470,
    "name": "Cagnano Amiterno",
    "state_id": 1781,
    "state_code": "AQ",
    "country_id": 107,
    "country_code": "IT",
    "latitude": "42.45744000",
    "longitude": "13.22789000",
    "native": null,
    "timezone": "Europe/Rome",
    "translations": {}
  },
  {
    "id": 136494,
    "name": "Calascio",
    "state_id": 1781,
    "state_code": "AQ",
    "country_id": 107,
    "country_code": "IT",
    "latitude": "42.32595000",
    "longitude": "13.69699000",
    "native": null,
    "timezone": "Europe/Rome",
    "translations": {}
  },
  {
    "id": 136635,
    "name": "Campo di Giove",
    "state_id": 1781,
    "state_code": "AQ",
    "country_id": 107,
    "country_code": "IT",
    "latitude": "42.01013000",
    "longitude": "14.03941000",
    "native": null,
    "timezone": "Europe/Rome",
    "translations": {}
  },
  {
    "id": 136683,
    "name": "Campotosto",
    "state_id": 1781,
    "state_code": "AQ",
    "country_id": 107,
    "country_code": "IT",
    "latitude": "42.55884000",
    "longitude": "13.36799000",
    "native": null,
    "timezone": "Europe/Rome",
    "translations": {}
  },
  {
    "id": 136716,
    "name": "Canistro Inferiore",
    "state_id": 1781,
    "state_code": "AQ",
    "country_id": 107,
    "country_code": "IT",
    "latitude": "41.94101000",
    "longitude": "13.41194000",
    "native": null,
    "timezone": "Europe/Rome",
    "translations": {}
  },
  {
    "id": 136736,
    "name": "Cansano",
    "state_id": 1781,
    "state_code": "AQ",
    "country_id": 107,
    "country_code": "IT",
    "latitude": "42.00350000",
    "longitude": "14.01341000",
    "native": null,
    "timezone": "Europe/Rome",
    "translations": {}
  },
  {
    "id": 136765,
    "name": "Capestrano",
    "state_id": 1781,
    "state_code": "AQ",
    "country_id": 107,
    "country_code": "IT",
    "latitude": "42.26807000",
    "longitude": "13.76779000",
    "native": null,
    "timezone": "Europe/Rome",
    "translations": {}
  },
  {
    "id": 136771,
    "name": "Capistrello",
    "state_id": 1781,
    "state_code": "AQ",
    "country_id": 107,
    "country_code": "IT",
    "latitude": "41.97223000",
    "longitude": "13.39616000",
    "native": null,
    "timezone": "Europe/Rome",
    "translations": {}
  },
  {
    "id": 136774,
    "name": "Capitignano",
    "state_id": 1781,
    "state_code": "AQ",
    "country_id": 107,
    "country_code": "IT",
    "latitude": "42.52041000",
    "longitude": "13.30122000",
    "native": null,
    "timezone": "Europe/Rome",
    "translations": {}
  },
  {
    "id": 136786,
    "name": "Caporciano",
    "state_id": 1781,
    "state_code": "AQ",
    "country_id": 107,
    "country_code": "IT",
    "latitude": "42.25001000",
    "longitude": "13.67455000",
    "native": null,
    "timezone": "Europe/Rome",
    "translations": {}
  },
  {
    "id": 136790,
    "name": "Cappadocia",
    "state_id": 1781,
    "state_code": "AQ",
    "country_id": 107,
    "country_code": "IT",
    "latitude": "42.00755000",
    "longitude": "13.27806000",
    "native": null,
    "timezone": "Europe/Rome",
    "translations": {}
  },
  {
    "id": 136835,
    "name": "Carapelle Calvisio",
    "state_id": 1781,
    "state_code": "AQ",
    "country_id": 107,
    "country_code": "IT",
    "latitude": "42.29908000",
    "longitude": "13.68643000",
    "native": null,
    "timezone": "Europe/Rome",
    "translations": {}
  },
  {
    "id": 136936,
    "name": "Carsoli",
    "state_id": 1781,
    "state_code": "AQ",
    "country_id": 107,
    "country_code": "IT",
    "latitude": "42.09882000",
    "longitude": "13.08856000",
    "native": null,
    "timezone": "Europe/Rome",
    "translations": {}
  },
  {
    "id": 137165,
    "name": "Castel del Monte",
    "state_id": 1781,
    "state_code": "AQ",
    "country_id": 107,
    "country_code": "IT",
    "latitude": "42.36544000",
    "longitude": "13.72592000",
    "native": null,
    "timezone": "Europe/Rome",
    "translations": {}
  },
  {
    "id": 137169,
    "name": "Castel di Ieri",
    "state_id": 1781,
    "state_code": "AQ",
    "country_id": 107,
    "country_code": "IT",
    "latitude": "42.11353000",
    "longitude": "13.74200000",
    "native": null,
    "timezone": "Europe/Rome",
    "translations": {}
  },
  {
    "id": 137173,
    "name": "Castel di Sangro",
    "state_id": 1781,
    "state_code": "AQ",
    "country_id": 107,
    "country_code": "IT",
    "latitude": "41.78392000",
    "longitude": "14.10653000",
    "native": null,
    "timezone": "Europe/Rome",
    "translations": {}
  },
  {
    "id": 137210,
    "name": "Castellafiume",
    "state_id": 1781,
    "state_code": "AQ",
    "country_id": 107,
    "country_code": "IT",
    "latitude": "41.98913000",
    "longitude": "13.33440000",
    "native": null,
    "timezone": "Europe/Rome",
    "translations": {}
  },
  {
    "id": 137321,
    "name": "Castelvecchio Calvisio",
    "state_id": 1781,
    "state_code": "AQ",
    "country_id": 107,
    "country_code": "IT",
    "latitude": "42.31134000",
    "longitude": "13.68720000",
    "native": null,
    "timezone": "Europe/Rome",
    "translations": {}
  },
  {
    "id": 137322,
    "name": "Castelvecchio Subequo",
    "state_id": 1781,
    "state_code": "AQ",
    "country_id": 107,
    "country_code": "IT",
    "latitude": "42.12881000",
    "longitude": "13.72868000",
    "native": null,
    "timezone": "Europe/Rome",
    "translations": {}
  },
  {
    "id": 137462,
    "name": "Celano",
    "state_id": 1781,
    "state_code": "AQ",
    "country_id": 107,
    "country_code": "IT",
    "latitude": "42.08077000",
    "longitude": "13.51700000",
    "native": null,
    "timezone": "Europe/Rome",
    "translations": {}
  },
  {
    "id": 137525,
    "name": "Cerchio",
    "state_id": 1781,
    "state_code": "AQ",
    "country_id": 107,
    "country_code": "IT",
    "latitude": "42.06357000",
    "longitude": "13.60006000",
    "native": null,
    "timezone": "Europe/Rome",
    "translations": {}
  },
  {
    "id": 137787,
    "name": "Civita d'Antino",
    "state_id": 1781,
    "state_code": "AQ",
    "country_id": 107,
    "country_code": "IT",
    "latitude": "41.88629000",
    "longitude": "13.47215000",
    "native": null,
    "timezone": "Europe/Rome",
    "translations": {}
  },
  {
    "id": 137795,
    "name": "Civitella Alfedena",
    "state_id": 1781,
    "state_code": "AQ",
    "country_id": 107,
    "country_code": "IT",
    "latitude": "41.76533000",
    "longitude": "13.94271000",
    "native": null,
    "timezone": "Europe/Rome",
    "translations": {}
  },
  {
    "id": 137799,
    "name": "Civitella Roveto",
    "state_id": 1781,
    "state_code": "AQ",
    "country_id": 107,
    "country_code": "IT",
    "latitude": "41.91329000",
    "longitude": "13.42396000",
    "native": null,
    "timezone": "Europe/Rome",
    "translations": {}
  },
  {
    "id": 137826,
    "name": "Cocullo",
    "state_id": 1781,
    "state_code": "AQ",
    "country_id": 107,
    "country_code": "IT",
    "latitude": "42.03283000",
    "longitude": "13.77500000",
    "native": null,
    "timezone": "Europe/Rome",
    "translations": {}
  },
  {
    "id": 137857,
    "name": "Collarmele",
    "state_id": 1781,
    "state_code": "AQ",
    "country_id": 107,
    "country_code": "IT",
    "latitude": "42.06031000",
    "longitude": "13.62670000",
    "native": null,
    "timezone": "Europe/Rome",
    "translations": {}
  },
  {
    "id": 137884,
    "name": "Collelongo",
    "state_id": 1781,
    "state_code": "AQ",
    "country_id": 107,
    "country_code": "IT",
    "latitude": "41.88659000",
    "longitude": "13.58380000",
    "native": null,
    "timezone": "Europe/Rome",
    "translations": {}
  },
  {
    "id": 137889,
    "name": "Collepietro",
    "state_id": 1781,
    "state_code": "AQ",
    "country_id": 107,
    "country_code": "IT",
    "latitude": "42.22089000",
    "longitude": "13.78101000",
    "native": null,
    "timezone": "Europe/Rome",
    "translations": {}
  },
  {
    "id": 137941,
    "name": "Cominio",
    "state_id": 1781,
    "state_code": "AQ",
    "country_id": 107,
    "country_code": "IT",
    "latitude": "42.31248000",
    "longitude": "13.43250000",
    "native": null,
    "timezone": "Europe/Rome",
    "translations": {}
  },
  {
    "id": 137989,
    "name": "Coppito",
    "state_id": 1781,
    "state_code": "AQ",
    "country_id": 107,
    "country_code": "IT",
    "latitude": "42.36730000",
    "longitude": "13.34358000",
    "native": null,
    "timezone": "Europe/Rome",
    "translations": {}
  },
  {
    "id": 138008,
    "name": "Corfinio",
    "state_id": 1781,
    "state_code": "AQ",
    "country_id": 107,
    "country_code": "IT",
    "latitude": "42.12149000",
    "longitude": "13.83940000",
    "native": null,
    "timezone": "Europe/Rome",
    "translations": {}
  },
  {
    "id": 138609,
    "name": "Fontecchio",
    "state_id": 1781,
    "state_code": "AQ",
    "country_id": 107,
    "country_code": "IT",
    "latitude": "42.23027000",
    "longitude": "13.60613000",
    "native": null,
    "timezone": "Europe/Rome",
    "translations": {}
  },
  {
    "id": 138667,
    "name": "Fossa",
    "state_id": 1781,
    "state_code": "AQ",
    "country_id": 107,
    "country_code": "IT",
    "latitude": "42.29273000",
    "longitude": "13.48779000",
    "native": null,
    "timezone": "Europe/Rome",
    "translations": {}
  },
  {
    "id": 138781,
    "name": "Gagliano Aterno",
    "state_id": 1781,
    "state_code": "AQ",
    "country_id": 107,
    "country_code": "IT",
    "latitude": "42.12598000",
    "longitude": "13.70023000",
    "native": null,
    "timezone": "Europe/Rome",
    "translations": {}
  },
  {
    "id": 138970,
    "name": "Gioia dei Marsi",
    "state_id": 1781,
    "state_code": "AQ",
    "country_id": 107,
    "country_code": "IT",
    "latitude": "41.95697000",
    "longitude": "13.69057000",
    "native": null,
    "timezone": "Europe/Rome",
    "translations": {}
  },
  {
    "id": 139031,
    "name": "Goriano Sicoli",
    "state_id": 1781,
    "state_code": "AQ",
    "country_id": 107,
    "country_code": "IT",
    "latitude": "42.08011000",
    "longitude": "13.77459000",
    "native": null,
    "timezone": "Europe/Rome",
    "translations": {}
  },
  {
    "id": 139212,
    "name": "Introdacqua",
    "state_id": 1781,
    "state_code": "AQ",
    "country_id": 107,
    "country_code": "IT",
    "latitude": "42.00968000",
    "longitude": "13.89779000",
    "native": null,
    "timezone": "Europe/Rome",
    "translations": {}
  },
  {
    "id": 139285,
    "name": "L'Aquila",
    "state_id": 1781,
    "state_code": "AQ",
    "country_id": 107,
    "country_code": "IT",
    "latitude": "42.35055000",
    "longitude": "13.39954000",
    "native": null,
    "timezone": "Europe/Rome",
    "translations": {}
  },
  {
    "id": 139431,
    "name": "Lecce Nei Marsi",
    "state_id": 1781,
    "state_code": "AQ",
    "country_id": 107,
    "country_code": "IT",
    "latitude": "41.93436000",
    "longitude": "13.68430000",
    "native": null,
    "timezone": "Europe/Rome",
    "translations": {}
  },
  {
    "id": 139638,
    "name": "Luco dei Marsi",
    "state_id": 1781,
    "state_code": "AQ",
    "country_id": 107,
    "country_code": "IT",
    "latitude": "41.95925000",
    "longitude": "13.47349000",
    "native": null,
    "timezone": "Europe/Rome",
    "translations": {}
  },
  {
    "id": 139639,
    "name": "Lucoli",
    "state_id": 1781,
    "state_code": "AQ",
    "country_id": 107,
    "country_code": "IT",
    "latitude": "42.29093000",
    "longitude": "13.33799000",
    "native": null,
    "timezone": "Europe/Rome",
    "translations": {}
  },
  {
    "id": 139725,
    "name": "Magliano De'Marsi",
    "state_id": 1781,
    "state_code": "AQ",
    "country_id": 107,
    "country_code": "IT",
    "latitude": "42.09153000",
    "longitude": "13.36379000",
    "native": null,
    "timezone": "Europe/Rome",
    "translations": {}
  },
  {
    "id": 139975,
    "name": "Massa d'Albe-Corona",
    "state_id": 1781,
    "state_code": "AQ",
    "country_id": 107,
    "country_code": "IT",
    "latitude": "42.10723000",
    "longitude": "13.39429000",
    "native": null,
    "timezone": "Europe/Rome",
    "translations": {}
  },
  {
    "id": 140214,
    "name": "Molina Aterno",
    "state_id": 1781,
    "state_code": "AQ",
    "country_id": 107,
    "country_code": "IT",
    "latitude": "42.14903000",
    "longitude": "13.73540000",
    "native": null,
    "timezone": "Europe/Rome",
    "translations": {}
  },
  {
    "id": 140514,
    "name": "Montereale",
    "state_id": 1781,
    "state_code": "AQ",
    "country_id": 107,
    "country_code": "IT",
    "latitude": "42.52332000",
    "longitude": "13.24585000",
    "native": null,
    "timezone": "Europe/Rome",
    "translations": {}
  },
  {
    "id": 140557,
    "name": "Monticchio",
    "state_id": 1781,
    "state_code": "AQ",
    "country_id": 107,
    "country_code": "IT",
    "latitude": "42.32035000",
    "longitude": "13.46382000",
    "native": null,
    "timezone": "Europe/Rome",
    "translations": {}
  },
  {
    "id": 140620,
    "name": "Morino",
    "state_id": 1781,
    "state_code": "AQ",
    "country_id": 107,
    "country_code": "IT",
    "latitude": "41.86442000",
    "longitude": "13.45700000",
    "native": null,
    "timezone": "Europe/Rome",
    "translations": {}
  },
  {
    "id": 140731,
    "name": "Navelli",
    "state_id": 1781,
    "state_code": "AQ",
    "country_id": 107,
    "country_code": "IT",
    "latitude": "42.23721000",
    "longitude": "13.72961000",
    "native": null,
    "timezone": "Europe/Rome",
    "translations": {}
  },
  {
    "id": 140842,
    "name": "Nucleo Industriale di Bazzano",
    "state_id": 1781,
    "state_code": "AQ",
    "country_id": 107,
    "country_code": "IT",
    "latitude": "42.33623000",
    "longitude": "13.46755000",
    "native": null,
    "timezone": "Europe/Rome",
    "translations": {}
  },
  {
    "id": 140874,
    "name": "Ofena",
    "state_id": 1781,
    "state_code": "AQ",
    "country_id": 107,
    "country_code": "IT",
    "latitude": "42.32536000",
    "longitude": "13.75864000",
    "native": null,
    "timezone": "Europe/Rome",
    "translations": {}
  },
  {
    "id": 140932,
    "name": "Opi",
    "state_id": 1781,
    "state_code": "AQ",
    "country_id": 107,
    "country_code": "IT",
    "latitude": "41.77838000",
    "longitude": "13.82932000",
    "native": null,
    "timezone": "Europe/Rome",
    "translations": {}
  },
  {
    "id": 140952,
    "name": "Oricola",
    "state_id": 1781,
    "state_code": "AQ",
    "country_id": 107,
    "country_code": "IT",
    "latitude": "42.04922000",
    "longitude": "13.03939000",
    "native": null,
    "timezone": "Europe/Rome",
    "translations": {}
  },
  {
    "id": 140988,
    "name": "Ortona dei Marsi",
    "state_id": 1781,
    "state_code": "AQ",
    "country_id": 107,
    "country_code": "IT",
    "latitude": "41.99820000",
    "longitude": "13.72909000",
    "native": null,
    "timezone": "Europe/Rome",
    "translations": {}
  },
  {
    "id": 140990,
    "name": "Ortucchio",
    "state_id": 1781,
    "state_code": "AQ",
    "country_id": 107,
    "country_code": "IT",
    "latitude": "41.95525000",
    "longitude": "13.64651000",
    "native": null,
    "timezone": "Europe/Rome",
    "translations": {}
  },
  {
    "id": 141058,
    "name": "Ovindoli",
    "state_id": 1781,
    "state_code": "AQ",
    "country_id": 107,
    "country_code": "IT",
    "latitude": "42.13765000",
    "longitude": "13.51603000",
    "native": null,
    "timezone": "Europe/Rome",
    "translations": {}
  },
  {
    "id": 141070,
    "name": "Pacentro",
    "state_id": 1781,
    "state_code": "AQ",
    "country_id": 107,
    "country_code": "IT",
    "latitude": "42.05043000",
    "longitude": "13.99151000",
    "native": null,
    "timezone": "Europe/Rome",
    "translations": {}
  },
  {
    "id": 141095,
    "name": "Paganica-Tempera",
    "state_id": 1781,
    "state_code": "AQ",
    "country_id": 107,
    "country_code": "IT",
    "latitude": "42.35715000",
    "longitude": "13.47138000",
    "native": null,
    "timezone": "Europe/Rome",
    "translations": {}
  },
  {
    "id": 58420,
    "name": "Pereto",
    "state_id": 1781,
    "state_code": "AQ",
    "country_id": 107,
    "country_code": "IT",
    "latitude": "42.05821000",
    "longitude": "13.10231000",
    "native": null,
    "timezone": "Europe/Rome",
    "translations": {}
  },
  {
    "id": 58452,
    "name": "Pescasseroli",
    "state_id": 1781,
    "state_code": "AQ",
    "country_id": 107,
    "country_code": "IT",
    "latitude": "41.80343000",
    "longitude": "13.78707000",
    "native": null,
    "timezone": "Europe/Rome",
    "translations": {}
  },
  {
    "id": 58459,
    "name": "Pescina",
    "state_id": 1781,
    "state_code": "AQ",
    "country_id": 107,
    "country_code": "IT",
    "latitude": "42.02351000",
    "longitude": "13.65116000",
    "native": null,
    "timezone": "Europe/Rome",
    "translations": {}
  },
  {
    "id": 58461,
    "name": "Pescocostanzo",
    "state_id": 1781,
    "state_code": "AQ",
    "country_id": 107,
    "country_code": "IT",
    "latitude": "41.88722000",
    "longitude": "14.06614000",
    "native": null,
    "timezone": "Europe/Rome",
    "translations": {}
  },
  {
    "id": 58493,
    "name": "Pettorano sul Gizio",
    "state_id": 1781,
    "state_code": "AQ",
    "country_id": 107,
    "country_code": "IT",
    "latitude": "41.97326000",
    "longitude": "13.96001000",
    "native": null,
    "timezone": "Europe/Rome",
    "translations": {}
  },
  {
    "id": 58548,
    "name": "Pianola",
    "state_id": 1781,
    "state_code": "AQ",
    "country_id": 107,
    "country_code": "IT",
    "latitude": "42.32341000",
    "longitude": "13.40394000",
    "native": null,
    "timezone": "Europe/Rome",
    "translations": {}
  },
  {
    "id": 58728,
    "name": "Pizzoli",
    "state_id": 1781,
    "state_code": "AQ",
    "country_id": 107,
    "country_code": "IT",
    "latitude": "42.43603000",
    "longitude": "13.29886000",
    "native": null,
    "timezone": "Europe/Rome",
    "translations": {}
  },
  {
    "id": 58759,
    "name": "Poggio Picenze",
    "state_id": 1781,
    "state_code": "AQ",
    "country_id": 107,
    "country_code": "IT",
    "latitude": "42.32061000",
    "longitude": "13.54036000",
    "native": null,
    "timezone": "Europe/Rome",
    "translations": {}
  },
  {
    "id": 58900,
    "name": "Popoli",
    "state_id": 1781,
    "state_code": "AQ",
    "country_id": 107,
    "country_code": "IT",
    "latitude": "42.16866000",
    "longitude": "13.82997000",
    "native": null,
    "timezone": "Europe/Rome",
    "translations": {}
  },
  {
    "id": 59015,
    "name": "Prata d'Ansidonia",
    "state_id": 1781,
    "state_code": "AQ",
    "country_id": 107,
    "country_code": "IT",
    "latitude": "42.27793000",
    "longitude": "13.60830000",
    "native": null,
    "timezone": "Europe/Rome",
    "translations": {}
  },
  {
    "id": 59033,
    "name": "Pratola Peligna",
    "state_id": 1781,
    "state_code": "AQ",
    "country_id": 107,
    "country_code": "IT",
    "latitude": "42.09701000",
    "longitude": "13.87467000",
    "native": null,
    "timezone": "Europe/Rome",
    "translations": {}
  },
  {
    "id": 59070,
    "name": "Preturo",
    "state_id": 1781,
    "state_code": "AQ",
    "country_id": 107,
    "country_code": "IT",
    "latitude": "42.37808000",
    "longitude": "13.29633000",
    "native": null,
    "timezone": "Europe/Rome",
    "translations": {}
  },
  {
    "id": 59072,
    "name": "Prezza",
    "state_id": 1781,
    "state_code": "AQ",
    "country_id": 107,
    "country_code": "IT",
    "latitude": "42.05789000",
    "longitude": "13.83592000",
    "native": null,
    "timezone": "Europe/Rome",
    "translations": {}
  },
  {
    "id": 59087,
    "name": "Progetto Case Bazzano",
    "state_id": 1781,
    "state_code": "AQ",
    "country_id": 107,
    "country_code": "IT",
    "latitude": "42.33643000",
    "longitude": "13.44410000",
    "native": null,
    "timezone": "Europe/Rome",
    "translations": {}
  },
  {
    "id": 59088,
    "name": "Progetto Case Coppito 3",
    "state_id": 1781,
    "state_code": "AQ",
    "country_id": 107,
    "country_code": "IT",
    "latitude": "42.36981000",
    "longitude": "13.31973000",
    "native": null,
    "timezone": "Europe/Rome",
    "translations": {}
  },
  {
    "id": 59089,
    "name": "Progetto Case Sassa Nsi",
    "state_id": 1781,
    "state_code": "AQ",
    "country_id": 107,
    "country_code": "IT",
    "latitude": "42.36560000",
    "longitude": "13.31509000",
    "native": null,
    "timezone": "Europe/Rome",
    "translations": {}
  },
  {
    "id": 59270,
    "name": "Raiano",
    "state_id": 1781,
    "state_code": "AQ",
    "country_id": 107,
    "country_code": "IT",
    "latitude": "42.10158000",
    "longitude": "13.81386000",
    "native": null,
    "timezone": "Europe/Rome",
    "translations": {}
  },
  {
    "id": 59439,
    "name": "Rivisondoli",
    "state_id": 1781,
    "state_code": "AQ",
    "country_id": 107,
    "country_code": "IT",
    "latitude": "41.87023000",
    "longitude": "14.06671000",
    "native": null,
    "timezone": "Europe/Rome",
    "translations": {}
  },
  {
    "id": 59483,
    "name": "Rocca di Botte",
    "state_id": 1781,
    "state_code": "AQ",
    "country_id": 107,
    "country_code": "IT",
    "latitude": "42.03102000",
    "longitude": "13.07185000",
    "native": null,
    "timezone": "Europe/Rome",
    "translations": {}
  },
  {
    "id": 59484,
    "name": "Rocca di Cambio",
    "state_id": 1781,
    "state_code": "AQ",
    "country_id": 107,
    "country_code": "IT",
    "latitude": "42.23755000",
    "longitude": "13.48906000",
    "native": null,
    "timezone": "Europe/Rome",
    "translations": {}
  },
  {
    "id": 59487,
    "name": "Rocca di Mezzo",
    "state_id": 1781,
    "state_code": "AQ",
    "country_id": 107,
    "country_code": "IT",
    "latitude": "42.20441000",
    "longitude": "13.51840000",
    "native": null,
    "timezone": "Europe/Rome",
    "translations": {}
  },
  {
    "id": 59473,
    "name": "Rocca Pia",
    "state_id": 1781,
    "state_code": "AQ",
    "country_id": 107,
    "country_code": "IT",
    "latitude": "41.93429000",
    "longitude": "13.97726000",
    "native": null,
    "timezone": "Europe/Rome",
    "translations": {}
  },
  {
    "id": 59494,
    "name": "Roccacasale",
    "state_id": 1781,
    "state_code": "AQ",
    "country_id": 107,
    "country_code": "IT",
    "latitude": "42.12249000",
    "longitude": "13.88758000",
    "native": null,
    "timezone": "Europe/Rome",
    "translations": {}
  },
  {
    "id": 59516,
    "name": "Roccaraso",
    "state_id": 1781,
    "state_code": "AQ",
    "country_id": 107,
    "country_code": "IT",
    "latitude": "41.84872000",
    "longitude": "14.07846000",
    "native": null,
    "timezone": "Europe/Rome",
    "translations": {}
  },
  {
    "id": 59531,
    "name": "Roccavivi",
    "state_id": 1781,
    "state_code": "AQ",
    "country_id": 107,
    "country_code": "IT",
    "latitude": "41.81214000",
    "longitude": "13.53662000",
    "native": null,
    "timezone": "Europe/Rome",
    "translations": {}
  },
  {
    "id": 59831,
    "name": "San Benedetto dei Marsi",
    "state_id": 1781,
    "state_code": "AQ",
    "country_id": 107,
    "country_code": "IT",
    "latitude": "42.00760000",
    "longitude": "13.62381000",
    "native": null,
    "timezone": "Europe/Rome",
    "translations": {}
  },
  {
    "id": 59833,
    "name": "San Benedetto in Perillis",
    "state_id": 1781,
    "state_code": "AQ",
    "country_id": 107,
    "country_code": "IT",
    "latitude": "42.18377000",
    "longitude": "13.76996000",
    "native": null,
    "timezone": "Europe/Rome",
    "translations": {}
  },
  {
    "id": 59892,
    "name": "San Demetrio Ne' Vestini",
    "state_id": 1781,
    "state_code": "AQ",
    "country_id": 107,
    "country_code": "IT",
    "latitude": "42.28963000",
    "longitude": "13.55519000",
    "native": null,
    "timezone": "Europe/Rome",
    "translations": {}
  },
  {
    "id": 60153,
    "name": "San Panfilo d'Ocre",
    "state_id": 1781,
    "state_code": "AQ",
    "country_id": 107,
    "country_code": "IT",
    "latitude": "42.28616000",
    "longitude": "13.47518000",
    "native": null,
    "timezone": "Europe/Rome",
    "translations": {}
  },
  {
    "id": 60203,
    "name": "San Pio delle Camere",
    "state_id": 1781,
    "state_code": "AQ",
    "country_id": 107,
    "country_code": "IT",
    "latitude": "42.28423000",
    "longitude": "13.65570000",
    "native": null,
    "timezone": "Europe/Rome",
    "translations": {}
  },
  {
    "id": 60269,
    "name": "San Vincenzo Valle Roveto",
    "state_id": 1781,
    "state_code": "AQ",
    "country_id": 107,
    "country_code": "IT",
    "latitude": "41.84452000",
    "longitude": "13.53566000",
    "native": null,
    "timezone": "Europe/Rome",
    "translations": {}
  },
  {
    "id": 60402,
    "name": "Sant'Eusanio Forconese",
    "state_id": 1781,
    "state_code": "AQ",
    "country_id": 107,
    "country_code": "IT",
    "latitude": "42.28951000",
    "longitude": "13.52425000",
    "native": null,
    "timezone": "Europe/Rome",
    "translations": {}
  },
  {
    "id": 60504,
    "name": "Sante Marie",
    "state_id": 1781,
    "state_code": "AQ",
    "country_id": 107,
    "country_code": "IT",
    "latitude": "42.10369000",
    "longitude": "13.20163000",
    "native": null,
    "timezone": "Europe/Rome",
    "translations": {}
  },
  {
    "id": 60524,
    "name": "Santo Stefano di Sessanio",
    "state_id": 1781,
    "state_code": "AQ",
    "country_id": 107,
    "country_code": "IT",
    "latitude": "42.34339000",
    "longitude": "13.64477000",
    "native": null,
    "timezone": "Europe/Rome",
    "translations": {}
  },
  {
    "id": 60565,
    "name": "Sassa",
    "state_id": 1781,
    "state_code": "AQ",
    "country_id": 107,
    "country_code": "IT",
    "latitude": "42.35204000",
    "longitude": "13.29924000",
    "native": null,
    "timezone": "Europe/Rome",
    "translations": {}
  },
  {
    "id": 60622,
    "name": "Scanno",
    "state_id": 1781,
    "state_code": "AQ",
    "country_id": 107,
    "country_code": "IT",
    "latitude": "41.90442000",
    "longitude": "13.87961000",
    "native": null,
    "timezone": "Europe/Rome",
    "translations": {}
  },
  {
    "id": 60662,
    "name": "Scontrone",
    "state_id": 1781,
    "state_code": "AQ",
    "country_id": 107,
    "country_code": "IT",
    "latitude": "41.74681000",
    "longitude": "14.03880000",
    "native": null,
    "timezone": "Europe/Rome",
    "translations": {}
  },
  {
    "id": 60665,
    "name": "Scoppito",
    "state_id": 1781,
    "state_code": "AQ",
    "country_id": 107,
    "country_code": "IT",
    "latitude": "42.36948000",
    "longitude": "13.25936000",
    "native": null,
    "timezone": "Europe/Rome",
    "translations": {}
  },
  {
    "id": 60670,
    "name": "Scurcola Marsicana",
    "state_id": 1781,
    "state_code": "AQ",
    "country_id": 107,
    "country_code": "IT",
    "latitude": "42.06313000",
    "longitude": "13.33919000",
    "native": null,
    "timezone": "Europe/Rome",
    "translations": {}
  },
  {
    "id": 60676,
    "name": "Secinaro",
    "state_id": 1781,
    "state_code": "AQ",
    "country_id": 107,
    "country_code": "IT",
    "latitude": "42.15062000",
    "longitude": "13.68145000",
    "native": null,
    "timezone": "Europe/Rome",
    "translations": {}
  },
  {
    "id": 61116,
    "name": "Sulmona",
    "state_id": 1781,
    "state_code": "AQ",
    "country_id": 107,
    "country_code": "IT",
    "latitude": "42.04945000",
    "longitude": "13.92578000",
    "native": null,
    "timezone": "Europe/Rome",
    "translations": {}
  },
  {
    "id": 61142,
    "name": "Tagliacozzo",
    "state_id": 1781,
    "state_code": "AQ",
    "country_id": 107,
    "country_code": "IT",
    "latitude": "42.06933000",
    "longitude": "13.25469000",
    "native": null,
    "timezone": "Europe/Rome",
    "translations": {}
  },
  {
    "id": 61280,
    "name": "Tione degli Abruzzi",
    "state_id": 1781,
    "state_code": "AQ",
    "country_id": 107,
    "country_code": "IT",
    "latitude": "42.20393000",
    "longitude": "13.63570000",
    "native": null,
    "timezone": "Europe/Rome",
    "translations": {}
  },
  {
    "id": 61336,
    "name": "Tornimparte",
    "state_id": 1781,
    "state_code": "AQ",
    "country_id": 107,
    "country_code": "IT",
    "latitude": "42.29007000",
    "longitude": "13.30092000",
    "native": null,
    "timezone": "Europe/Rome",
    "translations": {}
  },
  {
    "id": 61444,
    "name": "Trasacco",
    "state_id": 1781,
    "state_code": "AQ",
    "country_id": 107,
    "country_code": "IT",
    "latitude": "41.95742000",
    "longitude": "13.53270000",
    "native": null,
    "timezone": "Europe/Rome",
    "translations": {}
  },
  {
    "id": 61704,
    "name": "Vallecupa",
    "state_id": 1781,
    "state_code": "AQ",
    "country_id": 107,
    "country_code": "IT",
    "latitude": "42.25366000",
    "longitude": "13.57467000",
    "native": null,
    "timezone": "Europe/Rome",
    "translations": {}
  },
  {
    "id": 62022,
    "name": "Villa Sant'Angelo",
    "state_id": 1781,
    "state_code": "AQ",
    "country_id": 107,
    "country_code": "IT",
    "latitude": "42.27043000",
    "longitude": "13.53710000",
    "native": null,
    "timezone": "Europe/Rome",
    "translations": {}
  },
  {
    "id": 62025,
    "name": "Villa Santa Lucia degli Abruzzi",
    "state_id": 1781,
    "state_code": "AQ",
    "country_id": 107,
    "country_code": "IT",
    "latitude": "42.33286000",
    "longitude": "13.77792000",
    "native": null,
    "timezone": "Europe/Rome",
    "translations": {}
  },
  {
    "id": 62071,
    "name": "Villagrande",
    "state_id": 1781,
    "state_code": "AQ",
    "country_id": 107,
    "country_code": "IT",
    "latitude": "42.29533000",
    "longitude": "13.29999000",
    "native": null,
    "timezone": "Europe/Rome",
    "translations": {}
  },
  {
    "id": 62075,
    "name": "Villalago",
    "state_id": 1781,
    "state_code": "AQ",
    "country_id": 107,
    "country_code": "IT",
    "latitude": "41.93514000",
    "longitude": "13.83868000",
    "native": null,
    "timezone": "Europe/Rome",
    "translations": {}
  },
  {
    "id": 62145,
    "name": "Villavallelonga",
    "state_id": 1781,
    "state_code": "AQ",
    "country_id": 107,
    "country_code": "IT",
    "latitude": "41.87104000",
    "longitude": "13.62088000",
    "native": null,
    "timezone": "Europe/Rome",
    "translations": {}
  },
  {
    "id": 62151,
    "name": "Villetta Barrea",
    "state_id": 1781,
    "state_code": "AQ",
    "country_id": 107,
    "country_code": "IT",
    "latitude": "41.77646000",
    "longitude": "13.93892000",
    "native": null,
    "timezone": "Europe/Rome",
    "translations": {}
  },
  {
    "id": 62186,
    "name": "Vittorito",
    "state_id": 1781,
    "state_code": "AQ",
    "country_id": 107,
    "country_code": "IT",
    "latitude": "42.12703000",
    "longitude": "13.81670000",
    "native": null,
    "timezone": "Europe/Rome",
    "translations": {}
  }
]