[
  {
    "id": 39622,
    "name": "Aups",
    "state_id": 5051,
    "state_code": "83",
    "country_id": 75,
    "country_code": "FR",
    "latitude": "43.62841000",
    "longitude": "6.22477000",
    "native": null,
    "timezone": "Europe/Paris",
    "translations": {}
  },
  {
    "id": 39712,
    "name": "Bagnols-en-Forêt",
    "state_id": 5051,
    "state_code": "83",
    "country_id": 75,
    "country_code": "FR",
    "latitude": "43.53752000",
    "longitude": "6.69814000",
    "native": null,
    "timezone": "Europe/Paris",
    "translations": {}
  },
  {
    "id": 39759,
    "name": "Bandol",
    "state_id": 5051,
    "state_code": "83",
    "country_id": 75,
    "country_code": "FR",
    "latitude": "43.14247000",
    "longitude": "5.74718000",
    "native": null,
    "timezone": "Europe/Paris",
    "translations": {}
  },
  {
    "id": 39783,
    "name": "Bargemon",
    "state_id": 5051,
    "state_code": "83",
    "country_id": 75,
    "country_code": "FR",
    "latitude": "43.61899000",
    "longitude": "6.54957000",
    "native": null,
    "timezone": "Europe/Paris",
    "translations": {}
  },
  {
    "id": 39785,
    "name": "Barjols",
    "state_id": 5051,
    "state_code": "83",
    "country_id": 75,
    "country_code": "FR",
    "latitude": "43.55805000",
    "longitude": "6.00752000",
    "native": null,
    "timezone": "Europe/Paris",
    "translations": {}
  },
  {
    "id": 39905,
    "name": "Belgentier",
    "state_id": 5051,
    "state_code": "83",
    "country_id": 75,
    "country_code": "FR",
    "latitude": "43.24535000",
    "longitude": "5.99933000",
    "native": null,
    "timezone": "Europe/Paris",
    "translations": {}
  },
  {
    "id": 39977,
    "name": "Besse-sur-Issole",
    "state_id": 5051,
    "state_code": "83",
    "country_id": 75,
    "country_code": "FR",
    "latitude": "43.34892000",
    "longitude": "6.17656000",
    "native": null,
    "timezone": "Europe/Paris",
    "translations": {}
  },
  {
    "id": 40141,
    "name": "Bormes-les-Mimosas",
    "state_id": 5051,
    "state_code": "83",
    "country_id": 75,
    "country_code": "FR",
    "latitude": "43.15169000",
    "longitude": "6.34220000",
    "native": null,
    "timezone": "Europe/Paris",
    "translations": {}
  },
  {
    "id": 40258,
    "name": "Bras",
    "state_id": 5051,
    "state_code": "83",
    "country_id": 75,
    "country_code": "FR",
    "latitude": "43.47163000",
    "longitude": "5.95486000",
    "native": null,
    "timezone": "Europe/Paris",
    "translations": {}
  },
  {
    "id": 40313,
    "name": "Brignoles",
    "state_id": 5051,
    "state_code": "83",
    "country_id": 75,
    "country_code": "FR",
    "latitude": "43.40580000",
    "longitude": "6.06172000",
    "native": null,
    "timezone": "Europe/Paris",
    "translations": {}
  },
  {
    "id": 40443,
    "name": "Cabasse",
    "state_id": 5051,
    "state_code": "83",
    "country_id": 75,
    "country_code": "FR",
    "latitude": "43.42646000",
    "longitude": "6.21917000",
    "native": null,
    "timezone": "Europe/Paris",
    "translations": {}
  },
  {
    "id": 40472,
    "name": "Callas",
    "state_id": 5051,
    "state_code": "83",
    "country_id": 75,
    "country_code": "FR",
    "latitude": "43.59284000",
    "longitude": "6.53840000",
    "native": null,
    "timezone": "Europe/Paris",
    "translations": {}
  },
  {
    "id": 40473,
    "name": "Callian",
    "state_id": 5051,
    "state_code": "83",
    "country_id": 75,
    "country_code": "FR",
    "latitude": "43.62210000",
    "longitude": "6.75269000",
    "native": null,
    "timezone": "Europe/Paris",
    "translations": {}
  },
  {
    "id": 40501,
    "name": "Camps-la-Source",
    "state_id": 5051,
    "state_code": "83",
    "country_id": 75,
    "country_code": "FR",
    "latitude": "43.38626000",
    "longitude": "6.09607000",
    "native": null,
    "timezone": "Europe/Paris",
    "translations": {}
  },
  {
    "id": 40540,
    "name": "Carcès",
    "state_id": 5051,
    "state_code": "83",
    "country_id": 75,
    "country_code": "FR",
    "latitude": "43.47585000",
    "longitude": "6.18257000",
    "native": null,
    "timezone": "Europe/Paris",
    "translations": {}
  },
  {
    "id": 40551,
    "name": "Carnoules",
    "state_id": 5051,
    "state_code": "83",
    "country_id": 75,
    "country_code": "FR",
    "latitude": "43.30187000",
    "longitude": "6.18733000",
    "native": null,
    "timezone": "Europe/Paris",
    "translations": {}
  },
  {
    "id": 40558,
    "name": "Carqueiranne",
    "state_id": 5051,
    "state_code": "83",
    "country_id": 75,
    "country_code": "FR",
    "latitude": "43.09495000",
    "longitude": "6.07349000",
    "native": null,
    "timezone": "Europe/Paris",
    "translations": {}
  },
  {
    "id": 40618,
    "name": "Cavalaire-sur-Mer",
    "state_id": 5051,
    "state_code": "83",
    "country_id": 75,
    "country_code": "FR",
    "latitude": "43.17261000",
    "longitude": "6.52959000",
    "native": null,
    "timezone": "Europe/Paris",
    "translations": {}
  },
  {
    "id": 41083,
    "name": "Cogolin",
    "state_id": 5051,
    "state_code": "83",
    "country_id": 75,
    "country_code": "FR",
    "latitude": "43.25294000",
    "longitude": "6.52981000",
    "native": null,
    "timezone": "Europe/Paris",
    "translations": {}
  },
  {
    "id": 41092,
    "name": "Collobrières",
    "state_id": 5051,
    "state_code": "83",
    "country_id": 75,
    "country_code": "FR",
    "latitude": "43.23718000",
    "longitude": "6.30901000",
    "native": null,
    "timezone": "Europe/Paris",
    "translations": {}
  },
  {
    "id": 41211,
    "name": "Cotignac",
    "state_id": 5051,
    "state_code": "83",
    "country_id": 75,
    "country_code": "FR",
    "latitude": "43.52876000",
    "longitude": "6.14955000",
    "native": null,
    "timezone": "Europe/Paris",
    "translations": {}
  },
  {
    "id": 41359,
    "name": "Cuers",
    "state_id": 5051,
    "state_code": "83",
    "country_id": 75,
    "country_code": "FR",
    "latitude": "43.23754000",
    "longitude": "6.07178000",
    "native": null,
    "timezone": "Europe/Paris",
    "translations": {}
  },
  {
    "id": 41566,
    "name": "Draguignan",
    "state_id": 5051,
    "state_code": "83",
    "country_id": 75,
    "country_code": "FR",
    "latitude": "43.53692000",
    "longitude": "6.46458000",
    "native": null,
    "timezone": "Europe/Paris",
    "translations": {}
  },
  {
    "id": 48117,
    "name": "Évenos",
    "state_id": 5051,
    "state_code": "83",
    "country_id": 75,
    "country_code": "FR",
    "latitude": "43.16365000",
    "longitude": "5.84628000",
    "native": null,
    "timezone": "Europe/Paris",
    "translations": {}
  },
  {
    "id": 41789,
    "name": "Fayence",
    "state_id": 5051,
    "state_code": "83",
    "country_id": 75,
    "country_code": "FR",
    "latitude": "43.62570000",
    "longitude": "6.69531000",
    "native": null,
    "timezone": "Europe/Paris",
    "translations": {}
  },
  {
    "id": 41817,
    "name": "Figanières",
    "state_id": 5051,
    "state_code": "83",
    "country_id": 75,
    "country_code": "FR",
    "latitude": "43.56882000",
    "longitude": "6.49722000",
    "native": null,
    "timezone": "Europe/Paris",
    "translations": {}
  },
  {
    "id": 41829,
    "name": "Flassans-sur-Issole",
    "state_id": 5051,
    "state_code": "83",
    "country_id": 75,
    "country_code": "FR",
    "latitude": "43.36856000",
    "longitude": "6.22154000",
    "native": null,
    "timezone": "Europe/Paris",
    "translations": {}
  },
  {
    "id": 41835,
    "name": "Flayosc",
    "state_id": 5051,
    "state_code": "83",
    "country_id": 75,
    "country_code": "FR",
    "latitude": "43.53396000",
    "longitude": "6.39660000",
    "native": null,
    "timezone": "Europe/Paris",
    "translations": {}
  },
  {
    "id": 41909,
    "name": "Forcalqueiret",
    "state_id": 5051,
    "state_code": "83",
    "country_id": 75,
    "country_code": "FR",
    "latitude": "43.33618000",
    "longitude": "6.08346000",
    "native": null,
    "timezone": "Europe/Paris",
    "translations": {}
  },
  {
    "id": 41985,
    "name": "Fréjus",
    "state_id": 5051,
    "state_code": "83",
    "country_id": 75,
    "country_code": "FR",
    "latitude": "43.43325000",
    "longitude": "6.73555000",
    "native": null,
    "timezone": "Europe/Paris",
    "translations": {}
  },
  {
    "id": 42048,
    "name": "Garéoult",
    "state_id": 5051,
    "state_code": "83",
    "country_id": 75,
    "country_code": "FR",
    "latitude": "43.32833000",
    "longitude": "6.04616000",
    "native": null,
    "timezone": "Europe/Paris",
    "translations": {}
  },
  {
    "id": 42050,
    "name": "Gassin",
    "state_id": 5051,
    "state_code": "83",
    "country_id": 75,
    "country_code": "FR",
    "latitude": "43.22882000",
    "longitude": "6.58549000",
    "native": null,
    "timezone": "Europe/Paris",
    "translations": {}
  },
  {
    "id": 42098,
    "name": "Ginasservis",
    "state_id": 5051,
    "state_code": "83",
    "country_id": 75,
    "country_code": "FR",
    "latitude": "43.67088000",
    "longitude": "5.84911000",
    "native": null,
    "timezone": "Europe/Paris",
    "translations": {}
  },
  {
    "id": 42130,
    "name": "Gonfaron",
    "state_id": 5051,
    "state_code": "83",
    "country_id": 75,
    "country_code": "FR",
    "latitude": "43.32036000",
    "longitude": "6.28929000",
    "native": null,
    "timezone": "Europe/Paris",
    "translations": {}
  },
  {
    "id": 42214,
    "name": "Grimaud",
    "state_id": 5051,
    "state_code": "83",
    "country_id": 75,
    "country_code": "FR",
    "latitude": "43.27329000",
    "longitude": "6.52171000",
    "native": null,
    "timezone": "Europe/Paris",
    "translations": {}
  },
  {
    "id": 42448,
    "name": "Hyères",
    "state_id": 5051,
    "state_code": "83",
    "country_id": 75,
    "country_code": "FR",
    "latitude": "43.12038000",
    "longitude": "6.12857000",
    "native": null,
    "timezone": "Europe/Paris",
    "translations": {}
  },
  {
    "id": 161811,
    "name": "La Cadière-d'Azur",
    "state_id": 5051,
    "state_code": "83",
    "country_id": 75,
    "country_code": "FR",
    "latitude": "43.20260000",
    "longitude": "5.72310000",
    "native": null,
    "timezone": "Europe/Paris",
    "translations": {}
  },
  {
    "id": 42670,
    "name": "La Celle",
    "state_id": 5051,
    "state_code": "83",
    "country_id": 75,
    "country_code": "FR",
    "latitude": "43.39523000",
    "longitude": "6.03750000",
    "native": null,
    "timezone": "Europe/Paris",
    "translations": {}
  },
  {
    "id": 42721,
    "name": "La Crau",
    "state_id": 5051,
    "state_code": "83",
    "country_id": 75,
    "country_code": "FR",
    "latitude": "43.14962000",
    "longitude": "6.07399000",
    "native": null,
    "timezone": "Europe/Paris",
    "translations": {}
  },
  {
    "id": 42723,
    "name": "La Croix-Valmer",
    "state_id": 5051,
    "state_code": "83",
    "country_id": 75,
    "country_code": "FR",
    "latitude": "43.20755000",
    "longitude": "6.56796000",
    "native": null,
    "timezone": "Europe/Paris",
    "translations": {}
  },
  {
    "id": 42733,
    "name": "La Farlède",
    "state_id": 5051,
    "state_code": "83",
    "country_id": 75,
    "country_code": "FR",
    "latitude": "43.16866000",
    "longitude": "6.04323000",
    "native": null,
    "timezone": "Europe/Paris",
    "translations": {}
  },
  {
    "id": 42761,
    "name": "La Garde",
    "state_id": 5051,
    "state_code": "83",
    "country_id": 75,
    "country_code": "FR",
    "latitude": "43.12468000",
    "longitude": "6.01033000",
    "native": null,
    "timezone": "Europe/Paris",
    "translations": {}
  },
  {
    "id": 42763,
    "name": "La Garde-Freinet",
    "state_id": 5051,
    "state_code": "83",
    "country_id": 75,
    "country_code": "FR",
    "latitude": "43.31710000",
    "longitude": "6.46946000",
    "native": null,
    "timezone": "Europe/Paris",
    "translations": {}
  },
  {
    "id": 42792,
    "name": "La Londe-les-Maures",
    "state_id": 5051,
    "state_code": "83",
    "country_id": 75,
    "country_code": "FR",
    "latitude": "43.13839000",
    "longitude": "6.23362000",
    "native": null,
    "timezone": "Europe/Paris",
    "translations": {}
  },
  {
    "id": 42812,
    "name": "La Motte",
    "state_id": 5051,
    "state_code": "83",
    "country_id": 75,
    "country_code": "FR",
    "latitude": "43.49403000",
    "longitude": "6.53519000",
    "native": null,
    "timezone": "Europe/Paris",
    "translations": {}
  },
  {
    "id": 42866,
    "name": "La Roquebrussanne",
    "state_id": 5051,
    "state_code": "83",
    "country_id": 75,
    "country_code": "FR",
    "latitude": "43.34030000",
    "longitude": "5.97603000",
    "native": null,
    "timezone": "Europe/Paris",
    "translations": {}
  },
  {
    "id": 42878,
    "name": "La Seyne-sur-Mer",
    "state_id": 5051,
    "state_code": "83",
    "country_id": 75,
    "country_code": "FR",
    "latitude": "43.10322000",
    "longitude": "5.87816000",
    "native": null,
    "timezone": "Europe/Paris",
    "translations": {}
  },
  {
    "id": 42905,
    "name": "La Valette-du-Var",
    "state_id": 5051,
    "state_code": "83",
    "country_id": 75,
    "country_code": "FR",
    "latitude": "43.13763000",
    "longitude": "5.98317000",
    "native": null,
    "timezone": "Europe/Paris",
    "translations": {}
  },
  {
    "id": 43128,
    "name": "Le Beausset",
    "state_id": 5051,
    "state_code": "83",
    "country_id": 75,
    "country_code": "FR",
    "latitude": "43.19822000",
    "longitude": "5.80267000",
    "native": null,
    "timezone": "Europe/Paris",
    "translations": {}
  },
  {
    "id": 43155,
    "name": "Le Cannet-des-Maures",
    "state_id": 5051,
    "state_code": "83",
    "country_id": 75,
    "country_code": "FR",
    "latitude": "43.39236000",
    "longitude": "6.33966000",
    "native": null,
    "timezone": "Europe/Paris",
    "translations": {}
  },
  {
    "id": 43157,
    "name": "Le Castellet",
    "state_id": 5051,
    "state_code": "83",
    "country_id": 75,
    "country_code": "FR",
    "latitude": "43.20291000",
    "longitude": "5.77657000",
    "native": null,
    "timezone": "Europe/Paris",
    "translations": {}
  },
  {
    "id": 43212,
    "name": "Le Lavandou",
    "state_id": 5051,
    "state_code": "83",
    "country_id": 75,
    "country_code": "FR",
    "latitude": "43.13700000",
    "longitude": "6.36600000",
    "native": null,
    "timezone": "Europe/Paris",
    "translations": {}
  },
  {
    "id": 43217,
    "name": "Le Luc",
    "state_id": 5051,
    "state_code": "83",
    "country_id": 75,
    "country_code": "FR",
    "latitude": "43.39453000",
    "longitude": "6.31253000",
    "native": null,
    "timezone": "Europe/Paris",
    "translations": {}
  },
  {
    "id": 43238,
    "name": "Le Muy",
    "state_id": 5051,
    "state_code": "83",
    "country_id": 75,
    "country_code": "FR",
    "latitude": "43.47280000",
    "longitude": "6.56637000",
    "native": null,
    "timezone": "Europe/Paris",
    "translations": {}
  },
  {
    "id": 43262,
    "name": "Le Plan-de-la-Tour",
    "state_id": 5051,
    "state_code": "83",
    "country_id": 75,
    "country_code": "FR",
    "latitude": "43.33333000",
    "longitude": "6.55000000",
    "native": null,
    "timezone": "Europe/Paris",
    "translations": {}
  },
  {
    "id": 43283,
    "name": "Le Pradet",
    "state_id": 5051,
    "state_code": "83",
    "country_id": 75,
    "country_code": "FR",
    "latitude": "43.10545000",
    "longitude": "6.02350000",
    "native": null,
    "timezone": "Europe/Paris",
    "translations": {}
  },
  {
    "id": 43294,
    "name": "Le Revest-les-Eaux",
    "state_id": 5051,
    "state_code": "83",
    "country_id": 75,
    "country_code": "FR",
    "latitude": "43.17612000",
    "longitude": "5.92667000",
    "native": null,
    "timezone": "Europe/Paris",
    "translations": {}
  },
  {
    "id": 43317,
    "name": "Le Thoronet",
    "state_id": 5051,
    "state_code": "83",
    "country_id": 75,
    "country_code": "FR",
    "latitude": "43.45174000",
    "longitude": "6.30391000",
    "native": null,
    "timezone": "Europe/Paris",
    "translations": {}
  },
  {
    "id": 43326,
    "name": "Le Val",
    "state_id": 5051,
    "state_code": "83",
    "country_id": 75,
    "country_code": "FR",
    "latitude": "43.43928000",
    "longitude": "6.07335000",
    "native": null,
    "timezone": "Europe/Paris",
    "translations": {}
  },
  {
    "id": 161850,
    "name": "Les Adrets-de-l'Estérel",
    "state_id": 5051,
    "state_code": "83",
    "country_id": 75,
    "country_code": "FR",
    "latitude": "43.53850000",
    "longitude": "6.81770000",
    "native": null,
    "timezone": "Europe/Paris",
    "translations": {}
  },
  {
    "id": 43364,
    "name": "Les Arcs",
    "state_id": 5051,
    "state_code": "83",
    "country_id": 75,
    "country_code": "FR",
    "latitude": "43.46328000",
    "longitude": "6.47876000",
    "native": null,
    "timezone": "Europe/Paris",
    "translations": {}
  },
  {
    "id": 43586,
    "name": "Lorgues",
    "state_id": 5051,
    "state_code": "83",
    "country_id": 75,
    "country_code": "FR",
    "latitude": "43.49325000",
    "longitude": "6.36150000",
    "native": null,
    "timezone": "Europe/Paris",
    "translations": {}
  },
  {
    "id": 44468,
    "name": "Méounes-lès-Montrieux",
    "state_id": 5051,
    "state_code": "83",
    "country_id": 75,
    "country_code": "FR",
    "latitude": "43.28102000",
    "longitude": "5.96986000",
    "native": null,
    "timezone": "Europe/Paris",
    "translations": {}
  },
  {
    "id": 44186,
    "name": "Montauroux",
    "state_id": 5051,
    "state_code": "83",
    "country_id": 75,
    "country_code": "FR",
    "latitude": "43.61823000",
    "longitude": "6.76528000",
    "native": null,
    "timezone": "Europe/Paris",
    "translations": {}
  },
  {
    "id": 44237,
    "name": "Montferrat",
    "state_id": 5051,
    "state_code": "83",
    "country_id": 75,
    "country_code": "FR",
    "latitude": "43.61196000",
    "longitude": "6.48093000",
    "native": null,
    "timezone": "Europe/Paris",
    "translations": {}
  },
  {
    "id": 44504,
    "name": "Nans-les-Pins",
    "state_id": 5051,
    "state_code": "83",
    "country_id": 75,
    "country_code": "FR",
    "latitude": "43.37066000",
    "longitude": "5.78189000",
    "native": null,
    "timezone": "Europe/Paris",
    "translations": {}
  },
  {
    "id": 44693,
    "name": "Néoules",
    "state_id": 5051,
    "state_code": "83",
    "country_id": 75,
    "country_code": "FR",
    "latitude": "43.30844000",
    "longitude": "6.00798000",
    "native": null,
    "timezone": "Europe/Paris",
    "translations": {}
  },
  {
    "id": 44735,
    "name": "Ollioules",
    "state_id": 5051,
    "state_code": "83",
    "country_id": 75,
    "country_code": "FR",
    "latitude": "43.13990000",
    "longitude": "5.84766000",
    "native": null,
    "timezone": "Europe/Paris",
    "translations": {}
  },
  {
    "id": 44953,
    "name": "Pierrefeu-du-Var",
    "state_id": 5051,
    "state_code": "83",
    "country_id": 75,
    "country_code": "FR",
    "latitude": "43.22411000",
    "longitude": "6.14536000",
    "native": null,
    "timezone": "Europe/Paris",
    "translations": {}
  },
  {
    "id": 44969,
    "name": "Pignans",
    "state_id": 5051,
    "state_code": "83",
    "country_id": 75,
    "country_code": "FR",
    "latitude": "43.30071000",
    "longitude": "6.22650000",
    "native": null,
    "timezone": "Europe/Paris",
    "translations": {}
  },
  {
    "id": 44996,
    "name": "Plan-d'Aups-Sainte-Baume",
    "state_id": 5051,
    "state_code": "83",
    "country_id": 75,
    "country_code": "FR",
    "latitude": "43.33333000",
    "longitude": "5.71667000",
    "native": null,
    "timezone": "Europe/Paris",
    "translations": {}
  },
  {
    "id": 45266,
    "name": "Pourrières",
    "state_id": 5051,
    "state_code": "83",
    "country_id": 75,
    "country_code": "FR",
    "latitude": "43.50611000",
    "longitude": "5.73452000",
    "native": null,
    "timezone": "Europe/Paris",
    "translations": {}
  },
  {
    "id": 45316,
    "name": "Puget-sur-Argens",
    "state_id": 5051,
    "state_code": "83",
    "country_id": 75,
    "country_code": "FR",
    "latitude": "43.45576000",
    "longitude": "6.68519000",
    "native": null,
    "timezone": "Europe/Paris",
    "translations": {}
  },
  {
    "id": 45315,
    "name": "Puget-Ville",
    "state_id": 5051,
    "state_code": "83",
    "country_id": 75,
    "country_code": "FR",
    "latitude": "43.28958000",
    "longitude": "6.13612000",
    "native": null,
    "timezone": "Europe/Paris",
    "translations": {}
  },
  {
    "id": 45421,
    "name": "Ramatuelle",
    "state_id": 5051,
    "state_code": "83",
    "country_id": 75,
    "country_code": "FR",
    "latitude": "43.21599000",
    "longitude": "6.61156000",
    "native": null,
    "timezone": "Europe/Paris",
    "translations": {}
  },
  {
    "id": 45690,
    "name": "Régusse",
    "state_id": 5051,
    "state_code": "83",
    "country_id": 75,
    "country_code": "FR",
    "latitude": "43.65540000",
    "longitude": "6.13186000",
    "native": null,
    "timezone": "Europe/Paris",
    "translations": {}
  },
  {
    "id": 45538,
    "name": "Rocbaron",
    "state_id": 5051,
    "state_code": "83",
    "country_id": 75,
    "country_code": "FR",
    "latitude": "43.30904000",
    "longitude": "6.07941000",
    "native": null,
    "timezone": "Europe/Paris",
    "translations": {}
  },
  {
    "id": 45590,
    "name": "Roquebrune-sur-Argens",
    "state_id": 5051,
    "state_code": "83",
    "country_id": 75,
    "country_code": "FR",
    "latitude": "43.44313000",
    "longitude": "6.63772000",
    "native": null,
    "timezone": "Europe/Paris",
    "translations": {}
  },
  {
    "id": 45624,
    "name": "Rougiers",
    "state_id": 5051,
    "state_code": "83",
    "country_id": 75,
    "country_code": "FR",
    "latitude": "43.39233000",
    "longitude": "5.85112000",
    "native": null,
    "timezone": "Europe/Paris",
    "translations": {}
  },
  {
    "id": 45889,
    "name": "Saint-Cyr-sur-Mer",
    "state_id": 5051,
    "state_code": "83",
    "country_id": 75,
    "country_code": "FR",
    "latitude": "43.18048000",
    "longitude": "5.70120000",
    "native": null,
    "timezone": "Europe/Paris",
    "translations": {}
  },
  {
    "id": 46134,
    "name": "Saint-Julien",
    "state_id": 5051,
    "state_code": "83",
    "country_id": 75,
    "country_code": "FR",
    "latitude": "43.31334000",
    "longitude": "5.44935000",
    "native": null,
    "timezone": "Europe/Paris",
    "translations": {}
  },
  {
    "id": 46235,
    "name": "Saint-Mandrier-sur-Mer",
    "state_id": 5051,
    "state_code": "83",
    "country_id": 75,
    "country_code": "FR",
    "latitude": "43.07800000",
    "longitude": "5.92900000",
    "native": null,
    "timezone": "Europe/Paris",
    "translations": {}
  },
  {
    "id": 46325,
    "name": "Saint-Maximin-la-Sainte-Baume",
    "state_id": 5051,
    "state_code": "83",
    "country_id": 75,
    "country_code": "FR",
    "latitude": "43.44813000",
    "longitude": "5.86081000",
    "native": null,
    "timezone": "Europe/Paris",
    "translations": {}
  },
  {
    "id": 46413,
    "name": "Saint-Paul-en-Forêt",
    "state_id": 5051,
    "state_code": "83",
    "country_id": 75,
    "country_code": "FR",
    "latitude": "43.56709000",
    "longitude": "6.69206000",
    "native": null,
    "timezone": "Europe/Paris",
    "translations": {}
  },
  {
    "id": 46494,
    "name": "Saint-Raphaël",
    "state_id": 5051,
    "state_code": "83",
    "country_id": 75,
    "country_code": "FR",
    "latitude": "43.42332000",
    "longitude": "6.77350000",
    "native": null,
    "timezone": "Europe/Paris",
    "translations": {}
  },
  {
    "id": 46589,
    "name": "Saint-Tropez",
    "state_id": 5051,
    "state_code": "83",
    "country_id": 75,
    "country_code": "FR",
    "latitude": "43.26764000",
    "longitude": "6.64049000",
    "native": null,
    "timezone": "Europe/Paris",
    "translations": {}
  },
  {
    "id": 46634,
    "name": "Saint-Zacharie",
    "state_id": 5051,
    "state_code": "83",
    "country_id": 75,
    "country_code": "FR",
    "latitude": "43.38521000",
    "longitude": "5.70808000",
    "native": null,
    "timezone": "Europe/Paris",
    "translations": {}
  },
  {
    "id": 46662,
    "name": "Sainte-Anastasie-sur-Issole",
    "state_id": 5051,
    "state_code": "83",
    "country_id": 75,
    "country_code": "FR",
    "latitude": "43.34266000",
    "longitude": "6.12493000",
    "native": null,
    "timezone": "Europe/Paris",
    "translations": {}
  },
  {
    "id": 46718,
    "name": "Sainte-Maxime",
    "state_id": 5051,
    "state_code": "83",
    "country_id": 75,
    "country_code": "FR",
    "latitude": "43.30907000",
    "longitude": "6.63849000",
    "native": null,
    "timezone": "Europe/Paris",
    "translations": {}
  },
  {
    "id": 46745,
    "name": "Salernes",
    "state_id": 5051,
    "state_code": "83",
    "country_id": 75,
    "country_code": "FR",
    "latitude": "43.56350000",
    "longitude": "6.23386000",
    "native": null,
    "timezone": "Europe/Paris",
    "translations": {}
  },
  {
    "id": 46780,
    "name": "Sanary-sur-Mer",
    "state_id": 5051,
    "state_code": "83",
    "country_id": 75,
    "country_code": "FR",
    "latitude": "43.11985000",
    "longitude": "5.80155000",
    "native": null,
    "timezone": "Europe/Paris",
    "translations": {}
  },
  {
    "id": 46923,
    "name": "Seillans",
    "state_id": 5051,
    "state_code": "83",
    "country_id": 75,
    "country_code": "FR",
    "latitude": "43.63623000",
    "longitude": "6.64332000",
    "native": null,
    "timezone": "Europe/Paris",
    "translations": {}
  },
  {
    "id": 162028,
    "name": "Seillons-Source-d'Argens",
    "state_id": 5051,
    "state_code": "83",
    "country_id": 75,
    "country_code": "FR",
    "latitude": "43.51560000",
    "longitude": "5.87750000",
    "native": null,
    "timezone": "Europe/Paris",
    "translations": {}
  },
  {
    "id": 46992,
    "name": "Signes",
    "state_id": 5051,
    "state_code": "83",
    "country_id": 75,
    "country_code": "FR",
    "latitude": "43.29080000",
    "longitude": "5.86284000",
    "native": null,
    "timezone": "Europe/Paris",
    "translations": {}
  },
  {
    "id": 47010,
    "name": "Six-Fours-les-Plages",
    "state_id": 5051,
    "state_code": "83",
    "country_id": 75,
    "country_code": "FR",
    "latitude": "43.09174000",
    "longitude": "5.82465000",
    "native": null,
    "timezone": "Europe/Paris",
    "translations": {}
  },
  {
    "id": 47030,
    "name": "Solliès-Pont",
    "state_id": 5051,
    "state_code": "83",
    "country_id": 75,
    "country_code": "FR",
    "latitude": "43.19009000",
    "longitude": "6.04115000",
    "native": null,
    "timezone": "Europe/Paris",
    "translations": {}
  },
  {
    "id": 47031,
    "name": "Solliès-Toucas",
    "state_id": 5051,
    "state_code": "83",
    "country_id": 75,
    "country_code": "FR",
    "latitude": "43.20579000",
    "longitude": "6.02485000",
    "native": null,
    "timezone": "Europe/Paris",
    "translations": {}
  },
  {
    "id": 47032,
    "name": "Solliès-Ville",
    "state_id": 5051,
    "state_code": "83",
    "country_id": 75,
    "country_code": "FR",
    "latitude": "43.18256000",
    "longitude": "6.03849000",
    "native": null,
    "timezone": "Europe/Paris",
    "translations": {}
  },
  {
    "id": 47172,
    "name": "Tanneron",
    "state_id": 5051,
    "state_code": "83",
    "country_id": 75,
    "country_code": "FR",
    "latitude": "43.59057000",
    "longitude": "6.87541000",
    "native": null,
    "timezone": "Europe/Paris",
    "translations": {}
  },
  {
    "id": 47174,
    "name": "Taradeau",
    "state_id": 5051,
    "state_code": "83",
    "country_id": 75,
    "country_code": "FR",
    "latitude": "43.45444000",
    "longitude": "6.42729000",
    "native": null,
    "timezone": "Europe/Paris",
    "translations": {}
  },
  {
    "id": 47312,
    "name": "Toulon",
    "state_id": 5051,
    "state_code": "83",
    "country_id": 75,
    "country_code": "FR",
    "latitude": "43.12442000",
    "longitude": "5.92836000",
    "native": null,
    "timezone": "Europe/Paris",
    "translations": {}
  },
  {
    "id": 162048,
    "name": "Tourrettes",
    "state_id": 5051,
    "state_code": "83",
    "country_id": 75,
    "country_code": "FR",
    "latitude": "43.60900000",
    "longitude": "6.72520000",
    "native": null,
    "timezone": "Europe/Paris",
    "translations": {}
  },
  {
    "id": 47335,
    "name": "Tourves",
    "state_id": 5051,
    "state_code": "83",
    "country_id": 75,
    "country_code": "FR",
    "latitude": "43.40803000",
    "longitude": "5.92392000",
    "native": null,
    "timezone": "Europe/Paris",
    "translations": {}
  },
  {
    "id": 47348,
    "name": "Trans-en-Provence",
    "state_id": 5051,
    "state_code": "83",
    "country_id": 75,
    "country_code": "FR",
    "latitude": "43.50326000",
    "longitude": "6.48641000",
    "native": null,
    "timezone": "Europe/Paris",
    "translations": {}
  },
  {
    "id": 47506,
    "name": "Var",
    "state_id": 5051,
    "state_code": "83",
    "country_id": 75,
    "country_code": "FR",
    "latitude": "43.45860000",
    "longitude": "6.29145000",
    "native": null,
    "timezone": "Europe/Paris",
    "translations": {}
  },
  {
    "id": 47673,
    "name": "Vidauban",
    "state_id": 5051,
    "state_code": "83",
    "country_id": 75,
    "country_code": "FR",
    "latitude": "43.42721000",
    "longitude": "6.43185000",
    "native": null,
    "timezone": "Europe/Paris",
    "translations": {}
  },
  {
    "id": 47728,
    "name": "Villecroze",
    "state_id": 5051,
    "state_code": "83",
    "country_id": 75,
    "country_code": "FR",
    "latitude": "43.58223000",
    "longitude": "6.27587000",
    "native": null,
    "timezone": "Europe/Paris",
    "translations": {}
  },
  {
    "id": 47849,
    "name": "Vinon-sur-Verdon",
    "state_id": 5051,
    "state_code": "83",
    "country_id": 75,
    "country_code": "FR",
    "latitude": "43.72484000",
    "longitude": "5.81168000",
    "native": null,
    "timezone": "Europe/Paris",
    "translations": {}
  }
]