[
  {
    "id": 135446,
    "name": "Altopascio",
    "state_id": 1749,
    "state_code": "LU",
    "country_id": 107,
    "country_code": "IT",
    "latitude": "43.81618000",
    "longitude": "10.67668000",
    "native": null,
    "timezone": "Europe/Rome",
    "translations": {}
  },
  {
    "id": 135757,
    "name": "Bagni di Lucca",
    "state_id": 1749,
    "state_code": "LU",
    "country_id": 107,
    "country_code": "IT",
    "latitude": "44.00513000",
    "longitude": "10.55310000",
    "native": null,
    "timezone": "Europe/Rome",
    "translations": {}
  },
  {
    "id": 135848,
    "name": "Barga",
    "state_id": 1749,
    "state_code": "LU",
    "country_id": 107,
    "country_code": "IT",
    "latitude": "44.07310000",
    "longitude": "10.47789000",
    "native": null,
    "timezone": "Europe/Rome",
    "translations": {}
  },
  {
    "id": 136198,
    "name": "Borgo a Mozzano",
    "state_id": 1749,
    "state_code": "LU",
    "country_id": 107,
    "country_code": "IT",
    "latitude": "43.97946000",
    "longitude": "10.54489000",
    "native": null,
    "timezone": "Europe/Rome",
    "translations": {}
  },
  {
    "id": 136567,
    "name": "Camaiore",
    "state_id": 1749,
    "state_code": "LU",
    "country_id": 107,
    "country_code": "IT",
    "latitude": "43.94265000",
    "longitude": "10.29754000",
    "native": null,
    "timezone": "Europe/Rome",
    "translations": {}
  },
  {
    "id": 136675,
    "name": "Camporgiano",
    "state_id": 1749,
    "state_code": "LU",
    "country_id": 107,
    "country_code": "IT",
    "latitude": "44.15927000",
    "longitude": "10.33300000",
    "native": null,
    "timezone": "Europe/Rome",
    "translations": {}
  },
  {
    "id": 136760,
    "name": "Capanne-Prato-Cinquale",
    "state_id": 1749,
    "state_code": "LU",
    "country_id": 107,
    "country_code": "IT",
    "latitude": "43.99720000",
    "longitude": "10.15636000",
    "native": null,
    "timezone": "Europe/Rome",
    "translations": {}
  },
  {
    "id": 136762,
    "name": "Capannori",
    "state_id": 1749,
    "state_code": "LU",
    "country_id": 107,
    "country_code": "IT",
    "latitude": "43.84171000",
    "longitude": "10.57271000",
    "native": null,
    "timezone": "Europe/Rome",
    "translations": {}
  },
  {
    "id": 136864,
    "name": "Careggine",
    "state_id": 1749,
    "state_code": "LU",
    "country_id": 107,
    "country_code": "IT",
    "latitude": "44.11995000",
    "longitude": "10.32540000",
    "native": null,
    "timezone": "Europe/Rome",
    "translations": {}
  },
  {
    "id": 137302,
    "name": "Castelnuovo di Garfagnana",
    "state_id": 1749,
    "state_code": "LU",
    "country_id": 107,
    "country_code": "IT",
    "latitude": "44.11260000",
    "longitude": "10.40518000",
    "native": null,
    "timezone": "Europe/Rome",
    "translations": {}
  },
  {
    "id": 137356,
    "name": "Castiglione di Garfagnana",
    "state_id": 1749,
    "state_code": "LU",
    "country_id": 107,
    "country_code": "IT",
    "latitude": "44.15248000",
    "longitude": "10.41212000",
    "native": null,
    "timezone": "Europe/Rome",
    "translations": {}
  },
  {
    "id": 138005,
    "name": "Coreglia Antelminelli",
    "state_id": 1749,
    "state_code": "LU",
    "country_id": 107,
    "country_code": "IT",
    "latitude": "44.06278000",
    "longitude": "10.52426000",
    "native": null,
    "timezone": "Europe/Rome",
    "translations": {}
  },
  {
    "id": 138046,
    "name": "Corsanico-Bargecchia",
    "state_id": 1749,
    "state_code": "LU",
    "country_id": 107,
    "country_code": "IT",
    "latitude": "43.90828000",
    "longitude": "10.30621000",
    "native": null,
    "timezone": "Europe/Rome",
    "translations": {}
  },
  {
    "id": 138391,
    "name": "Fabbriche di Vallico",
    "state_id": 1749,
    "state_code": "LU",
    "country_id": 107,
    "country_code": "IT",
    "latitude": "43.99765000",
    "longitude": "10.42790000",
    "native": null,
    "timezone": "Europe/Rome",
    "translations": {}
  },
  {
    "id": 138593,
    "name": "Fontana delle Monache",
    "state_id": 1749,
    "state_code": "LU",
    "country_id": 107,
    "country_code": "IT",
    "latitude": "44.11386000",
    "longitude": "10.27943000",
    "native": null,
    "timezone": "Europe/Rome",
    "translations": {}
  },
  {
    "id": 138650,
    "name": "Fornaci di Barga",
    "state_id": 1749,
    "state_code": "LU",
    "country_id": 107,
    "country_code": "IT",
    "latitude": "44.04899000",
    "longitude": "10.47111000",
    "native": null,
    "timezone": "Europe/Rome",
    "translations": {}
  },
  {
    "id": 138661,
    "name": "Forte dei Marmi",
    "state_id": 1749,
    "state_code": "LU",
    "country_id": 107,
    "country_code": "IT",
    "latitude": "43.96388000",
    "longitude": "10.17478000",
    "native": null,
    "timezone": "Europe/Rome",
    "translations": {}
  },
  {
    "id": 138665,
    "name": "Fosciandora",
    "state_id": 1749,
    "state_code": "LU",
    "country_id": 107,
    "country_code": "IT",
    "latitude": "44.11495000",
    "longitude": "10.45850000",
    "native": null,
    "timezone": "Europe/Rome",
    "translations": {}
  },
  {
    "id": 138807,
    "name": "Gallicano",
    "state_id": 1749,
    "state_code": "LU",
    "country_id": 107,
    "country_code": "IT",
    "latitude": "44.05833000",
    "longitude": "10.44209000",
    "native": null,
    "timezone": "Europe/Rome",
    "translations": {}
  },
  {
    "id": 138994,
    "name": "Giuncugnano",
    "state_id": 1749,
    "state_code": "LU",
    "country_id": 107,
    "country_code": "IT",
    "latitude": "44.21055000",
    "longitude": "10.24719000",
    "native": null,
    "timezone": "Europe/Rome",
    "translations": {}
  },
  {
    "id": 139629,
    "name": "Lucca",
    "state_id": 1749,
    "state_code": "LU",
    "country_id": 107,
    "country_code": "IT",
    "latitude": "43.84369000",
    "longitude": "10.50447000",
    "native": null,
    "timezone": "Europe/Rome",
    "translations": {}
  },
  {
    "id": 139889,
    "name": "Marina di Massa",
    "state_id": 1749,
    "state_code": "LU",
    "country_id": 107,
    "country_code": "IT",
    "latitude": "44.00380000",
    "longitude": "10.10674000",
    "native": null,
    "timezone": "Europe/Rome",
    "translations": {}
  },
  {
    "id": 139980,
    "name": "Massarosa",
    "state_id": 1749,
    "state_code": "LU",
    "country_id": 107,
    "country_code": "IT",
    "latitude": "43.86638000",
    "longitude": "10.34458000",
    "native": null,
    "timezone": "Europe/Rome",
    "translations": {}
  },
  {
    "id": 140163,
    "name": "Minucciano",
    "state_id": 1749,
    "state_code": "LU",
    "country_id": 107,
    "country_code": "IT",
    "latitude": "44.17000000",
    "longitude": "10.20807000",
    "native": null,
    "timezone": "Europe/Rome",
    "translations": {}
  },
  {
    "id": 140211,
    "name": "Molazzana",
    "state_id": 1749,
    "state_code": "LU",
    "country_id": 107,
    "country_code": "IT",
    "latitude": "44.07175000",
    "longitude": "10.41780000",
    "native": null,
    "timezone": "Europe/Rome",
    "translations": {}
  },
  {
    "id": 140400,
    "name": "Montecarlo",
    "state_id": 1749,
    "state_code": "LU",
    "country_id": 107,
    "country_code": "IT",
    "latitude": "43.85218000",
    "longitude": "10.66742000",
    "native": null,
    "timezone": "Europe/Rome",
    "translations": {}
  },
  {
    "id": 140947,
    "name": "Orentano",
    "state_id": 1749,
    "state_code": "LU",
    "country_id": 107,
    "country_code": "IT",
    "latitude": "43.77907000",
    "longitude": "10.65939000",
    "native": null,
    "timezone": "Europe/Rome",
    "translations": {}
  },
  {
    "id": 58448,
    "name": "Pescaglia",
    "state_id": 1749,
    "state_code": "LU",
    "country_id": 107,
    "country_code": "IT",
    "latitude": "43.96517000",
    "longitude": "10.41292000",
    "native": null,
    "timezone": "Europe/Rome",
    "translations": {}
  },
  {
    "id": 58541,
    "name": "Piano di Conca",
    "state_id": 1749,
    "state_code": "LU",
    "country_id": 107,
    "country_code": "IT",
    "latitude": "43.89413000",
    "longitude": "10.29493000",
    "native": null,
    "timezone": "Europe/Rome",
    "translations": {}
  },
  {
    "id": 58542,
    "name": "Piano di Coreglia-Ghivizzano",
    "state_id": 1749,
    "state_code": "LU",
    "country_id": 107,
    "country_code": "IT",
    "latitude": "44.03333000",
    "longitude": "10.51667000",
    "native": null,
    "timezone": "Europe/Rome",
    "translations": {}
  },
  {
    "id": 58544,
    "name": "Piano di Mommio",
    "state_id": 1749,
    "state_code": "LU",
    "country_id": 107,
    "country_code": "IT",
    "latitude": "43.90954000",
    "longitude": "10.27435000",
    "native": null,
    "timezone": "Europe/Rome",
    "translations": {}
  },
  {
    "id": 58569,
    "name": "Piazza al Serchio-San Michele",
    "state_id": 1749,
    "state_code": "LU",
    "country_id": 107,
    "country_code": "IT",
    "latitude": "44.18455000",
    "longitude": "10.29689000",
    "native": null,
    "timezone": "Europe/Rome",
    "translations": {}
  },
  {
    "id": 58625,
    "name": "Pietrasanta",
    "state_id": 1749,
    "state_code": "LU",
    "country_id": 107,
    "country_code": "IT",
    "latitude": "43.95952000",
    "longitude": "10.22784000",
    "native": null,
    "timezone": "Europe/Rome",
    "translations": {}
  },
  {
    "id": 58635,
    "name": "Pieve Fosciana",
    "state_id": 1749,
    "state_code": "LU",
    "country_id": 107,
    "country_code": "IT",
    "latitude": "44.13067000",
    "longitude": "10.40952000",
    "native": null,
    "timezone": "Europe/Rome",
    "translations": {}
  },
  {
    "id": 58878,
    "name": "Pontestazzemese",
    "state_id": 1749,
    "state_code": "LU",
    "country_id": 107,
    "country_code": "IT",
    "latitude": "43.99665000",
    "longitude": "10.29439000",
    "native": null,
    "timezone": "Europe/Rome",
    "translations": {}
  },
  {
    "id": 58903,
    "name": "Porcari",
    "state_id": 1749,
    "state_code": "LU",
    "country_id": 107,
    "country_code": "IT",
    "latitude": "43.84152000",
    "longitude": "10.61632000",
    "native": null,
    "timezone": "Europe/Rome",
    "translations": {}
  },
  {
    "id": 59400,
    "name": "Ripa-Pozzi-Querceta-Ponterosso",
    "state_id": 1749,
    "state_code": "LU",
    "country_id": 107,
    "country_code": "IT",
    "latitude": "43.97806000",
    "longitude": "10.20372000",
    "native": null,
    "timezone": "Europe/Rome",
    "translations": {}
  },
  {
    "id": 60091,
    "name": "San Martino in Freddana-Monsagrati",
    "state_id": 1749,
    "state_code": "LU",
    "country_id": 107,
    "country_code": "IT",
    "latitude": "43.90921000",
    "longitude": "10.43778000",
    "native": null,
    "timezone": "Europe/Rome",
    "translations": {}
  },
  {
    "id": 60228,
    "name": "San Romano in Garfagnana",
    "state_id": 1749,
    "state_code": "LU",
    "country_id": 107,
    "country_code": "IT",
    "latitude": "44.16945000",
    "longitude": "10.34690000",
    "native": null,
    "timezone": "Europe/Rome",
    "translations": {}
  },
  {
    "id": 60735,
    "name": "Seravezza",
    "state_id": 1749,
    "state_code": "LU",
    "country_id": 107,
    "country_code": "IT",
    "latitude": "43.99471000",
    "longitude": "10.22720000",
    "native": null,
    "timezone": "Europe/Rome",
    "translations": {}
  },
  {
    "id": 60853,
    "name": "Sillano",
    "state_id": 1749,
    "state_code": "LU",
    "country_id": 107,
    "country_code": "IT",
    "latitude": "44.22298000",
    "longitude": "10.30235000",
    "native": null,
    "timezone": "Europe/Rome",
    "translations": {}
  },
  {
    "id": 61004,
    "name": "Spianate",
    "state_id": 1749,
    "state_code": "LU",
    "country_id": 107,
    "country_code": "IT",
    "latitude": "43.81075000",
    "longitude": "10.71510000",
    "native": null,
    "timezone": "Europe/Rome",
    "translations": {}
  },
  {
    "id": 61070,
    "name": "Stiava",
    "state_id": 1749,
    "state_code": "LU",
    "country_id": 107,
    "country_code": "IT",
    "latitude": "43.89720000",
    "longitude": "10.31798000",
    "native": null,
    "timezone": "Europe/Rome",
    "translations": {}
  },
  {
    "id": 61094,
    "name": "Strettoia",
    "state_id": 1749,
    "state_code": "LU",
    "country_id": 107,
    "country_code": "IT",
    "latitude": "43.98987000",
    "longitude": "10.19357000",
    "native": null,
    "timezone": "Europe/Rome",
    "translations": {}
  },
  {
    "id": 61372,
    "name": "Torre del Lago Puccini",
    "state_id": 1749,
    "state_code": "LU",
    "country_id": 107,
    "country_code": "IT",
    "latitude": "43.82887000",
    "longitude": "10.28912000",
    "native": null,
    "timezone": "Europe/Rome",
    "translations": {}
  },
  {
    "id": 61658,
    "name": "Valdottavo",
    "state_id": 1749,
    "state_code": "LU",
    "country_id": 107,
    "country_code": "IT",
    "latitude": "43.94187000",
    "longitude": "10.48115000",
    "native": null,
    "timezone": "Europe/Rome",
    "translations": {}
  },
  {
    "id": 61905,
    "name": "Viareggio",
    "state_id": 1749,
    "state_code": "LU",
    "country_id": 107,
    "country_code": "IT",
    "latitude": "43.86693000",
    "longitude": "10.25020000",
    "native": null,
    "timezone": "Europe/Rome",
    "translations": {}
  },
  {
    "id": 61986,
    "name": "Villa Basilica",
    "state_id": 1749,
    "state_code": "LU",
    "country_id": 107,
    "country_code": "IT",
    "latitude": "43.92572000",
    "longitude": "10.64518000",
    "native": null,
    "timezone": "Europe/Rome",
    "translations": {}
  },
  {
    "id": 61994,
    "name": "Villa Collemandina",
    "state_id": 1749,
    "state_code": "LU",
    "country_id": 107,
    "country_code": "IT",
    "latitude": "44.15855000",
    "longitude": "10.39760000",
    "native": null,
    "timezone": "Europe/Rome",
    "translations": {}
  }
]