[
  {
    "id": 135295,
    "name": "Africo Nuovo",
    "state_id": 5635,
    "state_code": "RC",
    "country_id": 107,
    "country_code": "IT",
    "latitude": "38.05067000",
    "longitude": "16.13320000",
    "native": null,
    "timezone": "Europe/Rome",
    "translations": {}
  },
  {
    "id": 135296,
    "name": "Africo Vecchio",
    "state_id": 5635,
    "state_code": "RC",
    "country_id": 107,
    "country_code": "IT",
    "latitude": "38.06667000",
    "longitude": "15.98333000",
    "native": null,
    "timezone": "Europe/Rome",
    "translations": {}
  },
  {
    "id": 135309,
    "name": "Agnana Calabra",
    "state_id": 5635,
    "state_code": "RC",
    "country_id": 107,
    "country_code": "IT",
    "latitude": "38.30206000",
    "longitude": "16.22718000",
    "native": null,
    "timezone": "Europe/Rome",
    "translations": {}
  },
  {
    "id": 135509,
    "name": "Anoia Inferiore",
    "state_id": 5635,
    "state_code": "RC",
    "country_id": 107,
    "country_code": "IT",
    "latitude": "38.43618000",
    "longitude": "16.07940000",
    "native": null,
    "timezone": "Europe/Rome",
    "translations": {}
  },
  {
    "id": 135510,
    "name": "Anoia Superiore",
    "state_id": 5635,
    "state_code": "RC",
    "country_id": 107,
    "country_code": "IT",
    "latitude": "38.43144000",
    "longitude": "16.09740000",
    "native": null,
    "timezone": "Europe/Rome",
    "translations": {}
  },
  {
    "id": 135520,
    "name": "Antonimina",
    "state_id": 5635,
    "state_code": "RC",
    "country_id": 107,
    "country_code": "IT",
    "latitude": "38.27298000",
    "longitude": "16.14824000",
    "native": null,
    "timezone": "Europe/Rome",
    "translations": {}
  },
  {
    "id": 135582,
    "name": "Ardore",
    "state_id": 5635,
    "state_code": "RC",
    "country_id": 107,
    "country_code": "IT",
    "latitude": "38.19173000",
    "longitude": "16.16734000",
    "native": null,
    "timezone": "Europe/Rome",
    "translations": {}
  },
  {
    "id": 135583,
    "name": "Ardore Marina",
    "state_id": 5635,
    "state_code": "RC",
    "country_id": 107,
    "country_code": "IT",
    "latitude": "38.16667000",
    "longitude": "16.20000000",
    "native": null,
    "timezone": "Europe/Rome",
    "translations": {}
  },
  {
    "id": 135744,
    "name": "Bagaladi",
    "state_id": 5635,
    "state_code": "RC",
    "country_id": 107,
    "country_code": "IT",
    "latitude": "38.02560000",
    "longitude": "15.82152000",
    "native": null,
    "timezone": "Europe/Rome",
    "translations": {}
  },
  {
    "id": 135749,
    "name": "Bagnara Calabra",
    "state_id": 5635,
    "state_code": "RC",
    "country_id": 107,
    "country_code": "IT",
    "latitude": "38.28778000",
    "longitude": "15.80591000",
    "native": null,
    "timezone": "Europe/Rome",
    "translations": {}
  },
  {
    "id": 135973,
    "name": "Benestare",
    "state_id": 5635,
    "state_code": "RC",
    "country_id": 107,
    "country_code": "IT",
    "latitude": "38.18487000",
    "longitude": "16.13900000",
    "native": null,
    "timezone": "Europe/Rome",
    "translations": {}
  },
  {
    "id": 136030,
    "name": "Bianco",
    "state_id": 5635,
    "state_code": "RC",
    "country_id": 107,
    "country_code": "IT",
    "latitude": "38.09170000",
    "longitude": "16.15159000",
    "native": null,
    "timezone": "Europe/Rome",
    "translations": {}
  },
  {
    "id": 136076,
    "name": "Bivongi",
    "state_id": 5635,
    "state_code": "RC",
    "country_id": 107,
    "country_code": "IT",
    "latitude": "38.48328000",
    "longitude": "16.45251000",
    "native": null,
    "timezone": "Europe/Rome",
    "translations": {}
  },
  {
    "id": 136264,
    "name": "Bova",
    "state_id": 5635,
    "state_code": "RC",
    "country_id": 107,
    "country_code": "IT",
    "latitude": "37.99507000",
    "longitude": "15.93190000",
    "native": null,
    "timezone": "Europe/Rome",
    "translations": {}
  },
  {
    "id": 136265,
    "name": "Bova Marina",
    "state_id": 5635,
    "state_code": "RC",
    "country_id": 107,
    "country_code": "IT",
    "latitude": "37.93503000",
    "longitude": "15.91736000",
    "native": null,
    "timezone": "Europe/Rome",
    "translations": {}
  },
  {
    "id": 136266,
    "name": "Bovalino",
    "state_id": 5635,
    "state_code": "RC",
    "country_id": 107,
    "country_code": "IT",
    "latitude": "38.15376000",
    "longitude": "16.17232000",
    "native": null,
    "timezone": "Europe/Rome",
    "translations": {}
  },
  {
    "id": 136267,
    "name": "Bovalino Superiore",
    "state_id": 5635,
    "state_code": "RC",
    "country_id": 107,
    "country_code": "IT",
    "latitude": "38.16905000",
    "longitude": "16.15849000",
    "native": null,
    "timezone": "Europe/Rome",
    "translations": {}
  },
  {
    "id": 136285,
    "name": "Brancaleone",
    "state_id": 5635,
    "state_code": "RC",
    "country_id": 107,
    "country_code": "IT",
    "latitude": "37.96297000",
    "longitude": "16.10040000",
    "native": null,
    "timezone": "Europe/Rome",
    "translations": {}
  },
  {
    "id": 136286,
    "name": "Brancaleone-Marina",
    "state_id": 5635,
    "state_code": "RC",
    "country_id": 107,
    "country_code": "IT",
    "latitude": "37.96667000",
    "longitude": "16.10000000",
    "native": null,
    "timezone": "Europe/Rome",
    "translations": {}
  },
  {
    "id": 136380,
    "name": "Bruzzano Zeffirio",
    "state_id": 5635,
    "state_code": "RC",
    "country_id": 107,
    "country_code": "IT",
    "latitude": "38.01327000",
    "longitude": "16.08260000",
    "native": null,
    "timezone": "Europe/Rome",
    "translations": {}
  },
  {
    "id": 136491,
    "name": "Calanna",
    "state_id": 5635,
    "state_code": "RC",
    "country_id": 107,
    "country_code": "IT",
    "latitude": "38.18457000",
    "longitude": "15.72293000",
    "native": null,
    "timezone": "Europe/Rome",
    "translations": {}
  },
  {
    "id": 136589,
    "name": "Camini",
    "state_id": 5635,
    "state_code": "RC",
    "country_id": 107,
    "country_code": "IT",
    "latitude": "38.43179000",
    "longitude": "16.48321000",
    "native": null,
    "timezone": "Europe/Rome",
    "translations": {}
  },
  {
    "id": 136627,
    "name": "Campo Calabro",
    "state_id": 5635,
    "state_code": "RC",
    "country_id": 107,
    "country_code": "IT",
    "latitude": "38.21607000",
    "longitude": "15.65919000",
    "native": null,
    "timezone": "Europe/Rome",
    "translations": {}
  },
  {
    "id": 136705,
    "name": "Candidoni",
    "state_id": 5635,
    "state_code": "RC",
    "country_id": 107,
    "country_code": "IT",
    "latitude": "38.50548000",
    "longitude": "16.08630000",
    "native": null,
    "timezone": "Europe/Rome",
    "translations": {}
  },
  {
    "id": 136728,
    "name": "Canolo",
    "state_id": 5635,
    "state_code": "RC",
    "country_id": 107,
    "country_code": "IT",
    "latitude": "38.31497000",
    "longitude": "16.19990000",
    "native": null,
    "timezone": "Europe/Rome",
    "translations": {}
  },
  {
    "id": 136827,
    "name": "Caraffa del Bianco",
    "state_id": 5635,
    "state_code": "RC",
    "country_id": 107,
    "country_code": "IT",
    "latitude": "38.09259000",
    "longitude": "16.08766000",
    "native": null,
    "timezone": "Europe/Rome",
    "translations": {}
  },
  {
    "id": 136860,
    "name": "Cardeto",
    "state_id": 5635,
    "state_code": "RC",
    "country_id": 107,
    "country_code": "IT",
    "latitude": "38.08440000",
    "longitude": "15.76577000",
    "native": null,
    "timezone": "Europe/Rome",
    "translations": {}
  },
  {
    "id": 136868,
    "name": "Careri",
    "state_id": 5635,
    "state_code": "RC",
    "country_id": 107,
    "country_code": "IT",
    "latitude": "38.17741000",
    "longitude": "16.11614000",
    "native": null,
    "timezone": "Europe/Rome",
    "translations": {}
  },
  {
    "id": 137069,
    "name": "Casignana",
    "state_id": 5635,
    "state_code": "RC",
    "country_id": 107,
    "country_code": "IT",
    "latitude": "38.10187000",
    "longitude": "16.08990000",
    "native": null,
    "timezone": "Europe/Rome",
    "translations": {}
  },
  {
    "id": 137398,
    "name": "Caulonia",
    "state_id": 5635,
    "state_code": "RC",
    "country_id": 107,
    "country_code": "IT",
    "latitude": "38.38171000",
    "longitude": "16.40951000",
    "native": null,
    "timezone": "Europe/Rome",
    "translations": {}
  },
  {
    "id": 137399,
    "name": "Caulonia Marina",
    "state_id": 5635,
    "state_code": "RC",
    "country_id": 107,
    "country_code": "IT",
    "latitude": "38.34679000",
    "longitude": "16.46353000",
    "native": null,
    "timezone": "Europe/Rome",
    "translations": {}
  },
  {
    "id": 137512,
    "name": "Ceramida-Pellegrina",
    "state_id": 5635,
    "state_code": "RC",
    "country_id": 107,
    "country_code": "IT",
    "latitude": "38.29667000",
    "longitude": "15.82572000",
    "native": null,
    "timezone": "Europe/Rome",
    "translations": {}
  },
  {
    "id": 137725,
    "name": "Ciminà",
    "state_id": 5635,
    "state_code": "RC",
    "country_id": 107,
    "country_code": "IT",
    "latitude": "38.24618000",
    "longitude": "16.14023000",
    "native": null,
    "timezone": "Europe/Rome",
    "translations": {}
  },
  {
    "id": 137737,
    "name": "Cinque Frondi",
    "state_id": 5635,
    "state_code": "RC",
    "country_id": 107,
    "country_code": "IT",
    "latitude": "38.41618000",
    "longitude": "16.08420000",
    "native": null,
    "timezone": "Europe/Rome",
    "translations": {}
  },
  {
    "id": 137768,
    "name": "Cittanova",
    "state_id": 5635,
    "state_code": "RC",
    "country_id": 107,
    "country_code": "IT",
    "latitude": "38.35431000",
    "longitude": "16.07898000",
    "native": null,
    "timezone": "Europe/Rome",
    "translations": {}
  },
  {
    "id": 137963,
    "name": "Condofuri",
    "state_id": 5635,
    "state_code": "RC",
    "country_id": 107,
    "country_code": "IT",
    "latitude": "38.00447000",
    "longitude": "15.85770000",
    "native": null,
    "timezone": "Europe/Rome",
    "translations": {}
  },
  {
    "id": 138082,
    "name": "Cosoleto",
    "state_id": 5635,
    "state_code": "RC",
    "country_id": 107,
    "country_code": "IT",
    "latitude": "38.27483000",
    "longitude": "15.92814000",
    "native": null,
    "timezone": "Europe/Rome",
    "translations": {}
  },
  {
    "id": 138243,
    "name": "Delianuova",
    "state_id": 5635,
    "state_code": "RC",
    "country_id": 107,
    "country_code": "IT",
    "latitude": "38.23587000",
    "longitude": "15.91714000",
    "native": null,
    "timezone": "Europe/Rome",
    "translations": {}
  },
  {
    "id": 138450,
    "name": "Faro Superiore",
    "state_id": 5635,
    "state_code": "RC",
    "country_id": 107,
    "country_code": "IT",
    "latitude": "38.26794000",
    "longitude": "15.58268000",
    "native": null,
    "timezone": "Europe/Rome",
    "translations": {}
  },
  {
    "id": 138486,
    "name": "Feroleto della Chiesa",
    "state_id": 5635,
    "state_code": "RC",
    "country_id": 107,
    "country_code": "IT",
    "latitude": "38.46609000",
    "longitude": "16.07012000",
    "native": null,
    "timezone": "Europe/Rome",
    "translations": {}
  },
  {
    "id": 138498,
    "name": "Ferruzzano",
    "state_id": 5635,
    "state_code": "RC",
    "country_id": 107,
    "country_code": "IT",
    "latitude": "38.03699000",
    "longitude": "16.08918000",
    "native": null,
    "timezone": "Europe/Rome",
    "translations": {}
  },
  {
    "id": 138549,
    "name": "Fiumara",
    "state_id": 5635,
    "state_code": "RC",
    "country_id": 107,
    "country_code": "IT",
    "latitude": "38.21267000",
    "longitude": "15.69369000",
    "native": null,
    "timezone": "Europe/Rome",
    "translations": {}
  },
  {
    "id": 138675,
    "name": "Fossato Ionico-Fossatello-San Luca Marcelluzzo",
    "state_id": 5635,
    "state_code": "RC",
    "country_id": 107,
    "country_code": "IT",
    "latitude": "38.01065000",
    "longitude": "15.76302000",
    "native": null,
    "timezone": "Europe/Rome",
    "translations": {}
  },
  {
    "id": 138797,
    "name": "Galatro",
    "state_id": 5635,
    "state_code": "RC",
    "country_id": 107,
    "country_code": "IT",
    "latitude": "38.46067000",
    "longitude": "16.10840000",
    "native": null,
    "timezone": "Europe/Rome",
    "translations": {}
  },
  {
    "id": 138907,
    "name": "Gerace",
    "state_id": 5635,
    "state_code": "RC",
    "country_id": 107,
    "country_code": "IT",
    "latitude": "38.27137000",
    "longitude": "16.22070000",
    "native": null,
    "timezone": "Europe/Rome",
    "translations": {}
  },
  {
    "id": 138956,
    "name": "Giffone",
    "state_id": 5635,
    "state_code": "RC",
    "country_id": 107,
    "country_code": "IT",
    "latitude": "38.43957000",
    "longitude": "16.14898000",
    "native": null,
    "timezone": "Europe/Rome",
    "translations": {}
  },
  {
    "id": 138969,
    "name": "Gioia Tauro",
    "state_id": 5635,
    "state_code": "RC",
    "country_id": 107,
    "country_code": "IT",
    "latitude": "38.42510000",
    "longitude": "15.89750000",
    "native": null,
    "timezone": "Europe/Rome",
    "translations": {}
  },
  {
    "id": 138972,
    "name": "Gioiosa Ionica",
    "state_id": 5635,
    "state_code": "RC",
    "country_id": 107,
    "country_code": "IT",
    "latitude": "38.32723000",
    "longitude": "16.30407000",
    "native": null,
    "timezone": "Europe/Rome",
    "translations": {}
  },
  {
    "id": 139128,
    "name": "Grotteria",
    "state_id": 5635,
    "state_code": "RC",
    "country_id": 107,
    "country_code": "IT",
    "latitude": "38.36509000",
    "longitude": "16.26522000",
    "native": null,
    "timezone": "Europe/Rome",
    "translations": {}
  },
  {
    "id": 139157,
    "name": "Guardavalle Marina",
    "state_id": 5635,
    "state_code": "RC",
    "country_id": 107,
    "country_code": "IT",
    "latitude": "38.47957000",
    "longitude": "16.57656000",
    "native": null,
    "timezone": "Europe/Rome",
    "translations": {}
  },
  {
    "id": 139320,
    "name": "Laganadi",
    "state_id": 5635,
    "state_code": "RC",
    "country_id": 107,
    "country_code": "IT",
    "latitude": "38.17391000",
    "longitude": "15.74133000",
    "native": null,
    "timezone": "Europe/Rome",
    "translations": {}
  },
  {
    "id": 139398,
    "name": "Laureana di Borrello",
    "state_id": 5635,
    "state_code": "RC",
    "country_id": 107,
    "country_code": "IT",
    "latitude": "38.49215000",
    "longitude": "16.08429000",
    "native": null,
    "timezone": "Europe/Rome",
    "translations": {}
  },
  {
    "id": 139421,
    "name": "Lazzaro",
    "state_id": 5635,
    "state_code": "RC",
    "country_id": 107,
    "country_code": "IT",
    "latitude": "37.97276000",
    "longitude": "15.66511000",
    "native": null,
    "timezone": "Europe/Rome",
    "translations": {}
  },
  {
    "id": 139566,
    "name": "Locri",
    "state_id": 5635,
    "state_code": "RC",
    "country_id": 107,
    "country_code": "IT",
    "latitude": "38.23868000",
    "longitude": "16.25957000",
    "native": null,
    "timezone": "Europe/Rome",
    "translations": {}
  },
  {
    "id": 139780,
    "name": "Mammola",
    "state_id": 5635,
    "state_code": "RC",
    "country_id": 107,
    "country_code": "IT",
    "latitude": "38.36262000",
    "longitude": "16.23871000",
    "native": null,
    "timezone": "Europe/Rome",
    "translations": {}
  },
  {
    "id": 139887,
    "name": "Marina di Gioiosa Ionica",
    "state_id": 5635,
    "state_code": "RC",
    "country_id": 107,
    "country_code": "IT",
    "latitude": "38.30159000",
    "longitude": "16.33148000",
    "native": null,
    "timezone": "Europe/Rome",
    "translations": {}
  },
  {
    "id": 139912,
    "name": "Maropati",
    "state_id": 5635,
    "state_code": "RC",
    "country_id": 107,
    "country_code": "IT",
    "latitude": "38.44178000",
    "longitude": "16.09750000",
    "native": null,
    "timezone": "Europe/Rome",
    "translations": {}
  },
  {
    "id": 139940,
    "name": "Martone",
    "state_id": 5635,
    "state_code": "RC",
    "country_id": 107,
    "country_code": "IT",
    "latitude": "38.35353000",
    "longitude": "16.28800000",
    "native": null,
    "timezone": "Europe/Rome",
    "translations": {}
  },
  {
    "id": 140046,
    "name": "Melicuccà",
    "state_id": 5635,
    "state_code": "RC",
    "country_id": 107,
    "country_code": "IT",
    "latitude": "38.30311000",
    "longitude": "15.88153000",
    "native": null,
    "timezone": "Europe/Rome",
    "translations": {}
  },
  {
    "id": 140045,
    "name": "Melicucco",
    "state_id": 5635,
    "state_code": "RC",
    "country_id": 107,
    "country_code": "IT",
    "latitude": "38.43298000",
    "longitude": "16.05748000",
    "native": null,
    "timezone": "Europe/Rome",
    "translations": {}
  },
  {
    "id": 140052,
    "name": "Melito di Porto Salvo",
    "state_id": 5635,
    "state_code": "RC",
    "country_id": 107,
    "country_code": "IT",
    "latitude": "37.92629000",
    "longitude": "15.74990000",
    "native": null,
    "timezone": "Europe/Rome",
    "translations": {}
  },
  {
    "id": 140097,
    "name": "Messignadi",
    "state_id": 5635,
    "state_code": "RC",
    "country_id": 107,
    "country_code": "IT",
    "latitude": "38.29964000",
    "longitude": "15.99642000",
    "native": null,
    "timezone": "Europe/Rome",
    "translations": {}
  },
  {
    "id": 140230,
    "name": "Molochio",
    "state_id": 5635,
    "state_code": "RC",
    "country_id": 107,
    "country_code": "IT",
    "latitude": "38.30789000",
    "longitude": "16.03141000",
    "native": null,
    "timezone": "Europe/Rome",
    "translations": {}
  },
  {
    "id": 140250,
    "name": "Monasterace",
    "state_id": 5635,
    "state_code": "RC",
    "country_id": 107,
    "country_code": "IT",
    "latitude": "38.45318000",
    "longitude": "16.55163000",
    "native": null,
    "timezone": "Europe/Rome",
    "translations": {}
  },
  {
    "id": 140251,
    "name": "Monasterace Marina",
    "state_id": 5635,
    "state_code": "RC",
    "country_id": 107,
    "country_code": "IT",
    "latitude": "38.43489000",
    "longitude": "16.57025000",
    "native": null,
    "timezone": "Europe/Rome",
    "translations": {}
  },
  {
    "id": 140387,
    "name": "Montebello Jonico",
    "state_id": 5635,
    "state_code": "RC",
    "country_id": 107,
    "country_code": "IT",
    "latitude": "37.98277000",
    "longitude": "15.75800000",
    "native": null,
    "timezone": "Europe/Rome",
    "translations": {}
  },
  {
    "id": 140650,
    "name": "Mosorrofa",
    "state_id": 5635,
    "state_code": "RC",
    "country_id": 107,
    "country_code": "IT",
    "latitude": "38.09500000",
    "longitude": "15.71259000",
    "native": null,
    "timezone": "Europe/Rome",
    "translations": {}
  },
  {
    "id": 140660,
    "name": "Motta San Giovanni",
    "state_id": 5635,
    "state_code": "RC",
    "country_id": 107,
    "country_code": "IT",
    "latitude": "38.01027000",
    "longitude": "15.71262000",
    "native": null,
    "timezone": "Europe/Rome",
    "translations": {}
  },
  {
    "id": 140725,
    "name": "Natile Nuovo",
    "state_id": 5635,
    "state_code": "RC",
    "country_id": 107,
    "country_code": "IT",
    "latitude": "38.18583000",
    "longitude": "16.08527000",
    "native": null,
    "timezone": "Europe/Rome",
    "translations": {}
  },
  {
    "id": 140935,
    "name": "Oppido Mamertina",
    "state_id": 5635,
    "state_code": "RC",
    "country_id": 107,
    "country_code": "IT",
    "latitude": "38.29337000",
    "longitude": "15.98390000",
    "native": null,
    "timezone": "Europe/Rome",
    "translations": {}
  },
  {
    "id": 58246,
    "name": "Palizzi",
    "state_id": 5635,
    "state_code": "RC",
    "country_id": 107,
    "country_code": "IT",
    "latitude": "37.96667000",
    "longitude": "15.98670000",
    "native": null,
    "timezone": "Europe/Rome",
    "translations": {}
  },
  {
    "id": 58247,
    "name": "Palizzi Marina",
    "state_id": 5635,
    "state_code": "RC",
    "country_id": 107,
    "country_code": "IT",
    "latitude": "37.91995000",
    "longitude": "15.97927000",
    "native": null,
    "timezone": "Europe/Rome",
    "translations": {}
  },
  {
    "id": 58258,
    "name": "Palmi",
    "state_id": 5635,
    "state_code": "RC",
    "country_id": 107,
    "country_code": "IT",
    "latitude": "38.35943000",
    "longitude": "15.85155000",
    "native": null,
    "timezone": "Europe/Rome",
    "translations": {}
  },
  {
    "id": 58361,
    "name": "Pavigliana",
    "state_id": 5635,
    "state_code": "RC",
    "country_id": 107,
    "country_code": "IT",
    "latitude": "38.10721000",
    "longitude": "15.72108000",
    "native": null,
    "timezone": "Europe/Rome",
    "translations": {}
  },
  {
    "id": 58366,
    "name": "Pazzano",
    "state_id": 5635,
    "state_code": "RC",
    "country_id": 107,
    "country_code": "IT",
    "latitude": "38.47612000",
    "longitude": "16.45107000",
    "native": null,
    "timezone": "Europe/Rome",
    "translations": {}
  },
  {
    "id": 58392,
    "name": "Pellaro",
    "state_id": 5635,
    "state_code": "RC",
    "country_id": 107,
    "country_code": "IT",
    "latitude": "38.01667000",
    "longitude": "15.65000000",
    "native": null,
    "timezone": "Europe/Rome",
    "translations": {}
  },
  {
    "id": 58731,
    "name": "Placanica",
    "state_id": 5635,
    "state_code": "RC",
    "country_id": 107,
    "country_code": "IT",
    "latitude": "38.41078000",
    "longitude": "16.45274000",
    "native": null,
    "timezone": "Europe/Rome",
    "translations": {}
  },
  {
    "id": 58735,
    "name": "Platì",
    "state_id": 5635,
    "state_code": "RC",
    "country_id": 107,
    "country_code": "IT",
    "latitude": "38.22149000",
    "longitude": "16.04530000",
    "native": null,
    "timezone": "Europe/Rome",
    "translations": {}
  },
  {
    "id": 58793,
    "name": "Polistena",
    "state_id": 5635,
    "state_code": "RC",
    "country_id": 107,
    "country_code": "IT",
    "latitude": "38.40544000",
    "longitude": "16.07330000",
    "native": null,
    "timezone": "Europe/Rome",
    "translations": {}
  },
  {
    "id": 58921,
    "name": "Portigliola",
    "state_id": 5635,
    "state_code": "RC",
    "country_id": 107,
    "country_code": "IT",
    "latitude": "38.22712000",
    "longitude": "16.20287000",
    "native": null,
    "timezone": "Europe/Rome",
    "translations": {}
  },
  {
    "id": 59320,
    "name": "Reggio Calabria",
    "state_id": 5635,
    "state_code": "RC",
    "country_id": 107,
    "country_code": "IT",
    "latitude": "38.11047000",
    "longitude": "15.66129000",
    "native": null,
    "timezone": "Europe/Rome",
    "translations": {}
  },
  {
    "id": 59353,
    "name": "Riace",
    "state_id": 5635,
    "state_code": "RC",
    "country_id": 107,
    "country_code": "IT",
    "latitude": "38.41828000",
    "longitude": "16.48121000",
    "native": null,
    "timezone": "Europe/Rome",
    "translations": {}
  },
  {
    "id": 59354,
    "name": "Riace Marina",
    "state_id": 5635,
    "state_code": "RC",
    "country_id": 107,
    "country_code": "IT",
    "latitude": "38.39186000",
    "longitude": "16.53033000",
    "native": null,
    "timezone": "Europe/Rome",
    "translations": {}
  },
  {
    "id": 59445,
    "name": "Rizziconi",
    "state_id": 5635,
    "state_code": "RC",
    "country_id": 107,
    "country_code": "IT",
    "latitude": "38.40994000",
    "longitude": "15.95974000",
    "native": null,
    "timezone": "Europe/Rome",
    "translations": {}
  },
  {
    "id": 59499,
    "name": "Roccaforte del Greco",
    "state_id": 5635,
    "state_code": "RC",
    "country_id": 107,
    "country_code": "IT",
    "latitude": "38.04751000",
    "longitude": "15.89198000",
    "native": null,
    "timezone": "Europe/Rome",
    "translations": {}
  },
  {
    "id": 59532,
    "name": "Roccella Ionica",
    "state_id": 5635,
    "state_code": "RC",
    "country_id": 107,
    "country_code": "IT",
    "latitude": "38.32117000",
    "longitude": "16.39689000",
    "native": null,
    "timezone": "Europe/Rome",
    "translations": {}
  },
  {
    "id": 59560,
    "name": "Roghudi",
    "state_id": 5635,
    "state_code": "RC",
    "country_id": 107,
    "country_code": "IT",
    "latitude": "37.92499000",
    "longitude": "15.76537000",
    "native": null,
    "timezone": "Europe/Rome",
    "translations": {}
  },
  {
    "id": 59625,
    "name": "Rosarno",
    "state_id": 5635,
    "state_code": "RC",
    "country_id": 107,
    "country_code": "IT",
    "latitude": "38.48717000",
    "longitude": "15.97956000",
    "native": null,
    "timezone": "Europe/Rome",
    "translations": {}
  },
  {
    "id": 59771,
    "name": "Saline Ioniche",
    "state_id": 5635,
    "state_code": "RC",
    "country_id": 107,
    "country_code": "IT",
    "latitude": "37.93957000",
    "longitude": "15.71943000",
    "native": null,
    "timezone": "Europe/Rome",
    "translations": {}
  },
  {
    "id": 59811,
    "name": "Samo",
    "state_id": 5635,
    "state_code": "RC",
    "country_id": 107,
    "country_code": "IT",
    "latitude": "38.07399000",
    "longitude": "16.05933000",
    "native": null,
    "timezone": "Europe/Rome",
    "translations": {}
  },
  {
    "id": 59856,
    "name": "San Carlo-Condofuri Marina",
    "state_id": 5635,
    "state_code": "RC",
    "country_id": 107,
    "country_code": "IT",
    "latitude": "37.93324000",
    "longitude": "15.87166000",
    "native": null,
    "timezone": "Europe/Rome",
    "translations": {}
  },
  {
    "id": 59913,
    "name": "San Ferdinando",
    "state_id": 5635,
    "state_code": "RC",
    "country_id": 107,
    "country_code": "IT",
    "latitude": "38.48403000",
    "longitude": "15.91877000",
    "native": null,
    "timezone": "Europe/Rome",
    "translations": {}
  },
  {
    "id": 59959,
    "name": "San Giorgio Morgeto",
    "state_id": 5635,
    "state_code": "RC",
    "country_id": 107,
    "country_code": "IT",
    "latitude": "38.39190000",
    "longitude": "16.08790000",
    "native": null,
    "timezone": "Europe/Rome",
    "translations": {}
  },
  {
    "id": 59995,
    "name": "San Giovanni di Gerace",
    "state_id": 5635,
    "state_code": "RC",
    "country_id": 107,
    "country_code": "IT",
    "latitude": "38.36508000",
    "longitude": "16.27770000",
    "native": null,
    "timezone": "Europe/Rome",
    "translations": {}
  },
  {
    "id": 60036,
    "name": "San Lorenzo",
    "state_id": 5635,
    "state_code": "RC",
    "country_id": 107,
    "country_code": "IT",
    "latitude": "38.01097000",
    "longitude": "15.83440000",
    "native": null,
    "timezone": "Europe/Rome",
    "translations": {}
  },
  {
    "id": 60050,
    "name": "San Luca",
    "state_id": 5635,
    "state_code": "RC",
    "country_id": 107,
    "country_code": "IT",
    "latitude": "38.14672000",
    "longitude": "16.06625000",
    "native": null,
    "timezone": "Europe/Rome",
    "translations": {}
  },
  {
    "id": 60067,
    "name": "San Martino",
    "state_id": 5635,
    "state_code": "RC",
    "country_id": 107,
    "country_code": "IT",
    "latitude": "38.36157000",
    "longitude": "15.97634000",
    "native": null,
    "timezone": "Europe/Rome",
    "translations": {}
  },
  {
    "id": 60136,
    "name": "San Nicola",
    "state_id": 5635,
    "state_code": "RC",
    "country_id": 107,
    "country_code": "IT",
    "latitude": "38.21199000",
    "longitude": "15.69381000",
    "native": null,
    "timezone": "Europe/Rome",
    "translations": {}
  },
  {
    "id": 60192,
    "name": "San Pietro di Caridà",
    "state_id": 5635,
    "state_code": "RC",
    "country_id": 107,
    "country_code": "IT",
    "latitude": "38.52368000",
    "longitude": "16.13530000",
    "native": null,
    "timezone": "Europe/Rome",
    "translations": {}
  },
  {
    "id": 60214,
    "name": "San Procopio",
    "state_id": 5635,
    "state_code": "RC",
    "country_id": 107,
    "country_code": "IT",
    "latitude": "38.28214000",
    "longitude": "15.89083000",
    "native": null,
    "timezone": "Europe/Rome",
    "translations": {}
  },
  {
    "id": 60221,
    "name": "San Roberto",
    "state_id": 5635,
    "state_code": "RC",
    "country_id": 107,
    "country_code": "IT",
    "latitude": "38.21114000",
    "longitude": "15.73594000",
    "native": null,
    "timezone": "Europe/Rome",
    "translations": {}
  },
  {
    "id": 60321,
    "name": "Sant'Agata del Bianco",
    "state_id": 5635,
    "state_code": "RC",
    "country_id": 107,
    "country_code": "IT",
    "latitude": "38.09242000",
    "longitude": "16.08251000",
    "native": null,
    "timezone": "Europe/Rome",
    "translations": {}
  },
  {
    "id": 60335,
    "name": "Sant'Alessio in Aspromonte",
    "state_id": 5635,
    "state_code": "RC",
    "country_id": 107,
    "country_code": "IT",
    "latitude": "38.17220000",
    "longitude": "15.75730000",
    "native": null,
    "timezone": "Europe/Rome",
    "translations": {}
  },
  {
    "id": 60401,
    "name": "Sant'Eufemia d'Aspromonte",
    "state_id": 5635,
    "state_code": "RC",
    "country_id": 107,
    "country_code": "IT",
    "latitude": "38.26314000",
    "longitude": "15.85669000",
    "native": null,
    "timezone": "Europe/Rome",
    "translations": {}
  },
  {
    "id": 60405,
    "name": "Sant'Ilario dello Ionio",
    "state_id": 5635,
    "state_code": "RC",
    "country_id": 107,
    "country_code": "IT",
    "latitude": "38.21914000",
    "longitude": "16.19517000",
    "native": null,
    "timezone": "Europe/Rome",
    "translations": {}
  },
  {
    "id": 60424,
    "name": "Santa Cristina d'Aspromonte",
    "state_id": 5635,
    "state_code": "RC",
    "country_id": 107,
    "country_code": "IT",
    "latitude": "38.25480000",
    "longitude": "15.96996000",
    "native": null,
    "timezone": "Europe/Rome",
    "translations": {}
  },
  {
    "id": 60525,
    "name": "Santo Stefano in Aspromonte",
    "state_id": 5635,
    "state_code": "RC",
    "country_id": 107,
    "country_code": "IT",
    "latitude": "38.16909000",
    "longitude": "15.78983000",
    "native": null,
    "timezone": "Europe/Rome",
    "translations": {}
  },
  {
    "id": 60654,
    "name": "Scido",
    "state_id": 5635,
    "state_code": "RC",
    "country_id": 107,
    "country_code": "IT",
    "latitude": "38.24439000",
    "longitude": "15.93251000",
    "native": null,
    "timezone": "Europe/Rome",
    "translations": {}
  },
  {
    "id": 60655,
    "name": "Scilla",
    "state_id": 5635,
    "state_code": "RC",
    "country_id": 107,
    "country_code": "IT",
    "latitude": "38.25201000",
    "longitude": "15.71837000",
    "native": null,
    "timezone": "Europe/Rome",
    "translations": {}
  },
  {
    "id": 60715,
    "name": "Seminara",
    "state_id": 5635,
    "state_code": "RC",
    "country_id": 107,
    "country_code": "IT",
    "latitude": "38.33603000",
    "longitude": "15.87025000",
    "native": null,
    "timezone": "Europe/Rome",
    "translations": {}
  },
  {
    "id": 60770,
    "name": "Serrata",
    "state_id": 5635,
    "state_code": "RC",
    "country_id": 107,
    "country_code": "IT",
    "latitude": "38.51288000",
    "longitude": "16.10070000",
    "native": null,
    "timezone": "Europe/Rome",
    "translations": {}
  },
  {
    "id": 60842,
    "name": "Siderno",
    "state_id": 5635,
    "state_code": "RC",
    "country_id": 107,
    "country_code": "IT",
    "latitude": "38.26993000",
    "longitude": "16.29607000",
    "native": null,
    "timezone": "Europe/Rome",
    "translations": {}
  },
  {
    "id": 60870,
    "name": "Sinopoli",
    "state_id": 5635,
    "state_code": "RC",
    "country_id": 107,
    "country_code": "IT",
    "latitude": "38.26342000",
    "longitude": "15.87710000",
    "native": null,
    "timezone": "Europe/Rome",
    "translations": {}
  },
  {
    "id": 61042,
    "name": "Staiti",
    "state_id": 5635,
    "state_code": "RC",
    "country_id": 107,
    "country_code": "IT",
    "latitude": "37.99989000",
    "longitude": "16.03341000",
    "native": null,
    "timezone": "Europe/Rome",
    "translations": {}
  },
  {
    "id": 61074,
    "name": "Stignano",
    "state_id": 5635,
    "state_code": "RC",
    "country_id": 107,
    "country_code": "IT",
    "latitude": "38.41705000",
    "longitude": "16.47011000",
    "native": null,
    "timezone": "Europe/Rome",
    "translations": {}
  },
  {
    "id": 61075,
    "name": "Stilo",
    "state_id": 5635,
    "state_code": "RC",
    "country_id": 107,
    "country_code": "IT",
    "latitude": "38.47628000",
    "longitude": "16.46746000",
    "native": null,
    "timezone": "Europe/Rome",
    "translations": {}
  },
  {
    "id": 61176,
    "name": "Taurianova",
    "state_id": 5635,
    "state_code": "RC",
    "country_id": 107,
    "country_code": "IT",
    "latitude": "38.35525000",
    "longitude": "16.01306000",
    "native": null,
    "timezone": "Europe/Rome",
    "translations": {}
  },
  {
    "id": 61239,
    "name": "Terranova Sappo Minulio",
    "state_id": 5635,
    "state_code": "RC",
    "country_id": 107,
    "country_code": "IT",
    "latitude": "38.32175000",
    "longitude": "16.00747000",
    "native": null,
    "timezone": "Europe/Rome",
    "translations": {}
  },
  {
    "id": 61763,
    "name": "Varapodio",
    "state_id": 5635,
    "state_code": "RC",
    "country_id": 107,
    "country_code": "IT",
    "latitude": "38.31633000",
    "longitude": "15.98347000",
    "native": null,
    "timezone": "Europe/Rome",
    "translations": {}
  },
  {
    "id": 62017,
    "name": "Villa San Giovanni",
    "state_id": 5635,
    "state_code": "RC",
    "country_id": 107,
    "country_code": "IT",
    "latitude": "38.21991000",
    "longitude": "15.63689000",
    "native": null,
    "timezone": "Europe/Rome",
    "translations": {}
  },
  {
    "id": 62227,
    "name": "Weather Station",
    "state_id": 5635,
    "state_code": "RC",
    "country_id": 107,
    "country_code": "IT",
    "latitude": "37.96136000",
    "longitude": "16.09970000",
    "native": null,
    "timezone": "Europe/Rome",
    "translations": {}
  }
]