[
  {
    "id": 19282,
    "name": "Anlu",
    "state_id": 2274,
    "state_code": "HB",
    "country_id": 45,
    "country_code": "CN",
    "latitude": "31.25750000",
    "longitude": "113.67833000",
    "native": null,
    "timezone": "Asia/Shanghai",
    "translations": {}
  },
  {
    "id": 158187,
    "name": "Anlu",
    "state_id": 2274,
    "state_code": "HB",
    "country_id": 45,
    "country_code": "CN",
    "latitude": "31.30662190",
    "longitude": "113.64802030",
    "native": null,
    "timezone": "Asia/Shanghai",
    "translations": {}
  },
  {
    "id": 158219,
    "name": "Badong",
    "state_id": 2274,
    "state_code": "HB",
    "country_id": 45,
    "country_code": "CN",
    "latitude": "31.04464430",
    "longitude": "110.33529570",
    "native": null,
    "timezone": "Asia/Shanghai",
    "translations": {}
  },
  {
    "id": 158170,
    "name": "Baokang",
    "state_id": 2274,
    "state_code": "HB",
    "country_id": 45,
    "country_code": "CN",
    "latitude": "31.87993380",
    "longitude": "111.25558530",
    "native": null,
    "timezone": "Asia/Shanghai",
    "translations": {}
  },
  {
    "id": 19353,
    "name": "Buhe",
    "state_id": 2274,
    "state_code": "HB",
    "country_id": 45,
    "country_code": "CN",
    "latitude": "30.28757000",
    "longitude": "112.22979000",
    "native": null,
    "timezone": "Asia/Shanghai",
    "translations": {}
  },
  {
    "id": 19355,
    "name": "Caidian",
    "state_id": 2274,
    "state_code": "HB",
    "country_id": 45,
    "country_code": "CN",
    "latitude": "30.58333000",
    "longitude": "114.03333000",
    "native": null,
    "timezone": "Asia/Shanghai",
    "translations": {}
  },
  {
    "id": 158134,
    "name": "Caidian",
    "state_id": 2274,
    "state_code": "HB",
    "country_id": 45,
    "country_code": "CN",
    "latitude": "30.53892890",
    "longitude": "114.08210560",
    "native": null,
    "timezone": "Asia/Shanghai",
    "translations": {}
  },
  {
    "id": 19359,
    "name": "Caohe",
    "state_id": 2274,
    "state_code": "HB",
    "country_id": 45,
    "country_code": "CN",
    "latitude": "30.22970000",
    "longitude": "115.43346000",
    "native": null,
    "timezone": "Asia/Shanghai",
    "translations": {}
  },
  {
    "id": 158160,
    "name": "Changyang",
    "state_id": 2274,
    "state_code": "HB",
    "country_id": 45,
    "country_code": "CN",
    "latitude": "30.47521050",
    "longitude": "111.20152650",
    "native": null,
    "timezone": "Asia/Shanghai",
    "translations": {}
  },
  {
    "id": 19396,
    "name": "Chengzhong",
    "state_id": 2274,
    "state_code": "HB",
    "country_id": 45,
    "country_code": "CN",
    "latitude": "30.94454000",
    "longitude": "113.55284000",
    "native": null,
    "timezone": "Asia/Shanghai",
    "translations": {}
  },
  {
    "id": 158212,
    "name": "Chibi",
    "state_id": 2274,
    "state_code": "HB",
    "country_id": 45,
    "country_code": "CN",
    "latitude": "29.72817000",
    "longitude": "113.89512220",
    "native": null,
    "timezone": "Asia/Shanghai",
    "translations": {}
  },
  {
    "id": 158210,
    "name": "Chongyang",
    "state_id": 2274,
    "state_code": "HB",
    "country_id": 45,
    "country_code": "CN",
    "latitude": "29.55882530",
    "longitude": "114.03382890",
    "native": null,
    "timezone": "Asia/Shanghai",
    "translations": {}
  },
  {
    "id": 158163,
    "name": "Dangyang",
    "state_id": 2274,
    "state_code": "HB",
    "country_id": 45,
    "country_code": "CN",
    "latitude": "30.82386360",
    "longitude": "111.78239660",
    "native": null,
    "timezone": "Asia/Shanghai",
    "translations": {}
  },
  {
    "id": 19425,
    "name": "Danjiangkou",
    "state_id": 2274,
    "state_code": "HB",
    "country_id": 45,
    "country_code": "CN",
    "latitude": "32.54278000",
    "longitude": "111.50861000",
    "native": null,
    "timezone": "Asia/Shanghai",
    "translations": {}
  },
  {
    "id": 158151,
    "name": "Danjiangkou",
    "state_id": 2274,
    "state_code": "HB",
    "country_id": 45,
    "country_code": "CN",
    "latitude": "32.54538210",
    "longitude": "111.18466050",
    "native": null,
    "timezone": "Asia/Shanghai",
    "translations": {}
  },
  {
    "id": 158184,
    "name": "Dawu",
    "state_id": 2274,
    "state_code": "HB",
    "country_id": 45,
    "country_code": "CN",
    "latitude": "31.60942700",
    "longitude": "114.31208200",
    "native": null,
    "timezone": "Asia/Shanghai",
    "translations": {}
  },
  {
    "id": 19440,
    "name": "Daye",
    "state_id": 2274,
    "state_code": "HB",
    "country_id": 45,
    "country_code": "CN",
    "latitude": "30.08333000",
    "longitude": "114.95000000",
    "native": null,
    "timezone": "Asia/Shanghai",
    "translations": {}
  },
  {
    "id": 158143,
    "name": "Daye",
    "state_id": 2274,
    "state_code": "HB",
    "country_id": 45,
    "country_code": "CN",
    "latitude": "30.09855670",
    "longitude": "114.97480740",
    "native": null,
    "timezone": "Asia/Shanghai",
    "translations": {}
  },
  {
    "id": 158154,
    "name": "Dianjun",
    "state_id": 2274,
    "state_code": "HB",
    "country_id": 45,
    "country_code": "CN",
    "latitude": "30.68114940",
    "longitude": "111.25109560",
    "native": null,
    "timezone": "Asia/Shanghai",
    "translations": {}
  },
  {
    "id": 158224,
    "name": "Directly",
    "state_id": 2274,
    "state_code": "HB",
    "country_id": 45,
    "country_code": "CN",
    "latitude": "0.00000000",
    "longitude": "0.00000000",
    "native": null,
    "timezone": "Asia/Shanghai",
    "translations": {}
  },
  {
    "id": 158177,
    "name": "Dongbao",
    "state_id": 2274,
    "state_code": "HB",
    "country_id": 45,
    "country_code": "CN",
    "latitude": "31.05406000",
    "longitude": "112.19557670",
    "native": null,
    "timezone": "Asia/Shanghai",
    "translations": {}
  },
  {
    "id": 158132,
    "name": "Dongxihu",
    "state_id": 2274,
    "state_code": "HB",
    "country_id": 45,
    "country_code": "CN",
    "latitude": "30.62083290",
    "longitude": "114.13076160",
    "native": null,
    "timezone": "Asia/Shanghai",
    "translations": {}
  },
  {
    "id": 19486,
    "name": "Duobao",
    "state_id": 2274,
    "state_code": "HB",
    "country_id": 45,
    "country_code": "CN",
    "latitude": "30.67000000",
    "longitude": "112.68952000",
    "native": null,
    "timezone": "Asia/Shanghai",
    "translations": {}
  },
  {
    "id": 158178,
    "name": "Duodao",
    "state_id": 2274,
    "state_code": "HB",
    "country_id": 45,
    "country_code": "CN",
    "latitude": "30.97622000",
    "longitude": "112.20243640",
    "native": null,
    "timezone": "Asia/Shanghai",
    "translations": {}
  },
  {
    "id": 158176,
    "name": "Echeng",
    "state_id": 2274,
    "state_code": "HB",
    "country_id": 45,
    "country_code": "CN",
    "latitude": "30.40329440",
    "longitude": "114.88637750",
    "native": null,
    "timezone": "Asia/Shanghai",
    "translations": {}
  },
  {
    "id": 19491,
    "name": "Enshi",
    "state_id": 2274,
    "state_code": "HB",
    "country_id": 45,
    "country_code": "CN",
    "latitude": "30.27454830",
    "longitude": "109.48330790",
    "native": null,
    "timezone": "Asia/Shanghai",
    "translations": {}
  },
  {
    "id": 19492,
    "name": "Enshi Tujiazu Miaozu Zizhizhou",
    "state_id": 2274,
    "state_code": "HB",
    "country_id": 45,
    "country_code": "CN",
    "latitude": "30.19810000",
    "longitude": "109.67555000",
    "native": null,
    "timezone": "Asia/Shanghai",
    "translations": {}
  },
  {
    "id": 19495,
    "name": "Ezhou",
    "state_id": 2274,
    "state_code": "HB",
    "country_id": 45,
    "country_code": "CN",
    "latitude": "30.39253790",
    "longitude": "114.88989880",
    "native": null,
    "timezone": "Asia/Shanghai",
    "translations": {}
  },
  {
    "id": 19496,
    "name": "Ezhou Shi",
    "state_id": 2274,
    "state_code": "HB",
    "country_id": 45,
    "country_code": "CN",
    "latitude": "30.48832000",
    "longitude": "114.77979000",
    "native": null,
    "timezone": "Asia/Shanghai",
    "translations": {}
  },
  {
    "id": 158166,
    "name": "Fancheng",
    "state_id": 2274,
    "state_code": "HB",
    "country_id": 45,
    "country_code": "CN",
    "latitude": "32.04674900",
    "longitude": "112.12962980",
    "native": null,
    "timezone": "Asia/Shanghai",
    "translations": {}
  },
  {
    "id": 158150,
    "name": "Fangxian",
    "state_id": 2274,
    "state_code": "HB",
    "country_id": 45,
    "country_code": "CN",
    "latitude": "32.04261410",
    "longitude": "110.72106160",
    "native": null,
    "timezone": "Asia/Shanghai",
    "translations": {}
  },
  {
    "id": 19507,
    "name": "Fengkou",
    "state_id": 2274,
    "state_code": "HB",
    "country_id": 45,
    "country_code": "CN",
    "latitude": "30.08268000",
    "longitude": "113.33346000",
    "native": null,
    "timezone": "Asia/Shanghai",
    "translations": {}
  },
  {
    "id": 158191,
    "name": "Gong'an",
    "state_id": 2274,
    "state_code": "HB",
    "country_id": 45,
    "country_code": "CN",
    "latitude": "29.93129750",
    "longitude": "112.16488480",
    "native": null,
    "timezone": "Asia/Shanghai",
    "translations": {}
  },
  {
    "id": 19560,
    "name": "Guangshui",
    "state_id": 2274,
    "state_code": "HB",
    "country_id": 45,
    "country_code": "CN",
    "latitude": "31.61990000",
    "longitude": "113.99780000",
    "native": null,
    "timezone": "Asia/Shanghai",
    "translations": {}
  },
  {
    "id": 158215,
    "name": "Guangshui",
    "state_id": 2274,
    "state_code": "HB",
    "country_id": 45,
    "country_code": "CN",
    "latitude": "31.68381560",
    "longitude": "113.84076410",
    "native": null,
    "timezone": "Asia/Shanghai",
    "translations": {}
  },
  {
    "id": 158169,
    "name": "Gucheng",
    "state_id": 2274,
    "state_code": "HB",
    "country_id": 45,
    "country_code": "CN",
    "latitude": "37.34903480",
    "longitude": "115.96468180",
    "native": null,
    "timezone": "Asia/Shanghai",
    "translations": {}
  },
  {
    "id": 19567,
    "name": "Gucheng Chengguanzhen",
    "state_id": 2274,
    "state_code": "HB",
    "country_id": 45,
    "country_code": "CN",
    "latitude": "32.26604000",
    "longitude": "111.63476000",
    "native": null,
    "timezone": "Asia/Shanghai",
    "translations": {}
  },
  {
    "id": 19596,
    "name": "Hanchuan",
    "state_id": 2274,
    "state_code": "HB",
    "country_id": 45,
    "country_code": "CN",
    "latitude": "30.65000000",
    "longitude": "113.76667000",
    "native": null,
    "timezone": "Asia/Shanghai",
    "translations": {}
  },
  {
    "id": 158188,
    "name": "Hanchuan",
    "state_id": 2274,
    "state_code": "HB",
    "country_id": 45,
    "country_code": "CN",
    "latitude": "30.65625750",
    "longitude": "113.83295830",
    "native": null,
    "timezone": "Asia/Shanghai",
    "translations": {}
  },
  {
    "id": 158133,
    "name": "Hannan",
    "state_id": 2274,
    "state_code": "HB",
    "country_id": 45,
    "country_code": "CN",
    "latitude": "30.31065570",
    "longitude": "114.08010090",
    "native": null,
    "timezone": "Asia/Shanghai",
    "translations": {}
  },
  {
    "id": 158128,
    "name": "Hanyang",
    "state_id": 2274,
    "state_code": "HB",
    "country_id": 45,
    "country_code": "CN",
    "latitude": "30.55666550",
    "longitude": "114.21317250",
    "native": null,
    "timezone": "Asia/Shanghai",
    "translations": {}
  },
  {
    "id": 158223,
    "name": "Hefeng",
    "state_id": 2274,
    "state_code": "HB",
    "country_id": 45,
    "country_code": "CN",
    "latitude": "29.93069670",
    "longitude": "110.20807030",
    "native": null,
    "timezone": "Asia/Shanghai",
    "translations": {}
  },
  {
    "id": 158199,
    "name": "Hong'an",
    "state_id": 2274,
    "state_code": "HB",
    "country_id": 45,
    "country_code": "CN",
    "latitude": "31.27607890",
    "longitude": "114.64202790",
    "native": null,
    "timezone": "Asia/Shanghai",
    "translations": {}
  },
  {
    "id": 158194,
    "name": "Honghu",
    "state_id": 2274,
    "state_code": "HB",
    "country_id": 45,
    "country_code": "CN",
    "latitude": "29.82879060",
    "longitude": "113.47069050",
    "native": null,
    "timezone": "Asia/Shanghai",
    "translations": {}
  },
  {
    "id": 158131,
    "name": "Hongshan",
    "state_id": 2274,
    "state_code": "HB",
    "country_id": 45,
    "country_code": "CN",
    "latitude": "30.50280430",
    "longitude": "114.33784310",
    "native": null,
    "timezone": "Asia/Shanghai",
    "translations": {}
  },
  {
    "id": 19647,
    "name": "Huanggang",
    "state_id": 2274,
    "state_code": "HB",
    "country_id": 45,
    "country_code": "CN",
    "latitude": "30.45601870",
    "longitude": "114.86732260",
    "native": null,
    "timezone": "Asia/Shanghai",
    "translations": {}
  },
  {
    "id": 19651,
    "name": "Huangmei",
    "state_id": 2274,
    "state_code": "HB",
    "country_id": 45,
    "country_code": "CN",
    "latitude": "30.19235000",
    "longitude": "116.02496000",
    "native": null,
    "timezone": "Asia/Shanghai",
    "translations": {}
  },
  {
    "id": 158204,
    "name": "Huangmei",
    "state_id": 2274,
    "state_code": "HB",
    "country_id": 45,
    "country_code": "CN",
    "latitude": "30.01825610",
    "longitude": "115.92890510",
    "native": null,
    "timezone": "Asia/Shanghai",
    "translations": {}
  },
  {
    "id": 19654,
    "name": "Huangpi",
    "state_id": 2274,
    "state_code": "HB",
    "country_id": 45,
    "country_code": "CN",
    "latitude": "30.88453000",
    "longitude": "114.37789000",
    "native": null,
    "timezone": "Asia/Shanghai",
    "translations": {}
  },
  {
    "id": 158136,
    "name": "Huangpi",
    "state_id": 2274,
    "state_code": "HB",
    "country_id": 45,
    "country_code": "CN",
    "latitude": "31.05675280",
    "longitude": "114.38201730",
    "native": null,
    "timezone": "Asia/Shanghai",
    "translations": {}
  },
  {
    "id": 19658,
    "name": "Huangshi",
    "state_id": 2274,
    "state_code": "HB",
    "country_id": 45,
    "country_code": "CN",
    "latitude": "30.20249710",
    "longitude": "115.03341440",
    "native": null,
    "timezone": "Asia/Shanghai",
    "translations": {}
  },
  {
    "id": 158138,
    "name": "Huangshigang",
    "state_id": 2274,
    "state_code": "HB",
    "country_id": 45,
    "country_code": "CN",
    "latitude": "30.22542790",
    "longitude": "115.06047210",
    "native": null,
    "timezone": "Asia/Shanghai",
    "translations": {}
  },
  {
    "id": 19663,
    "name": "Huangzhou",
    "state_id": 2274,
    "state_code": "HB",
    "country_id": 45,
    "country_code": "CN",
    "latitude": "30.45000000",
    "longitude": "114.80000000",
    "native": null,
    "timezone": "Asia/Shanghai",
    "translations": {}
  },
  {
    "id": 158197,
    "name": "Huangzhou",
    "state_id": 2274,
    "state_code": "HB",
    "country_id": 45,
    "country_code": "CN",
    "latitude": "30.43695760",
    "longitude": "114.87507660",
    "native": null,
    "timezone": "Asia/Shanghai",
    "translations": {}
  },
  {
    "id": 158175,
    "name": "Huarong",
    "state_id": 2274,
    "state_code": "HB",
    "country_id": 45,
    "country_code": "CN",
    "latitude": "30.53733810",
    "longitude": "114.72463790",
    "native": null,
    "timezone": "Asia/Shanghai",
    "translations": {}
  },
  {
    "id": 158125,
    "name": "Jiang'an",
    "state_id": 2274,
    "state_code": "HB",
    "country_id": 45,
    "country_code": "CN",
    "latitude": "30.63560820",
    "longitude": "114.27765950",
    "native": null,
    "timezone": "Asia/Shanghai",
    "translations": {}
  },
  {
    "id": 158126,
    "name": "Jianghan",
    "state_id": 2274,
    "state_code": "HB",
    "country_id": 45,
    "country_code": "CN",
    "latitude": "30.60413820",
    "longitude": "114.26538710",
    "native": null,
    "timezone": "Asia/Shanghai",
    "translations": {}
  },
  {
    "id": 158192,
    "name": "Jiangling",
    "state_id": 2274,
    "state_code": "HB",
    "country_id": 45,
    "country_code": "CN",
    "latitude": "30.04462040",
    "longitude": "112.41882560",
    "native": null,
    "timezone": "Asia/Shanghai",
    "translations": {}
  },
  {
    "id": 158135,
    "name": "Jiangxia",
    "state_id": 2274,
    "state_code": "HB",
    "country_id": 45,
    "country_code": "CN",
    "latitude": "30.37804940",
    "longitude": "114.31616930",
    "native": null,
    "timezone": "Asia/Shanghai",
    "translations": {}
  },
  {
    "id": 158196,
    "name": "Jianli",
    "state_id": 2274,
    "state_code": "HB",
    "country_id": 45,
    "country_code": "CN",
    "latitude": "29.84237490",
    "longitude": "112.89926290",
    "native": null,
    "timezone": "Asia/Shanghai",
    "translations": {}
  },
  {
    "id": 158218,
    "name": "Jianshi",
    "state_id": 2274,
    "state_code": "HB",
    "country_id": 45,
    "country_code": "CN",
    "latitude": "30.66153180",
    "longitude": "109.93676060",
    "native": null,
    "timezone": "Asia/Shanghai",
    "translations": {}
  },
  {
    "id": 158208,
    "name": "Jiayu",
    "state_id": 2274,
    "state_code": "HB",
    "country_id": 45,
    "country_code": "CN",
    "latitude": "29.97242090",
    "longitude": "113.93353260",
    "native": null,
    "timezone": "Asia/Shanghai",
    "translations": {}
  },
  {
    "id": 19735,
    "name": "Jingling",
    "state_id": 2274,
    "state_code": "HB",
    "country_id": 45,
    "country_code": "CN",
    "latitude": "30.65000000",
    "longitude": "113.10000000",
    "native": null,
    "timezone": "Asia/Shanghai",
    "translations": {}
  },
  {
    "id": 19736,
    "name": "Jingmen",
    "state_id": 2274,
    "state_code": "HB",
    "country_id": 45,
    "country_code": "CN",
    "latitude": "31.03752480",
    "longitude": "112.19379790",
    "native": null,
    "timezone": "Asia/Shanghai",
    "translations": {}
  },
  {
    "id": 19737,
    "name": "Jingmen Shi",
    "state_id": 2274,
    "state_code": "HB",
    "country_id": 45,
    "country_code": "CN",
    "latitude": "31.11244000",
    "longitude": "112.64310000",
    "native": null,
    "timezone": "Asia/Shanghai",
    "translations": {}
  },
  {
    "id": 158181,
    "name": "Jingshan",
    "state_id": 2274,
    "state_code": "HB",
    "country_id": 45,
    "country_code": "CN",
    "latitude": "31.01610470",
    "longitude": "113.12806790",
    "native": null,
    "timezone": "Asia/Shanghai",
    "translations": {}
  },
  {
    "id": 19738,
    "name": "Jingzhou",
    "state_id": 2274,
    "state_code": "HB",
    "country_id": 45,
    "country_code": "CN",
    "latitude": "30.33756120",
    "longitude": "112.23372640",
    "native": null,
    "timezone": "Asia/Shanghai",
    "translations": {}
  },
  {
    "id": 158222,
    "name": "Laifeng",
    "state_id": 2274,
    "state_code": "HB",
    "country_id": 45,
    "country_code": "CN",
    "latitude": "29.45672400",
    "longitude": "109.19290500",
    "native": null,
    "timezone": "Asia/Shanghai",
    "translations": {}
  },
  {
    "id": 19805,
    "name": "Laohekou",
    "state_id": 2274,
    "state_code": "HB",
    "country_id": 45,
    "country_code": "CN",
    "latitude": "32.38583000",
    "longitude": "111.66778000",
    "native": null,
    "timezone": "Asia/Shanghai",
    "translations": {}
  },
  {
    "id": 158171,
    "name": "Laohekou",
    "state_id": 2274,
    "state_code": "HB",
    "country_id": 45,
    "country_code": "CN",
    "latitude": "32.43705260",
    "longitude": "111.75750730",
    "native": null,
    "timezone": "Asia/Shanghai",
    "translations": {}
  },
  {
    "id": 158174,
    "name": "Liangzihu",
    "state_id": 2274,
    "state_code": "HB",
    "country_id": 45,
    "country_code": "CN",
    "latitude": "30.10275500",
    "longitude": "114.67950620",
    "native": null,
    "timezone": "Asia/Shanghai",
    "translations": {}
  },
  {
    "id": 19834,
    "name": "Lichuan",
    "state_id": 2274,
    "state_code": "HB",
    "country_id": 45,
    "country_code": "CN",
    "latitude": "30.30000000",
    "longitude": "108.85000000",
    "native": null,
    "timezone": "Asia/Shanghai",
    "translations": {}
  },
  {
    "id": 158217,
    "name": "Lichuan",
    "state_id": 2274,
    "state_code": "HB",
    "country_id": 45,
    "country_code": "CN",
    "latitude": "30.24450800",
    "longitude": "108.81575900",
    "native": null,
    "timezone": "Asia/Shanghai",
    "translations": {}
  },
  {
    "id": 158200,
    "name": "Luotian",
    "state_id": 2274,
    "state_code": "HB",
    "country_id": 45,
    "country_code": "CN",
    "latitude": "30.96080900",
    "longitude": "115.46826170",
    "native": null,
    "timezone": "Asia/Shanghai",
    "translations": {}
  },
  {
    "id": 19900,
    "name": "Macheng",
    "state_id": 2274,
    "state_code": "HB",
    "country_id": 45,
    "country_code": "CN",
    "latitude": "31.18013000",
    "longitude": "115.02213000",
    "native": null,
    "timezone": "Asia/Shanghai",
    "translations": {}
  },
  {
    "id": 158205,
    "name": "Macheng",
    "state_id": 2274,
    "state_code": "HB",
    "country_id": 45,
    "country_code": "CN",
    "latitude": "31.31985720",
    "longitude": "115.11086470",
    "native": null,
    "timezone": "Asia/Shanghai",
    "translations": {}
  },
  {
    "id": 158144,
    "name": "Maojian",
    "state_id": 2274,
    "state_code": "HB",
    "country_id": 45,
    "country_code": "CN",
    "latitude": "32.56666700",
    "longitude": "110.78333300",
    "native": null,
    "timezone": "Asia/Shanghai",
    "translations": {}
  },
  {
    "id": 158168,
    "name": "Nanzhang",
    "state_id": 2274,
    "state_code": "HB",
    "country_id": 45,
    "country_code": "CN",
    "latitude": "31.77692060",
    "longitude": "111.83317670",
    "native": null,
    "timezone": "Asia/Shanghai",
    "translations": {}
  },
  {
    "id": 19951,
    "name": "Nanzhang Chengguanzhen",
    "state_id": 2274,
    "state_code": "HB",
    "country_id": 45,
    "country_code": "CN",
    "latitude": "31.78394000",
    "longitude": "111.82752000",
    "native": null,
    "timezone": "Asia/Shanghai",
    "translations": {}
  },
  {
    "id": 19997,
    "name": "Puqi",
    "state_id": 2274,
    "state_code": "HB",
    "country_id": 45,
    "country_code": "CN",
    "latitude": "29.71667000",
    "longitude": "113.88333000",
    "native": null,
    "timezone": "Asia/Shanghai",
    "translations": {}
  },
  {
    "id": 20008,
    "name": "Qianjiang",
    "state_id": 2274,
    "state_code": "HB",
    "country_id": 45,
    "country_code": "CN",
    "latitude": "30.42100000",
    "longitude": "112.89190000",
    "native": null,
    "timezone": "Asia/Shanghai",
    "translations": {}
  },
  {
    "id": 158226,
    "name": "Qianjiang",
    "state_id": 2274,
    "state_code": "HB",
    "country_id": 45,
    "country_code": "CN",
    "latitude": "30.40498260",
    "longitude": "112.89403720",
    "native": null,
    "timezone": "Asia/Shanghai",
    "translations": {}
  },
  {
    "id": 158127,
    "name": "Qiaokou",
    "state_id": 2274,
    "state_code": "HB",
    "country_id": 45,
    "country_code": "CN",
    "latitude": "30.58480890",
    "longitude": "114.20937180",
    "native": null,
    "timezone": "Asia/Shanghai",
    "translations": {}
  },
  {
    "id": 158203,
    "name": "Qichun",
    "state_id": 2274,
    "state_code": "HB",
    "country_id": 45,
    "country_code": "CN",
    "latitude": "30.32129100",
    "longitude": "115.57047140",
    "native": null,
    "timezone": "Asia/Shanghai",
    "translations": {}
  },
  {
    "id": 20022,
    "name": "Qingquan",
    "state_id": 2274,
    "state_code": "HB",
    "country_id": 45,
    "country_code": "CN",
    "latitude": "30.45113000",
    "longitude": "115.25593000",
    "native": null,
    "timezone": "Asia/Shanghai",
    "translations": {}
  },
  {
    "id": 158130,
    "name": "Qingshan",
    "state_id": 2274,
    "state_code": "HB",
    "country_id": 45,
    "country_code": "CN",
    "latitude": "30.64212060",
    "longitude": "114.37978040",
    "native": null,
    "timezone": "Asia/Shanghai",
    "translations": {}
  },
  {
    "id": 20085,
    "name": "Shashi",
    "state_id": 2274,
    "state_code": "HB",
    "country_id": 45,
    "country_code": "CN",
    "latitude": "30.30722000",
    "longitude": "112.24472000",
    "native": null,
    "timezone": "Asia/Shanghai",
    "translations": {}
  },
  {
    "id": 158189,
    "name": "Shashi",
    "state_id": 2274,
    "state_code": "HB",
    "country_id": 45,
    "country_code": "CN",
    "latitude": "30.31442740",
    "longitude": "112.25249830",
    "native": null,
    "timezone": "Asia/Shanghai",
    "translations": {}
  },
  {
    "id": 158179,
    "name": "Shayang",
    "state_id": 2274,
    "state_code": "HB",
    "country_id": 45,
    "country_code": "CN",
    "latitude": "30.71182980",
    "longitude": "112.58318320",
    "native": null,
    "timezone": "Asia/Shanghai",
    "translations": {}
  },
  {
    "id": 20089,
    "name": "Shennongjia",
    "state_id": 2274,
    "state_code": "HB",
    "country_id": 45,
    "country_code": "CN",
    "latitude": "31.58339000",
    "longitude": "110.49720000",
    "native": null,
    "timezone": "Asia/Shanghai",
    "translations": {}
  },
  {
    "id": 158228,
    "name": "Shennongjia Forestry",
    "state_id": 2274,
    "state_code": "HB",
    "country_id": 45,
    "country_code": "CN",
    "latitude": "0.00000000",
    "longitude": "0.00000000",
    "native": null,
    "timezone": "Asia/Shanghai",
    "translations": {}
  },
  {
    "id": 158193,
    "name": "Shishou",
    "state_id": 2274,
    "state_code": "HB",
    "country_id": 45,
    "country_code": "CN",
    "latitude": "29.72284270",
    "longitude": "112.41890370",
    "native": null,
    "timezone": "Asia/Shanghai",
    "translations": {}
  },
  {
    "id": 20109,
    "name": "Shiyan",
    "state_id": 2274,
    "state_code": "HB",
    "country_id": 45,
    "country_code": "CN",
    "latitude": "32.45269000",
    "longitude": "110.56081200",
    "native": null,
    "timezone": "Asia/Shanghai",
    "translations": {}
  },
  {
    "id": 158195,
    "name": "Songzi",
    "state_id": 2274,
    "state_code": "HB",
    "country_id": 45,
    "country_code": "CN",
    "latitude": "30.17509720",
    "longitude": "111.75127140",
    "native": null,
    "timezone": "Asia/Shanghai",
    "translations": {}
  },
  {
    "id": 158214,
    "name": "Suixian",
    "state_id": 2274,
    "state_code": "HB",
    "country_id": 45,
    "country_code": "CN",
    "latitude": "0.00000000",
    "longitude": "0.00000000",
    "native": null,
    "timezone": "Asia/Shanghai",
    "translations": {}
  },
  {
    "id": 20145,
    "name": "Suizhou",
    "state_id": 2274,
    "state_code": "HB",
    "country_id": 45,
    "country_code": "CN",
    "latitude": "31.92092100",
    "longitude": "113.46584400",
    "native": null,
    "timezone": "Asia/Shanghai",
    "translations": {}
  },
  {
    "id": 158227,
    "name": "Tianmen",
    "state_id": 2274,
    "state_code": "HB",
    "country_id": 45,
    "country_code": "CN",
    "latitude": "30.66596830",
    "longitude": "113.16055990",
    "native": null,
    "timezone": "Asia/Shanghai",
    "translations": {}
  },
  {
    "id": 158141,
    "name": "Tieshan",
    "state_id": 2274,
    "state_code": "HB",
    "country_id": 45,
    "country_code": "CN",
    "latitude": "30.20565860",
    "longitude": "114.88659980",
    "native": null,
    "timezone": "Asia/Shanghai",
    "translations": {}
  },
  {
    "id": 158209,
    "name": "Tongcheng",
    "state_id": 2274,
    "state_code": "HB",
    "country_id": 45,
    "country_code": "CN",
    "latitude": "29.24816660",
    "longitude": "113.81163190",
    "native": null,
    "timezone": "Asia/Shanghai",
    "translations": {}
  },
  {
    "id": 158211,
    "name": "Tongshan",
    "state_id": 2274,
    "state_code": "HB",
    "country_id": 45,
    "country_code": "CN",
    "latitude": "29.60819860",
    "longitude": "114.47750620",
    "native": null,
    "timezone": "Asia/Shanghai",
    "translations": {}
  },
  {
    "id": 158198,
    "name": "Tuanfeng",
    "state_id": 2274,
    "state_code": "HB",
    "country_id": 45,
    "country_code": "CN",
    "latitude": "30.64605280",
    "longitude": "114.86715870",
    "native": null,
    "timezone": "Asia/Shanghai",
    "translations": {}
  },
  {
    "id": 158129,
    "name": "Wuchang",
    "state_id": 2274,
    "state_code": "HB",
    "country_id": 45,
    "country_code": "CN",
    "latitude": "30.55669980",
    "longitude": "114.31098470",
    "native": null,
    "timezone": "Asia/Shanghai",
    "translations": {}
  },
  {
    "id": 158161,
    "name": "Wufeng",
    "state_id": 2274,
    "state_code": "HB",
    "country_id": 45,
    "country_code": "CN",
    "latitude": "30.16458100",
    "longitude": "110.68500600",
    "native": null,
    "timezone": "Asia/Shanghai",
    "translations": {}
  },
  {
    "id": 20233,
    "name": "Wuhan",
    "state_id": 2274,
    "state_code": "HB",
    "country_id": 45,
    "country_code": "CN",
    "latitude": "30.59510510",
    "longitude": "114.29993530",
    "native": null,
    "timezone": "Asia/Shanghai",
    "translations": {}
  },
  {
    "id": 158153,
    "name": "Wujiagang",
    "state_id": 2274,
    "state_code": "HB",
    "country_id": 45,
    "country_code": "CN",
    "latitude": "30.64616900",
    "longitude": "111.35500790",
    "native": null,
    "timezone": "Asia/Shanghai",
    "translations": {}
  },
  {
    "id": 20240,
    "name": "Wuxue",
    "state_id": 2274,
    "state_code": "HB",
    "country_id": 45,
    "country_code": "CN",
    "latitude": "29.85058000",
    "longitude": "115.55250000",
    "native": null,
    "timezone": "Asia/Shanghai",
    "translations": {}
  },
  {
    "id": 158206,
    "name": "Wuxue",
    "state_id": 2274,
    "state_code": "HB",
    "country_id": 45,
    "country_code": "CN",
    "latitude": "29.84703500",
    "longitude": "115.55628610",
    "native": null,
    "timezone": "Asia/Shanghai",
    "translations": {}
  },
  {
    "id": 158140,
    "name": "Xialu",
    "state_id": 2274,
    "state_code": "HB",
    "country_id": 45,
    "country_code": "CN",
    "latitude": "30.17561400",
    "longitude": "114.95628430",
    "native": null,
    "timezone": "Asia/Shanghai",
    "translations": {}
  },
  {
    "id": 158207,
    "name": "Xian'an",
    "state_id": 2274,
    "state_code": "HB",
    "country_id": 45,
    "country_code": "CN",
    "latitude": "29.85046590",
    "longitude": "114.39072930",
    "native": null,
    "timezone": "Asia/Shanghai",
    "translations": {}
  },
  {
    "id": 158221,
    "name": "Xianfeng",
    "state_id": 2274,
    "state_code": "HB",
    "country_id": 45,
    "country_code": "CN",
    "latitude": "29.74236540",
    "longitude": "108.95304800",
    "native": null,
    "timezone": "Asia/Shanghai",
    "translations": {}
  },
  {
    "id": 158165,
    "name": "Xiangcheng",
    "state_id": 2274,
    "state_code": "HB",
    "country_id": 45,
    "country_code": "CN",
    "latitude": "32.01183490",
    "longitude": "112.12797610",
    "native": null,
    "timezone": "Asia/Shanghai",
    "translations": {}
  },
  {
    "id": 20258,
    "name": "Xiangyang",
    "state_id": 2274,
    "state_code": "HB",
    "country_id": 45,
    "country_code": "CN",
    "latitude": "32.01099800",
    "longitude": "112.11637850",
    "native": null,
    "timezone": "Asia/Shanghai",
    "translations": {}
  },
  {
    "id": 158167,
    "name": "Xiangzhou",
    "state_id": 2274,
    "state_code": "HB",
    "country_id": 45,
    "country_code": "CN",
    "latitude": "32.21846700",
    "longitude": "112.26230400",
    "native": null,
    "timezone": "Asia/Shanghai",
    "translations": {}
  },
  {
    "id": 20261,
    "name": "Xianning",
    "state_id": 2274,
    "state_code": "HB",
    "country_id": 45,
    "country_code": "CN",
    "latitude": "29.84375450",
    "longitude": "114.31694180",
    "native": null,
    "timezone": "Asia/Shanghai",
    "translations": {}
  },
  {
    "id": 20262,
    "name": "Xianning Prefecture",
    "state_id": 2274,
    "state_code": "HB",
    "country_id": 45,
    "country_code": "CN",
    "latitude": "29.66609000",
    "longitude": "114.26389000",
    "native": null,
    "timezone": "Asia/Shanghai",
    "translations": {}
  },
  {
    "id": 20266,
    "name": "Xiantao",
    "state_id": 2274,
    "state_code": "HB",
    "country_id": 45,
    "country_code": "CN",
    "latitude": "30.37080000",
    "longitude": "113.44294000",
    "native": null,
    "timezone": "Asia/Shanghai",
    "translations": {}
  },
  {
    "id": 158225,
    "name": "Xiantao",
    "state_id": 2274,
    "state_code": "HB",
    "country_id": 45,
    "country_code": "CN",
    "latitude": "30.36402900",
    "longitude": "113.44867020",
    "native": null,
    "timezone": "Asia/Shanghai",
    "translations": {}
  },
  {
    "id": 158183,
    "name": "Xiaochang",
    "state_id": 2274,
    "state_code": "HB",
    "country_id": 45,
    "country_code": "CN",
    "latitude": "31.24691410",
    "longitude": "114.03773720",
    "native": null,
    "timezone": "Asia/Shanghai",
    "translations": {}
  },
  {
    "id": 20269,
    "name": "Xiaogan",
    "state_id": 2274,
    "state_code": "HB",
    "country_id": 45,
    "country_code": "CN",
    "latitude": "31.17641300",
    "longitude": "113.92243400",
    "native": null,
    "timezone": "Asia/Shanghai",
    "translations": {}
  },
  {
    "id": 158182,
    "name": "Xiaonan",
    "state_id": 2274,
    "state_code": "HB",
    "country_id": 45,
    "country_code": "CN",
    "latitude": "30.94824630",
    "longitude": "114.01619650",
    "native": null,
    "timezone": "Asia/Shanghai",
    "translations": {}
  },
  {
    "id": 158155,
    "name": "Xiaoting",
    "state_id": 2274,
    "state_code": "HB",
    "country_id": 45,
    "country_code": "CN",
    "latitude": "30.53299560",
    "longitude": "111.42887790",
    "native": null,
    "timezone": "Asia/Shanghai",
    "translations": {}
  },
  {
    "id": 20282,
    "name": "Xihe",
    "state_id": 2274,
    "state_code": "HB",
    "country_id": 45,
    "country_code": "CN",
    "latitude": "31.68635000",
    "longitude": "113.46585000",
    "native": null,
    "timezone": "Asia/Shanghai",
    "translations": {}
  },
  {
    "id": 158152,
    "name": "Xiling",
    "state_id": 2274,
    "state_code": "HB",
    "country_id": 45,
    "country_code": "CN",
    "latitude": "30.71322730",
    "longitude": "111.28007770",
    "native": null,
    "timezone": "Asia/Shanghai",
    "translations": {}
  },
  {
    "id": 20290,
    "name": "Xindi",
    "state_id": 2274,
    "state_code": "HB",
    "country_id": 45,
    "country_code": "CN",
    "latitude": "29.81667000",
    "longitude": "113.46667000",
    "native": null,
    "timezone": "Asia/Shanghai",
    "translations": {}
  },
  {
    "id": 158158,
    "name": "Xingshan",
    "state_id": 2274,
    "state_code": "HB",
    "country_id": 45,
    "country_code": "CN",
    "latitude": "31.30834700",
    "longitude": "110.80395300",
    "native": null,
    "timezone": "Asia/Shanghai",
    "translations": {}
  },
  {
    "id": 20305,
    "name": "Xinshi",
    "state_id": 2274,
    "state_code": "HB",
    "country_id": 45,
    "country_code": "CN",
    "latitude": "31.04704000",
    "longitude": "113.14098000",
    "native": null,
    "timezone": "Asia/Shanghai",
    "translations": {}
  },
  {
    "id": 20317,
    "name": "Xinzhou",
    "state_id": 2274,
    "state_code": "HB",
    "country_id": 45,
    "country_code": "CN",
    "latitude": "30.86667000",
    "longitude": "114.80000000",
    "native": null,
    "timezone": "Asia/Shanghai",
    "translations": {}
  },
  {
    "id": 158137,
    "name": "Xinzhou",
    "state_id": 2274,
    "state_code": "HB",
    "country_id": 45,
    "country_code": "CN",
    "latitude": "30.84377020",
    "longitude": "114.79600130",
    "native": null,
    "timezone": "Asia/Shanghai",
    "translations": {}
  },
  {
    "id": 158139,
    "name": "Xisaishan",
    "state_id": 2274,
    "state_code": "HB",
    "country_id": 45,
    "country_code": "CN",
    "latitude": "30.20729540",
    "longitude": "115.10431360",
    "native": null,
    "timezone": "Asia/Shanghai",
    "translations": {}
  },
  {
    "id": 158202,
    "name": "Xishui",
    "state_id": 2274,
    "state_code": "HB",
    "country_id": 45,
    "country_code": "CN",
    "latitude": "30.59994440",
    "longitude": "115.29931330",
    "native": null,
    "timezone": "Asia/Shanghai",
    "translations": {}
  },
  {
    "id": 20323,
    "name": "Xiulin",
    "state_id": 2274,
    "state_code": "HB",
    "country_id": 45,
    "country_code": "CN",
    "latitude": "29.71667000",
    "longitude": "112.40000000",
    "native": null,
    "timezone": "Asia/Shanghai",
    "translations": {}
  },
  {
    "id": 158220,
    "name": "Xuan'en",
    "state_id": 2274,
    "state_code": "HB",
    "country_id": 45,
    "country_code": "CN",
    "latitude": "29.99051200",
    "longitude": "109.48507900",
    "native": null,
    "timezone": "Asia/Shanghai",
    "translations": {}
  },
  {
    "id": 158142,
    "name": "Yangxin",
    "state_id": 2274,
    "state_code": "HB",
    "country_id": 45,
    "country_code": "CN",
    "latitude": "29.83281530",
    "longitude": "115.20984390",
    "native": null,
    "timezone": "Asia/Shanghai",
    "translations": {}
  },
  {
    "id": 20366,
    "name": "Yichang",
    "state_id": 2274,
    "state_code": "HB",
    "country_id": 45,
    "country_code": "CN",
    "latitude": "30.69413320",
    "longitude": "111.28035120",
    "native": null,
    "timezone": "Asia/Shanghai",
    "translations": {}
  },
  {
    "id": 20367,
    "name": "Yicheng",
    "state_id": 2274,
    "state_code": "HB",
    "country_id": 45,
    "country_code": "CN",
    "latitude": "31.70472000",
    "longitude": "112.25611000",
    "native": null,
    "timezone": "Asia/Shanghai",
    "translations": {}
  },
  {
    "id": 158173,
    "name": "Yicheng",
    "state_id": 2274,
    "state_code": "HB",
    "country_id": 45,
    "country_code": "CN",
    "latitude": "31.72103460",
    "longitude": "112.25273750",
    "native": null,
    "timezone": "Asia/Shanghai",
    "translations": {}
  },
  {
    "id": 158162,
    "name": "Yidu",
    "state_id": 2274,
    "state_code": "HB",
    "country_id": 45,
    "country_code": "CN",
    "latitude": "30.38196960",
    "longitude": "111.44369270",
    "native": null,
    "timezone": "Asia/Shanghai",
    "translations": {}
  },
  {
    "id": 158156,
    "name": "Yiling",
    "state_id": 2274,
    "state_code": "HB",
    "country_id": 45,
    "country_code": "CN",
    "latitude": "31.00136820",
    "longitude": "111.28912770",
    "native": null,
    "timezone": "Asia/Shanghai",
    "translations": {}
  },
  {
    "id": 158186,
    "name": "Yingcheng",
    "state_id": 2274,
    "state_code": "HB",
    "country_id": 45,
    "country_code": "CN",
    "latitude": "30.93336420",
    "longitude": "113.56648120",
    "native": null,
    "timezone": "Asia/Shanghai",
    "translations": {}
  },
  {
    "id": 158201,
    "name": "Yingshan",
    "state_id": 2274,
    "state_code": "HB",
    "country_id": 45,
    "country_code": "CN",
    "latitude": "30.85269460",
    "longitude": "115.71717620",
    "native": null,
    "timezone": "Asia/Shanghai",
    "translations": {}
  },
  {
    "id": 158157,
    "name": "Yuan'an",
    "state_id": 2274,
    "state_code": "HB",
    "country_id": 45,
    "country_code": "CN",
    "latitude": "31.16924570",
    "longitude": "111.56548500",
    "native": null,
    "timezone": "Asia/Shanghai",
    "translations": {}
  },
  {
    "id": 158185,
    "name": "Yunmeng",
    "state_id": 2274,
    "state_code": "HB",
    "country_id": 45,
    "country_code": "CN",
    "latitude": "31.00213670",
    "longitude": "113.77377540",
    "native": null,
    "timezone": "Asia/Shanghai",
    "translations": {}
  },
  {
    "id": 20402,
    "name": "Yunmeng Chengguanzhen",
    "state_id": 2274,
    "state_code": "HB",
    "country_id": 45,
    "country_code": "CN",
    "latitude": "31.06251000",
    "longitude": "113.76545000",
    "native": null,
    "timezone": "Asia/Shanghai",
    "translations": {}
  },
  {
    "id": 158147,
    "name": "Yunxi",
    "state_id": 2274,
    "state_code": "HB",
    "country_id": 45,
    "country_code": "CN",
    "latitude": "33.00097280",
    "longitude": "110.17886920",
    "native": null,
    "timezone": "Asia/Shanghai",
    "translations": {}
  },
  {
    "id": 158146,
    "name": "Yunyang",
    "state_id": 2274,
    "state_code": "HB",
    "country_id": 45,
    "country_code": "CN",
    "latitude": "32.91285600",
    "longitude": "110.75694200",
    "native": null,
    "timezone": "Asia/Shanghai",
    "translations": {}
  },
  {
    "id": 20414,
    "name": "Zaoyang",
    "state_id": 2274,
    "state_code": "HB",
    "country_id": 45,
    "country_code": "CN",
    "latitude": "32.12722000",
    "longitude": "112.75417000",
    "native": null,
    "timezone": "Asia/Shanghai",
    "translations": {}
  },
  {
    "id": 158172,
    "name": "Zaoyang",
    "state_id": 2274,
    "state_code": "HB",
    "country_id": 45,
    "country_code": "CN",
    "latitude": "32.13076860",
    "longitude": "112.76657160",
    "native": null,
    "timezone": "Asia/Shanghai",
    "translations": {}
  },
  {
    "id": 158213,
    "name": "Zengdu",
    "state_id": 2274,
    "state_code": "HB",
    "country_id": 45,
    "country_code": "CN",
    "latitude": "31.71801000",
    "longitude": "113.36515190",
    "native": null,
    "timezone": "Asia/Shanghai",
    "translations": {}
  },
  {
    "id": 158145,
    "name": "Zhangwan",
    "state_id": 2274,
    "state_code": "HB",
    "country_id": 45,
    "country_code": "CN",
    "latitude": "32.65339560",
    "longitude": "110.76536160",
    "native": null,
    "timezone": "Asia/Shanghai",
    "translations": {}
  },
  {
    "id": 20445,
    "name": "Zhicheng",
    "state_id": 2274,
    "state_code": "HB",
    "country_id": 45,
    "country_code": "CN",
    "latitude": "30.29556000",
    "longitude": "111.50472000",
    "native": null,
    "timezone": "Asia/Shanghai",
    "translations": {}
  },
  {
    "id": 20446,
    "name": "Zhijiang",
    "state_id": 2274,
    "state_code": "HB",
    "country_id": 45,
    "country_code": "CN",
    "latitude": "30.42139000",
    "longitude": "111.75333000",
    "native": null,
    "timezone": "Asia/Shanghai",
    "translations": {}
  },
  {
    "id": 158164,
    "name": "Zhijiang",
    "state_id": 2274,
    "state_code": "HB",
    "country_id": 45,
    "country_code": "CN",
    "latitude": "30.42838350",
    "longitude": "111.75468680",
    "native": null,
    "timezone": "Asia/Shanghai",
    "translations": {}
  },
  {
    "id": 20455,
    "name": "Zhongxiang",
    "state_id": 2274,
    "state_code": "HB",
    "country_id": 45,
    "country_code": "CN",
    "latitude": "31.16611000",
    "longitude": "112.58306000",
    "native": null,
    "timezone": "Asia/Shanghai",
    "translations": {}
  },
  {
    "id": 158180,
    "name": "Zhongxiang",
    "state_id": 2274,
    "state_code": "HB",
    "country_id": 45,
    "country_code": "CN",
    "latitude": "31.17023220",
    "longitude": "112.58233310",
    "native": null,
    "timezone": "Asia/Shanghai",
    "translations": {}
  },
  {
    "id": 158148,
    "name": "Zhushan",
    "state_id": 2274,
    "state_code": "HB",
    "country_id": 45,
    "country_code": "CN",
    "latitude": "32.31646620",
    "longitude": "110.15637910",
    "native": null,
    "timezone": "Asia/Shanghai",
    "translations": {}
  },
  {
    "id": 158149,
    "name": "Zhuxi",
    "state_id": 2274,
    "state_code": "HB",
    "country_id": 45,
    "country_code": "CN",
    "latitude": "32.32047830",
    "longitude": "109.71038150",
    "native": null,
    "timezone": "Asia/Shanghai",
    "translations": {}
  },
  {
    "id": 158159,
    "name": "Zigui",
    "state_id": 2274,
    "state_code": "HB",
    "country_id": 45,
    "country_code": "CN",
    "latitude": "30.82759250",
    "longitude": "110.97252640",
    "native": null,
    "timezone": "Asia/Shanghai",
    "translations": {}
  }
]