[
  {
    "id": 39268,
    "name": "Aiffres",
    "state_id": 5047,
    "state_code": "79",
    "country_id": 75,
    "country_code": "FR",
    "latitude": "46.29449000",
    "longitude": "-0.42101000",
    "native": null,
    "timezone": "Europe/Paris",
    "translations": {}
  },
  {
    "id": 161654,
    "name": "Aigondigné",
    "state_id": 5047,
    "state_code": "79",
    "country_id": 75,
    "country_code": "FR",
    "latitude": "46.28440000",
    "longitude": "-0.27230000",
    "native": null,
    "timezone": "Europe/Paris",
    "translations": {}
  },
  {
    "id": 39289,
    "name": "Airvault",
    "state_id": 5047,
    "state_code": "79",
    "country_id": 75,
    "country_code": "FR",
    "latitude": "46.82533000",
    "longitude": "-0.13634000",
    "native": null,
    "timezone": "Europe/Paris",
    "translations": {}
  },
  {
    "id": 39468,
    "name": "Ardin",
    "state_id": 5047,
    "state_code": "79",
    "country_id": 75,
    "country_code": "FR",
    "latitude": "46.47512000",
    "longitude": "-0.55416000",
    "native": null,
    "timezone": "Europe/Paris",
    "translations": {}
  },
  {
    "id": 39482,
    "name": "Argenton-les-Vallées",
    "state_id": 5047,
    "state_code": "79",
    "country_id": 75,
    "country_code": "FR",
    "latitude": "46.98333000",
    "longitude": "-0.45000000",
    "native": null,
    "timezone": "Europe/Paris",
    "translations": {}
  },
  {
    "id": 161667,
    "name": "Argentonnay",
    "state_id": 5047,
    "state_code": "79",
    "country_id": 75,
    "country_code": "FR",
    "latitude": "46.97210000",
    "longitude": "-0.41640000",
    "native": null,
    "timezone": "Europe/Paris",
    "translations": {}
  },
  {
    "id": 39692,
    "name": "Azay-le-Brûlé",
    "state_id": 5047,
    "state_code": "79",
    "country_id": 75,
    "country_code": "FR",
    "latitude": "46.40011000",
    "longitude": "-0.24914000",
    "native": null,
    "timezone": "Europe/Paris",
    "translations": {}
  },
  {
    "id": 39894,
    "name": "Beauvoir-sur-Niort",
    "state_id": 5047,
    "state_code": "79",
    "country_id": 75,
    "country_code": "FR",
    "latitude": "46.18017000",
    "longitude": "-0.47178000",
    "native": null,
    "timezone": "Europe/Paris",
    "translations": {}
  },
  {
    "id": 39979,
    "name": "Bessines",
    "state_id": 5047,
    "state_code": "79",
    "country_id": 75,
    "country_code": "FR",
    "latitude": "46.30207000",
    "longitude": "-0.51294000",
    "native": null,
    "timezone": "Europe/Paris",
    "translations": {}
  },
  {
    "id": 40093,
    "name": "Boismé",
    "state_id": 5047,
    "state_code": "79",
    "country_id": 75,
    "country_code": "FR",
    "latitude": "46.77393000",
    "longitude": "-0.43476000",
    "native": null,
    "timezone": "Europe/Paris",
    "translations": {}
  },
  {
    "id": 40159,
    "name": "Bouillé-Loretz",
    "state_id": 5047,
    "state_code": "79",
    "country_id": 75,
    "country_code": "FR",
    "latitude": "47.07911000",
    "longitude": "-0.27178000",
    "native": null,
    "timezone": "Europe/Paris",
    "translations": {}
  },
  {
    "id": 40278,
    "name": "Bressuire",
    "state_id": 5047,
    "state_code": "79",
    "country_id": 75,
    "country_code": "FR",
    "latitude": "46.84012000",
    "longitude": "-0.48851000",
    "native": null,
    "timezone": "Europe/Paris",
    "translations": {}
  },
  {
    "id": 40322,
    "name": "Brioux-sur-Boutonne",
    "state_id": 5047,
    "state_code": "79",
    "country_id": 75,
    "country_code": "FR",
    "latitude": "46.14171000",
    "longitude": "-0.22182000",
    "native": null,
    "timezone": "Europe/Paris",
    "translations": {}
  },
  {
    "id": 40633,
    "name": "Celles-sur-Belle",
    "state_id": 5047,
    "state_code": "79",
    "country_id": 75,
    "country_code": "FR",
    "latitude": "46.26223000",
    "longitude": "-0.21274000",
    "native": null,
    "timezone": "Europe/Paris",
    "translations": {}
  },
  {
    "id": 40649,
    "name": "Cerizay",
    "state_id": 5047,
    "state_code": "79",
    "country_id": 75,
    "country_code": "FR",
    "latitude": "46.82154000",
    "longitude": "-0.66726000",
    "native": null,
    "timezone": "Europe/Paris",
    "translations": {}
  },
  {
    "id": 40731,
    "name": "Champdeniers-Saint-Denis",
    "state_id": 5047,
    "state_code": "79",
    "country_id": 75,
    "country_code": "FR",
    "latitude": "46.48333000",
    "longitude": "-0.40000000",
    "native": null,
    "timezone": "Europe/Paris",
    "translations": {}
  },
  {
    "id": 41006,
    "name": "Châtillon-sur-Thouet",
    "state_id": 5047,
    "state_code": "79",
    "country_id": 75,
    "country_code": "FR",
    "latitude": "46.66176000",
    "longitude": "-0.23489000",
    "native": null,
    "timezone": "Europe/Paris",
    "translations": {}
  },
  {
    "id": 40850,
    "name": "Chauray",
    "state_id": 5047,
    "state_code": "79",
    "country_id": 75,
    "country_code": "FR",
    "latitude": "46.35997000",
    "longitude": "-0.37859000",
    "native": null,
    "timezone": "Europe/Paris",
    "translations": {}
  },
  {
    "id": 40867,
    "name": "Chef-Boutonne",
    "state_id": 5047,
    "state_code": "79",
    "country_id": 75,
    "country_code": "FR",
    "latitude": "46.10859000",
    "longitude": "-0.07083000",
    "native": null,
    "timezone": "Europe/Paris",
    "translations": {}
  },
  {
    "id": 40887,
    "name": "Cherveux",
    "state_id": 5047,
    "state_code": "79",
    "country_id": 75,
    "country_code": "FR",
    "latitude": "46.41543000",
    "longitude": "-0.35706000",
    "native": null,
    "timezone": "Europe/Paris",
    "translations": {}
  },
  {
    "id": 40905,
    "name": "Chiché",
    "state_id": 5047,
    "state_code": "79",
    "country_id": 75,
    "country_code": "FR",
    "latitude": "46.79643000",
    "longitude": "-0.35560000",
    "native": null,
    "timezone": "Europe/Paris",
    "translations": {}
  },
  {
    "id": 41111,
    "name": "Combrand",
    "state_id": 5047,
    "state_code": "79",
    "country_id": 75,
    "country_code": "FR",
    "latitude": "46.86405000",
    "longitude": "-0.68869000",
    "native": null,
    "timezone": "Europe/Paris",
    "translations": {}
  },
  {
    "id": 41236,
    "name": "Coulon",
    "state_id": 5047,
    "state_code": "79",
    "country_id": 75,
    "country_code": "FR",
    "latitude": "46.32328000",
    "longitude": "-0.58561000",
    "native": null,
    "timezone": "Europe/Paris",
    "translations": {}
  },
  {
    "id": 41237,
    "name": "Coulonges-sur-l’Autize",
    "state_id": 5047,
    "state_code": "79",
    "country_id": 75,
    "country_code": "FR",
    "latitude": "46.48333000",
    "longitude": "-0.59845000",
    "native": null,
    "timezone": "Europe/Paris",
    "translations": {}
  },
  {
    "id": 41252,
    "name": "Courlay",
    "state_id": 5047,
    "state_code": "79",
    "country_id": 75,
    "country_code": "FR",
    "latitude": "46.77941000",
    "longitude": "-0.56607000",
    "native": null,
    "timezone": "Europe/Paris",
    "translations": {}
  },
  {
    "id": 41636,
    "name": "Département des Deux-Sèvres",
    "state_id": 5047,
    "state_code": "79",
    "country_id": 75,
    "country_code": "FR",
    "latitude": "46.53918000",
    "longitude": "-0.30838000",
    "native": null,
    "timezone": "Europe/Paris",
    "translations": {}
  },
  {
    "id": 48043,
    "name": "Échiré",
    "state_id": 5047,
    "state_code": "79",
    "country_id": 75,
    "country_code": "FR",
    "latitude": "46.38748000",
    "longitude": "-0.41511000",
    "native": null,
    "timezone": "Europe/Paris",
    "translations": {}
  },
  {
    "id": 41750,
    "name": "Exireuil",
    "state_id": 5047,
    "state_code": "79",
    "country_id": 75,
    "country_code": "FR",
    "latitude": "46.43382000",
    "longitude": "-0.19251000",
    "native": null,
    "timezone": "Europe/Paris",
    "translations": {}
  },
  {
    "id": 41915,
    "name": "Fors",
    "state_id": 5047,
    "state_code": "79",
    "country_id": 75,
    "country_code": "FR",
    "latitude": "46.23570000",
    "longitude": "-0.40904000",
    "native": null,
    "timezone": "Europe/Paris",
    "translations": {}
  },
  {
    "id": 41973,
    "name": "Frontenay-Rohan-Rohan",
    "state_id": 5047,
    "state_code": "79",
    "country_id": 75,
    "country_code": "FR",
    "latitude": "46.25276000",
    "longitude": "-0.53833000",
    "native": null,
    "timezone": "Europe/Paris",
    "translations": {}
  },
  {
    "id": 42686,
    "name": "La Chapelle-Saint-Laurent",
    "state_id": 5047,
    "state_code": "79",
    "country_id": 75,
    "country_code": "FR",
    "latitude": "46.74643000",
    "longitude": "-0.47643000",
    "native": null,
    "timezone": "Europe/Paris",
    "translations": {}
  },
  {
    "id": 42725,
    "name": "La Crèche",
    "state_id": 5047,
    "state_code": "79",
    "country_id": 75,
    "country_code": "FR",
    "latitude": "46.36667000",
    "longitude": "-0.30000000",
    "native": null,
    "timezone": "Europe/Paris",
    "translations": {}
  },
  {
    "id": 42752,
    "name": "La Forêt-sur-Sèvre",
    "state_id": 5047,
    "state_code": "79",
    "country_id": 75,
    "country_code": "FR",
    "latitude": "46.76905000",
    "longitude": "-0.64964000",
    "native": null,
    "timezone": "Europe/Paris",
    "translations": {}
  },
  {
    "id": 42811,
    "name": "La Mothe-Saint-Héray",
    "state_id": 5047,
    "state_code": "79",
    "country_id": 75,
    "country_code": "FR",
    "latitude": "46.35934000",
    "longitude": "-0.11236000",
    "native": null,
    "timezone": "Europe/Paris",
    "translations": {}
  },
  {
    "id": 42830,
    "name": "La Peyratte",
    "state_id": 5047,
    "state_code": "79",
    "country_id": 75,
    "country_code": "FR",
    "latitude": "46.67453000",
    "longitude": "-0.14912000",
    "native": null,
    "timezone": "Europe/Paris",
    "translations": {}
  },
  {
    "id": 42835,
    "name": "La Pommeraie-sur-Sèvre",
    "state_id": 5047,
    "state_code": "79",
    "country_id": 75,
    "country_code": "FR",
    "latitude": "46.83535000",
    "longitude": "-0.77785000",
    "native": null,
    "timezone": "Europe/Paris",
    "translations": {}
  },
  {
    "id": 43257,
    "name": "Le Pin",
    "state_id": 5047,
    "state_code": "79",
    "country_id": 75,
    "country_code": "FR",
    "latitude": "46.86179000",
    "longitude": "-0.65440000",
    "native": null,
    "timezone": "Europe/Paris",
    "translations": {}
  },
  {
    "id": 43305,
    "name": "Le Tallud",
    "state_id": 5047,
    "state_code": "79",
    "country_id": 75,
    "country_code": "FR",
    "latitude": "46.62911000",
    "longitude": "-0.29979000",
    "native": null,
    "timezone": "Europe/Paris",
    "translations": {}
  },
  {
    "id": 43459,
    "name": "Lezay",
    "state_id": 5047,
    "state_code": "79",
    "country_id": 75,
    "country_code": "FR",
    "latitude": "46.26437000",
    "longitude": "-0.00925000",
    "native": null,
    "timezone": "Europe/Paris",
    "translations": {}
  },
  {
    "id": 161872,
    "name": "Loretz-d'Argenton",
    "state_id": 5047,
    "state_code": "79",
    "country_id": 75,
    "country_code": "FR",
    "latitude": "47.05780000",
    "longitude": "-0.27320000",
    "native": null,
    "timezone": "Europe/Paris",
    "translations": {}
  },
  {
    "id": 43620,
    "name": "Louzy",
    "state_id": 5047,
    "state_code": "79",
    "country_id": 75,
    "country_code": "FR",
    "latitude": "47.01201000",
    "longitude": "-0.18537000",
    "native": null,
    "timezone": "Europe/Paris",
    "translations": {}
  },
  {
    "id": 43730,
    "name": "Magné",
    "state_id": 5047,
    "state_code": "79",
    "country_id": 75,
    "country_code": "FR",
    "latitude": "46.31548000",
    "longitude": "-0.54575000",
    "native": null,
    "timezone": "Europe/Paris",
    "translations": {}
  },
  {
    "id": 161888,
    "name": "Mauléon",
    "state_id": 5047,
    "state_code": "79",
    "country_id": 75,
    "country_code": "FR",
    "latitude": "46.94300000",
    "longitude": "-0.75650000",
    "native": null,
    "timezone": "Europe/Paris",
    "translations": {}
  },
  {
    "id": 43964,
    "name": "Mauzé-sur-le-Mignon",
    "state_id": 5047,
    "state_code": "79",
    "country_id": 75,
    "country_code": "FR",
    "latitude": "46.19516000",
    "longitude": "-0.67032000",
    "native": null,
    "timezone": "Europe/Paris",
    "translations": {}
  },
  {
    "id": 43963,
    "name": "Mauzé-Thouarsais",
    "state_id": 5047,
    "state_code": "79",
    "country_id": 75,
    "country_code": "FR",
    "latitude": "46.97611000",
    "longitude": "-0.27846000",
    "native": null,
    "timezone": "Europe/Paris",
    "translations": {}
  },
  {
    "id": 43995,
    "name": "Melle",
    "state_id": 5047,
    "state_code": "79",
    "country_id": 75,
    "country_code": "FR",
    "latitude": "46.22285000",
    "longitude": "-0.14216000",
    "native": null,
    "timezone": "Europe/Paris",
    "translations": {}
  },
  {
    "id": 44133,
    "name": "Moncoutant",
    "state_id": 5047,
    "state_code": "79",
    "country_id": 75,
    "country_code": "FR",
    "latitude": "46.72547000",
    "longitude": "-0.58797000",
    "native": null,
    "timezone": "Europe/Paris",
    "translations": {}
  },
  {
    "id": 161894,
    "name": "Moncoutant-sur-Sèvre",
    "state_id": 5047,
    "state_code": "79",
    "country_id": 75,
    "country_code": "FR",
    "latitude": "46.70970000",
    "longitude": "-0.59270000",
    "native": null,
    "timezone": "Europe/Paris",
    "translations": {}
  },
  {
    "id": 44387,
    "name": "Mougon",
    "state_id": 5047,
    "state_code": "79",
    "country_id": 75,
    "country_code": "FR",
    "latitude": "46.29561000",
    "longitude": "-0.28659000",
    "native": null,
    "timezone": "Europe/Paris",
    "translations": {}
  },
  {
    "id": 44507,
    "name": "Nanteuil",
    "state_id": 5047,
    "state_code": "79",
    "country_id": 75,
    "country_code": "FR",
    "latitude": "46.41172000",
    "longitude": "-0.17461000",
    "native": null,
    "timezone": "Europe/Paris",
    "translations": {}
  },
  {
    "id": 44601,
    "name": "Niort",
    "state_id": 5047,
    "state_code": "79",
    "country_id": 75,
    "country_code": "FR",
    "latitude": "46.32313000",
    "longitude": "-0.45877000",
    "native": null,
    "timezone": "Europe/Paris",
    "translations": {}
  },
  {
    "id": 44685,
    "name": "Nueil-les-Aubiers",
    "state_id": 5047,
    "state_code": "79",
    "country_id": 75,
    "country_code": "FR",
    "latitude": "46.93333000",
    "longitude": "-0.58333000",
    "native": null,
    "timezone": "Europe/Paris",
    "translations": {}
  },
  {
    "id": 44839,
    "name": "Pamproux",
    "state_id": 5047,
    "state_code": "79",
    "country_id": 75,
    "country_code": "FR",
    "latitude": "46.39578000",
    "longitude": "-0.05327000",
    "native": null,
    "timezone": "Europe/Paris",
    "translations": {}
  },
  {
    "id": 44859,
    "name": "Parthenay",
    "state_id": 5047,
    "state_code": "79",
    "country_id": 75,
    "country_code": "FR",
    "latitude": "46.64872000",
    "longitude": "-0.24682000",
    "native": null,
    "timezone": "Europe/Paris",
    "translations": {}
  },
  {
    "id": 161934,
    "name": "Plaine-et-Vallées",
    "state_id": 5047,
    "state_code": "79",
    "country_id": 75,
    "country_code": "FR",
    "latitude": "46.90830000",
    "longitude": "-0.09850000",
    "native": null,
    "timezone": "Europe/Paris",
    "translations": {}
  },
  {
    "id": 45153,
    "name": "Pompaire",
    "state_id": 5047,
    "state_code": "79",
    "country_id": 75,
    "country_code": "FR",
    "latitude": "46.60727000",
    "longitude": "-0.23237000",
    "native": null,
    "timezone": "Europe/Paris",
    "translations": {}
  },
  {
    "id": 45276,
    "name": "Prahecq",
    "state_id": 5047,
    "state_code": "79",
    "country_id": 75,
    "country_code": "FR",
    "latitude": "46.25897000",
    "longitude": "-0.34425000",
    "native": null,
    "timezone": "Europe/Paris",
    "translations": {}
  },
  {
    "id": 45745,
    "name": "Saint-Amand-sur-Sèvre",
    "state_id": 5047,
    "state_code": "79",
    "country_id": 75,
    "country_code": "FR",
    "latitude": "46.86905000",
    "longitude": "-0.79441000",
    "native": null,
    "timezone": "Europe/Paris",
    "translations": {}
  },
  {
    "id": 45788,
    "name": "Saint-Aubin-le-Cloud",
    "state_id": 5047,
    "state_code": "79",
    "country_id": 75,
    "country_code": "FR",
    "latitude": "46.65308000",
    "longitude": "-0.35258000",
    "native": null,
    "timezone": "Europe/Paris",
    "translations": {}
  },
  {
    "id": 45953,
    "name": "Saint-Gelais",
    "state_id": 5047,
    "state_code": "79",
    "country_id": 75,
    "country_code": "FR",
    "latitude": "46.38234000",
    "longitude": "-0.39084000",
    "native": null,
    "timezone": "Europe/Paris",
    "translations": {}
  },
  {
    "id": 46065,
    "name": "Saint-Hilaire-la-Palud",
    "state_id": 5047,
    "state_code": "79",
    "country_id": 75,
    "country_code": "FR",
    "latitude": "46.26676000",
    "longitude": "-0.71380000",
    "native": null,
    "timezone": "Europe/Paris",
    "translations": {}
  },
  {
    "id": 46103,
    "name": "Saint-Jean-de-Thouars",
    "state_id": 5047,
    "state_code": "79",
    "country_id": 75,
    "country_code": "FR",
    "latitude": "46.96486000",
    "longitude": "-0.21114000",
    "native": null,
    "timezone": "Europe/Paris",
    "translations": {}
  },
  {
    "id": 46210,
    "name": "Saint-Léger-de-Montbrun",
    "state_id": 5047,
    "state_code": "79",
    "country_id": 75,
    "country_code": "FR",
    "latitude": "47.00000000",
    "longitude": "-0.13333000",
    "native": null,
    "timezone": "Europe/Paris",
    "translations": {}
  },
  {
    "id": 162000,
    "name": "Saint-Maixent-l'École",
    "state_id": 5047,
    "state_code": "79",
    "country_id": 75,
    "country_code": "FR",
    "latitude": "46.41450000",
    "longitude": "-0.21220000",
    "native": null,
    "timezone": "Europe/Paris",
    "translations": {}
  },
  {
    "id": 46326,
    "name": "Saint-Maxire",
    "state_id": 5047,
    "state_code": "79",
    "country_id": 75,
    "country_code": "FR",
    "latitude": "46.39911000",
    "longitude": "-0.47988000",
    "native": null,
    "timezone": "Europe/Paris",
    "translations": {}
  },
  {
    "id": 46438,
    "name": "Saint-Pierre-des-Échaubrognes",
    "state_id": 5047,
    "state_code": "79",
    "country_id": 75,
    "country_code": "FR",
    "latitude": "46.98988000",
    "longitude": "-0.74441000",
    "native": null,
    "timezone": "Europe/Paris",
    "translations": {}
  },
  {
    "id": 46574,
    "name": "Saint-Symphorien",
    "state_id": 5047,
    "state_code": "79",
    "country_id": 75,
    "country_code": "FR",
    "latitude": "46.26442000",
    "longitude": "-0.49220000",
    "native": null,
    "timezone": "Europe/Paris",
    "translations": {}
  },
  {
    "id": 46602,
    "name": "Saint-Varent",
    "state_id": 5047,
    "state_code": "79",
    "country_id": 75,
    "country_code": "FR",
    "latitude": "46.88934000",
    "longitude": "-0.23210000",
    "native": null,
    "timezone": "Europe/Paris",
    "translations": {}
  },
  {
    "id": 46733,
    "name": "Sainte-Verge",
    "state_id": 5047,
    "state_code": "79",
    "country_id": 75,
    "country_code": "FR",
    "latitude": "47.00818000",
    "longitude": "-0.21033000",
    "native": null,
    "timezone": "Europe/Paris",
    "translations": {}
  },
  {
    "id": 46738,
    "name": "Saivres",
    "state_id": 5047,
    "state_code": "79",
    "country_id": 75,
    "country_code": "FR",
    "latitude": "46.43262000",
    "longitude": "-0.23677000",
    "native": null,
    "timezone": "Europe/Paris",
    "translations": {}
  },
  {
    "id": 46869,
    "name": "Sauzé-Vaussais",
    "state_id": 5047,
    "state_code": "79",
    "country_id": 75,
    "country_code": "FR",
    "latitude": "46.13369000",
    "longitude": "0.10673000",
    "native": null,
    "timezone": "Europe/Paris",
    "translations": {}
  },
  {
    "id": 46912,
    "name": "Secondigny",
    "state_id": 5047,
    "state_code": "79",
    "country_id": 75,
    "country_code": "FR",
    "latitude": "46.61024000",
    "longitude": "-0.41679000",
    "native": null,
    "timezone": "Europe/Paris",
    "translations": {}
  },
  {
    "id": 47269,
    "name": "Thénezay",
    "state_id": 5047,
    "state_code": "79",
    "country_id": 75,
    "country_code": "FR",
    "latitude": "46.71879000",
    "longitude": "-0.02883000",
    "native": null,
    "timezone": "Europe/Paris",
    "translations": {}
  },
  {
    "id": 47251,
    "name": "Thorigné",
    "state_id": 5047,
    "state_code": "79",
    "country_id": 75,
    "country_code": "FR",
    "latitude": "46.29149000",
    "longitude": "-0.25122000",
    "native": null,
    "timezone": "Europe/Paris",
    "translations": {}
  },
  {
    "id": 47254,
    "name": "Thouars",
    "state_id": 5047,
    "state_code": "79",
    "country_id": 75,
    "country_code": "FR",
    "latitude": "46.97602000",
    "longitude": "-0.21507000",
    "native": null,
    "timezone": "Europe/Paris",
    "translations": {}
  },
  {
    "id": 162061,
    "name": "Val en Vignes",
    "state_id": 5047,
    "state_code": "79",
    "country_id": 75,
    "country_code": "FR",
    "latitude": "47.03510000",
    "longitude": "-0.34500000",
    "native": null,
    "timezone": "Europe/Paris",
    "translations": {}
  },
  {
    "id": 47524,
    "name": "Vasles",
    "state_id": 5047,
    "state_code": "79",
    "country_id": 75,
    "country_code": "FR",
    "latitude": "46.57618000",
    "longitude": "-0.02638000",
    "native": null,
    "timezone": "Europe/Paris",
    "translations": {}
  },
  {
    "id": 47681,
    "name": "Viennay",
    "state_id": 5047,
    "state_code": "79",
    "country_id": 75,
    "country_code": "FR",
    "latitude": "46.68711000",
    "longitude": "-0.24641000",
    "native": null,
    "timezone": "Europe/Paris",
    "translations": {}
  },
  {
    "id": 47828,
    "name": "Villiers-en-Plaine",
    "state_id": 5047,
    "state_code": "79",
    "country_id": 75,
    "country_code": "FR",
    "latitude": "46.40895000",
    "longitude": "-0.53756000",
    "native": null,
    "timezone": "Europe/Paris",
    "translations": {}
  }
]