[
  {
    "id": 39365,
    "name": "Amilly",
    "state_id": 5013,
    "state_code": "45",
    "country_id": 75,
    "country_code": "FR",
    "latitude": "47.97281000",
    "longitude": "2.77186000",
    "native": null,
    "timezone": "Europe/Paris",
    "translations": {}
  },
  {
    "id": 39521,
    "name": "Artenay",
    "state_id": 5013,
    "state_code": "45",
    "country_id": 75,
    "country_code": "FR",
    "latitude": "48.08246000",
    "longitude": "1.88098000",
    "native": null,
    "timezone": "Europe/Paris",
    "translations": {}
  },
  {
    "id": 39541,
    "name": "Aschères-le-Marché",
    "state_id": 5013,
    "state_code": "45",
    "country_id": 75,
    "country_code": "FR",
    "latitude": "48.11008000",
    "longitude": "2.00725000",
    "native": null,
    "timezone": "Europe/Paris",
    "translations": {}
  },
  {
    "id": 39638,
    "name": "Autry-le-Châtel",
    "state_id": 5013,
    "state_code": "45",
    "country_id": 75,
    "country_code": "FR",
    "latitude": "47.59886000",
    "longitude": "2.60200000",
    "native": null,
    "timezone": "Europe/Paris",
    "translations": {}
  },
  {
    "id": 39811,
    "name": "Baule",
    "state_id": 5013,
    "state_code": "45",
    "country_id": 75,
    "country_code": "FR",
    "latitude": "47.81084000",
    "longitude": "1.67259000",
    "native": null,
    "timezone": "Europe/Paris",
    "translations": {}
  },
  {
    "id": 39832,
    "name": "Bazoches-les-Gallerandes",
    "state_id": 5013,
    "state_code": "45",
    "country_id": 75,
    "country_code": "FR",
    "latitude": "48.16540000",
    "longitude": "2.04319000",
    "native": null,
    "timezone": "Europe/Paris",
    "translations": {}
  },
  {
    "id": 39848,
    "name": "Beaugency",
    "state_id": 5013,
    "state_code": "45",
    "country_id": 75,
    "country_code": "FR",
    "latitude": "47.78019000",
    "longitude": "1.62705000",
    "native": null,
    "timezone": "Europe/Paris",
    "translations": {}
  },
  {
    "id": 39875,
    "name": "Beaune-la-Rolande",
    "state_id": 5013,
    "state_code": "45",
    "country_id": 75,
    "country_code": "FR",
    "latitude": "48.07124000",
    "longitude": "2.43140000",
    "native": null,
    "timezone": "Europe/Paris",
    "translations": {}
  },
  {
    "id": 40083,
    "name": "Boigny-sur-Bionne",
    "state_id": 5013,
    "state_code": "45",
    "country_id": 75,
    "country_code": "FR",
    "latitude": "47.93333000",
    "longitude": "2.01667000",
    "native": null,
    "timezone": "Europe/Paris",
    "translations": {}
  },
  {
    "id": 40091,
    "name": "Boiscommun",
    "state_id": 5013,
    "state_code": "45",
    "country_id": 75,
    "country_code": "FR",
    "latitude": "48.03576000",
    "longitude": "2.38333000",
    "native": null,
    "timezone": "Europe/Paris",
    "translations": {}
  },
  {
    "id": 40129,
    "name": "Bonny-sur-Loire",
    "state_id": 5013,
    "state_code": "45",
    "country_id": 75,
    "country_code": "FR",
    "latitude": "47.56172000",
    "longitude": "2.83933000",
    "native": null,
    "timezone": "Europe/Paris",
    "translations": {}
  },
  {
    "id": 40237,
    "name": "Bouzy-la-Forêt",
    "state_id": 5013,
    "state_code": "45",
    "country_id": 75,
    "country_code": "FR",
    "latitude": "47.85120000",
    "longitude": "2.37773000",
    "native": null,
    "timezone": "Europe/Paris",
    "translations": {}
  },
  {
    "id": 40241,
    "name": "Boynes",
    "state_id": 5013,
    "state_code": "45",
    "country_id": 75,
    "country_code": "FR",
    "latitude": "48.11822000",
    "longitude": "2.36006000",
    "native": null,
    "timezone": "Europe/Paris",
    "translations": {}
  },
  {
    "id": 40267,
    "name": "Bray-en-Val",
    "state_id": 5013,
    "state_code": "45",
    "country_id": 75,
    "country_code": "FR",
    "latitude": "47.82856000",
    "longitude": "2.36644000",
    "native": null,
    "timezone": "Europe/Paris",
    "translations": {}
  },
  {
    "id": 40301,
    "name": "Briare",
    "state_id": 5013,
    "state_code": "45",
    "country_id": 75,
    "country_code": "FR",
    "latitude": "47.63343000",
    "longitude": "2.74380000",
    "native": null,
    "timezone": "Europe/Paris",
    "translations": {}
  },
  {
    "id": 40304,
    "name": "Bricy",
    "state_id": 5013,
    "state_code": "45",
    "country_id": 75,
    "country_code": "FR",
    "latitude": "47.99847000",
    "longitude": "1.77937000",
    "native": null,
    "timezone": "Europe/Paris",
    "translations": {}
  },
  {
    "id": 40640,
    "name": "Cepoy",
    "state_id": 5013,
    "state_code": "45",
    "country_id": 75,
    "country_code": "FR",
    "latitude": "48.04795000",
    "longitude": "2.73782000",
    "native": null,
    "timezone": "Europe/Paris",
    "translations": {}
  },
  {
    "id": 40643,
    "name": "Cerdon",
    "state_id": 5013,
    "state_code": "45",
    "country_id": 75,
    "country_code": "FR",
    "latitude": "47.63571000",
    "longitude": "2.36277000",
    "native": null,
    "timezone": "Europe/Paris",
    "translations": {}
  },
  {
    "id": 40683,
    "name": "Chaingy",
    "state_id": 5013,
    "state_code": "45",
    "country_id": 75,
    "country_code": "FR",
    "latitude": "47.88326000",
    "longitude": "1.77059000",
    "native": null,
    "timezone": "Europe/Paris",
    "translations": {}
  },
  {
    "id": 40932,
    "name": "Châlette-sur-Loing",
    "state_id": 5013,
    "state_code": "45",
    "country_id": 75,
    "country_code": "FR",
    "latitude": "48.01337000",
    "longitude": "2.73587000",
    "native": null,
    "timezone": "Europe/Paris",
    "translations": {}
  },
  {
    "id": 40762,
    "name": "Changy-les-Bois",
    "state_id": 5013,
    "state_code": "45",
    "country_id": 75,
    "country_code": "FR",
    "latitude": "47.85793000",
    "longitude": "2.68543000",
    "native": null,
    "timezone": "Europe/Paris",
    "translations": {}
  },
  {
    "id": 40767,
    "name": "Chanteau",
    "state_id": 5013,
    "state_code": "45",
    "country_id": 75,
    "country_code": "FR",
    "latitude": "47.96651000",
    "longitude": "1.97129000",
    "native": null,
    "timezone": "Europe/Paris",
    "translations": {}
  },
  {
    "id": 40943,
    "name": "Château-Renard",
    "state_id": 5013,
    "state_code": "45",
    "country_id": 75,
    "country_code": "FR",
    "latitude": "47.93333000",
    "longitude": "2.93333000",
    "native": null,
    "timezone": "Europe/Paris",
    "translations": {}
  },
  {
    "id": 40974,
    "name": "Châteauneuf-sur-Loire",
    "state_id": 5013,
    "state_code": "45",
    "country_id": 75,
    "country_code": "FR",
    "latitude": "47.86575000",
    "longitude": "2.21903000",
    "native": null,
    "timezone": "Europe/Paris",
    "translations": {}
  },
  {
    "id": 40993,
    "name": "Châtillon-Coligny",
    "state_id": 5013,
    "state_code": "45",
    "country_id": 75,
    "country_code": "FR",
    "latitude": "47.82266000",
    "longitude": "2.84563000",
    "native": null,
    "timezone": "Europe/Paris",
    "translations": {}
  },
  {
    "id": 161728,
    "name": "Châtillon-sur-Loire",
    "state_id": 5013,
    "state_code": "45",
    "country_id": 75,
    "country_code": "FR",
    "latitude": "47.57540000",
    "longitude": "2.74350000",
    "native": null,
    "timezone": "Europe/Paris",
    "translations": {}
  },
  {
    "id": 41010,
    "name": "Chécy",
    "state_id": 5013,
    "state_code": "45",
    "country_id": 75,
    "country_code": "FR",
    "latitude": "47.89402000",
    "longitude": "2.02304000",
    "native": null,
    "timezone": "Europe/Paris",
    "translations": {}
  },
  {
    "id": 40898,
    "name": "Chevillon-sur-Huillard",
    "state_id": 5013,
    "state_code": "45",
    "country_id": 75,
    "country_code": "FR",
    "latitude": "47.96197000",
    "longitude": "2.62601000",
    "native": null,
    "timezone": "Europe/Paris",
    "translations": {}
  },
  {
    "id": 40899,
    "name": "Chevilly",
    "state_id": 5013,
    "state_code": "45",
    "country_id": 75,
    "country_code": "FR",
    "latitude": "48.02973000",
    "longitude": "1.87402000",
    "native": null,
    "timezone": "Europe/Paris",
    "translations": {}
  },
  {
    "id": 40907,
    "name": "Chilleurs-aux-Bois",
    "state_id": 5013,
    "state_code": "45",
    "country_id": 75,
    "country_code": "FR",
    "latitude": "48.07220000",
    "longitude": "2.13540000",
    "native": null,
    "timezone": "Europe/Paris",
    "translations": {}
  },
  {
    "id": 41074,
    "name": "Cléry-Saint-André",
    "state_id": 5013,
    "state_code": "45",
    "country_id": 75,
    "country_code": "FR",
    "latitude": "47.82218000",
    "longitude": "1.75091000",
    "native": null,
    "timezone": "Europe/Paris",
    "translations": {}
  },
  {
    "id": 41165,
    "name": "Corbeilles",
    "state_id": 5013,
    "state_code": "45",
    "country_id": 75,
    "country_code": "FR",
    "latitude": "48.07201000",
    "longitude": "2.55030000",
    "native": null,
    "timezone": "Europe/Paris",
    "translations": {}
  },
  {
    "id": 41201,
    "name": "Corquilleroy",
    "state_id": 5013,
    "state_code": "45",
    "country_id": 75,
    "country_code": "FR",
    "latitude": "48.04212000",
    "longitude": "2.70382000",
    "native": null,
    "timezone": "Europe/Paris",
    "translations": {}
  },
  {
    "id": 41231,
    "name": "Coullons",
    "state_id": 5013,
    "state_code": "45",
    "country_id": 75,
    "country_code": "FR",
    "latitude": "47.62105000",
    "longitude": "2.49258000",
    "native": null,
    "timezone": "Europe/Paris",
    "translations": {}
  },
  {
    "id": 41268,
    "name": "Courtenay",
    "state_id": 5013,
    "state_code": "45",
    "country_id": 75,
    "country_code": "FR",
    "latitude": "48.03901000",
    "longitude": "3.05851000",
    "native": null,
    "timezone": "Europe/Paris",
    "translations": {}
  },
  {
    "id": 41403,
    "name": "Dadonville",
    "state_id": 5013,
    "state_code": "45",
    "country_id": 75,
    "country_code": "FR",
    "latitude": "48.15776000",
    "longitude": "2.27150000",
    "native": null,
    "timezone": "Europe/Paris",
    "translations": {}
  },
  {
    "id": 41419,
    "name": "Dampierre-en-Burly",
    "state_id": 5013,
    "state_code": "45",
    "country_id": 75,
    "country_code": "FR",
    "latitude": "47.76143000",
    "longitude": "2.51962000",
    "native": null,
    "timezone": "Europe/Paris",
    "translations": {}
  },
  {
    "id": 41437,
    "name": "Darvoy",
    "state_id": 5013,
    "state_code": "45",
    "country_id": 75,
    "country_code": "FR",
    "latitude": "47.85839000",
    "longitude": "2.10033000",
    "native": null,
    "timezone": "Europe/Paris",
    "translations": {}
  },
  {
    "id": 41533,
    "name": "Donnery",
    "state_id": 5013,
    "state_code": "45",
    "country_id": 75,
    "country_code": "FR",
    "latitude": "47.91486000",
    "longitude": "2.10299000",
    "native": null,
    "timezone": "Europe/Paris",
    "translations": {}
  },
  {
    "id": 41538,
    "name": "Dordives",
    "state_id": 5013,
    "state_code": "45",
    "country_id": 75,
    "country_code": "FR",
    "latitude": "48.14253000",
    "longitude": "2.76775000",
    "native": null,
    "timezone": "Europe/Paris",
    "translations": {}
  },
  {
    "id": 41582,
    "name": "Dry",
    "state_id": 5013,
    "state_code": "45",
    "country_id": 75,
    "country_code": "FR",
    "latitude": "47.79612000",
    "longitude": "1.71330000",
    "native": null,
    "timezone": "Europe/Paris",
    "translations": {}
  },
  {
    "id": 48076,
    "name": "Épieds-en-Beauce",
    "state_id": 5013,
    "state_code": "45",
    "country_id": 75,
    "country_code": "FR",
    "latitude": "47.95066000",
    "longitude": "1.61732000",
    "native": null,
    "timezone": "Europe/Paris",
    "translations": {}
  },
  {
    "id": 41787,
    "name": "Fay-aux-Loges",
    "state_id": 5013,
    "state_code": "45",
    "country_id": 75,
    "country_code": "FR",
    "latitude": "47.92724000",
    "longitude": "2.14012000",
    "native": null,
    "timezone": "Europe/Paris",
    "translations": {}
  },
  {
    "id": 42006,
    "name": "Férolles",
    "state_id": 5013,
    "state_code": "45",
    "country_id": 75,
    "country_code": "FR",
    "latitude": "47.83475000",
    "longitude": "2.11113000",
    "native": null,
    "timezone": "Europe/Paris",
    "translations": {}
  },
  {
    "id": 161762,
    "name": "Ferrières-en-Gâtinais",
    "state_id": 5013,
    "state_code": "45",
    "country_id": 75,
    "country_code": "FR",
    "latitude": "48.09920000",
    "longitude": "2.81220000",
    "native": null,
    "timezone": "Europe/Paris",
    "translations": {}
  },
  {
    "id": 41849,
    "name": "Fleury-les-Aubrais",
    "state_id": 5013,
    "state_code": "45",
    "country_id": 75,
    "country_code": "FR",
    "latitude": "47.93328000",
    "longitude": "1.91811000",
    "native": null,
    "timezone": "Europe/Paris",
    "translations": {}
  },
  {
    "id": 41903,
    "name": "Fontenay-sur-Loing",
    "state_id": 5013,
    "state_code": "45",
    "country_id": 75,
    "country_code": "FR",
    "latitude": "48.10365000",
    "longitude": "2.77542000",
    "native": null,
    "timezone": "Europe/Paris",
    "translations": {}
  },
  {
    "id": 42087,
    "name": "Gidy",
    "state_id": 5013,
    "state_code": "45",
    "country_id": 75,
    "country_code": "FR",
    "latitude": "47.98539000",
    "longitude": "1.83816000",
    "native": null,
    "timezone": "Europe/Paris",
    "translations": {}
  },
  {
    "id": 42088,
    "name": "Gien",
    "state_id": 5013,
    "state_code": "45",
    "country_id": 75,
    "country_code": "FR",
    "latitude": "47.69332000",
    "longitude": "2.63094000",
    "native": null,
    "timezone": "Europe/Paris",
    "translations": {}
  },
  {
    "id": 42439,
    "name": "Huisseau-sur-Mauves",
    "state_id": 5013,
    "state_code": "45",
    "country_id": 75,
    "country_code": "FR",
    "latitude": "47.89319000",
    "longitude": "1.70274000",
    "native": null,
    "timezone": "Europe/Paris",
    "translations": {}
  },
  {
    "id": 42489,
    "name": "Ingré",
    "state_id": 5013,
    "state_code": "45",
    "country_id": 75,
    "country_code": "FR",
    "latitude": "47.91995000",
    "longitude": "1.82778000",
    "native": null,
    "timezone": "Europe/Paris",
    "translations": {}
  },
  {
    "id": 42532,
    "name": "Jargeau",
    "state_id": 5013,
    "state_code": "45",
    "country_id": 75,
    "country_code": "FR",
    "latitude": "47.86316000",
    "longitude": "2.12648000",
    "native": null,
    "timezone": "Europe/Paris",
    "translations": {}
  },
  {
    "id": 42577,
    "name": "Jouy-le-Potier",
    "state_id": 5013,
    "state_code": "45",
    "country_id": 75,
    "country_code": "FR",
    "latitude": "47.74553000",
    "longitude": "1.81115000",
    "native": null,
    "timezone": "Europe/Paris",
    "translations": {}
  },
  {
    "id": 42688,
    "name": "La Chapelle-Saint-Mesmin",
    "state_id": 5013,
    "state_code": "45",
    "country_id": 75,
    "country_code": "FR",
    "latitude": "47.88648000",
    "longitude": "1.83450000",
    "native": null,
    "timezone": "Europe/Paris",
    "translations": {}
  },
  {
    "id": 42742,
    "name": "La Ferté-Saint-Aubin",
    "state_id": 5013,
    "state_code": "45",
    "country_id": 75,
    "country_code": "FR",
    "latitude": "47.71695000",
    "longitude": "1.93904000",
    "native": null,
    "timezone": "Europe/Paris",
    "translations": {}
  },
  {
    "id": 42952,
    "name": "Ladon",
    "state_id": 5013,
    "state_code": "45",
    "country_id": 75,
    "country_code": "FR",
    "latitude": "48.00259000",
    "longitude": "2.53724000",
    "native": null,
    "timezone": "Europe/Paris",
    "translations": {}
  },
  {
    "id": 42969,
    "name": "Lailly-en-Val",
    "state_id": 5013,
    "state_code": "45",
    "country_id": 75,
    "country_code": "FR",
    "latitude": "47.76962000",
    "longitude": "1.68657000",
    "native": null,
    "timezone": "Europe/Paris",
    "translations": {}
  },
  {
    "id": 161841,
    "name": "Le Malesherbois",
    "state_id": 5013,
    "state_code": "45",
    "country_id": 75,
    "country_code": "FR",
    "latitude": "48.27450000",
    "longitude": "2.33920000",
    "native": null,
    "timezone": "Europe/Paris",
    "translations": {}
  },
  {
    "id": 43480,
    "name": "Ligny-le-Ribault",
    "state_id": 5013,
    "state_code": "45",
    "country_id": 75,
    "country_code": "FR",
    "latitude": "47.68419000",
    "longitude": "1.78153000",
    "native": null,
    "timezone": "Europe/Paris",
    "translations": {}
  },
  {
    "id": 43542,
    "name": "Loiret",
    "state_id": 5013,
    "state_code": "45",
    "country_id": 75,
    "country_code": "FR",
    "latitude": "47.93598000",
    "longitude": "2.30173000",
    "native": null,
    "timezone": "Europe/Paris",
    "translations": {}
  },
  {
    "id": 43595,
    "name": "Lorris",
    "state_id": 5013,
    "state_code": "45",
    "country_id": 75,
    "country_code": "FR",
    "latitude": "47.88950000",
    "longitude": "2.51478000",
    "native": null,
    "timezone": "Europe/Paris",
    "translations": {}
  },
  {
    "id": 43610,
    "name": "Loury",
    "state_id": 5013,
    "state_code": "45",
    "country_id": 75,
    "country_code": "FR",
    "latitude": "47.99944000",
    "longitude": "2.08474000",
    "native": null,
    "timezone": "Europe/Paris",
    "translations": {}
  },
  {
    "id": 43805,
    "name": "Marcilly-en-Villette",
    "state_id": 5013,
    "state_code": "45",
    "country_id": 75,
    "country_code": "FR",
    "latitude": "47.76505000",
    "longitude": "2.02266000",
    "native": null,
    "timezone": "Europe/Paris",
    "translations": {}
  },
  {
    "id": 43818,
    "name": "Mardié",
    "state_id": 5013,
    "state_code": "45",
    "country_id": 75,
    "country_code": "FR",
    "latitude": "47.88617000",
    "longitude": "2.05745000",
    "native": null,
    "timezone": "Europe/Paris",
    "translations": {}
  },
  {
    "id": 43819,
    "name": "Mareau-aux-Prés",
    "state_id": 5013,
    "state_code": "45",
    "country_id": 75,
    "country_code": "FR",
    "latitude": "47.86667000",
    "longitude": "1.78333000",
    "native": null,
    "timezone": "Europe/Paris",
    "translations": {}
  },
  {
    "id": 43843,
    "name": "Marigny-les-Usages",
    "state_id": 5013,
    "state_code": "45",
    "country_id": 75,
    "country_code": "FR",
    "latitude": "47.95799000",
    "longitude": "2.01462000",
    "native": null,
    "timezone": "Europe/Paris",
    "translations": {}
  },
  {
    "id": 44464,
    "name": "Ménestreau-en-Villette",
    "state_id": 5013,
    "state_code": "45",
    "country_id": 75,
    "country_code": "FR",
    "latitude": "47.69962000",
    "longitude": "2.02333000",
    "native": null,
    "timezone": "Europe/Paris",
    "translations": {}
  },
  {
    "id": 44047,
    "name": "Meung-sur-Loire",
    "state_id": 5013,
    "state_code": "45",
    "country_id": 75,
    "country_code": "FR",
    "latitude": "47.83124000",
    "longitude": "1.69582000",
    "native": null,
    "timezone": "Europe/Paris",
    "translations": {}
  },
  {
    "id": 44179,
    "name": "Montargis",
    "state_id": 5013,
    "state_code": "45",
    "country_id": 75,
    "country_code": "FR",
    "latitude": "47.99696000",
    "longitude": "2.73261000",
    "native": null,
    "timezone": "Europe/Paris",
    "translations": {}
  },
  {
    "id": 44211,
    "name": "Montcresson",
    "state_id": 5013,
    "state_code": "45",
    "country_id": 75,
    "country_code": "FR",
    "latitude": "47.90561000",
    "longitude": "2.80796000",
    "native": null,
    "timezone": "Europe/Paris",
    "translations": {}
  },
  {
    "id": 44515,
    "name": "Nargis",
    "state_id": 5013,
    "state_code": "45",
    "country_id": 75,
    "country_code": "FR",
    "latitude": "48.11106000",
    "longitude": "2.75597000",
    "native": null,
    "timezone": "Europe/Paris",
    "translations": {}
  },
  {
    "id": 44565,
    "name": "Neuville-aux-Bois",
    "state_id": 5013,
    "state_code": "45",
    "country_id": 75,
    "country_code": "FR",
    "latitude": "48.06813000",
    "longitude": "2.05372000",
    "native": null,
    "timezone": "Europe/Paris",
    "translations": {}
  },
  {
    "id": 44584,
    "name": "Nevoy",
    "state_id": 5013,
    "state_code": "45",
    "country_id": 75,
    "country_code": "FR",
    "latitude": "47.71591000",
    "longitude": "2.57791000",
    "native": null,
    "timezone": "Europe/Paris",
    "translations": {}
  },
  {
    "id": 44618,
    "name": "Nogent-sur-Vernisson",
    "state_id": 5013,
    "state_code": "45",
    "country_id": 75,
    "country_code": "FR",
    "latitude": "47.84603000",
    "longitude": "2.74267000",
    "native": null,
    "timezone": "Europe/Paris",
    "translations": {}
  },
  {
    "id": 44733,
    "name": "Olivet",
    "state_id": 5013,
    "state_code": "45",
    "country_id": 75,
    "country_code": "FR",
    "latitude": "47.86219000",
    "longitude": "1.89910000",
    "native": null,
    "timezone": "Europe/Paris",
    "translations": {}
  },
  {
    "id": 44774,
    "name": "Orléans",
    "state_id": 5013,
    "state_code": "45",
    "country_id": 75,
    "country_code": "FR",
    "latitude": "47.90289000",
    "longitude": "1.90389000",
    "native": null,
    "timezone": "Europe/Paris",
    "translations": {}
  },
  {
    "id": 44776,
    "name": "Ormes",
    "state_id": 5013,
    "state_code": "45",
    "country_id": 75,
    "country_code": "FR",
    "latitude": "47.94152000",
    "longitude": "1.81823000",
    "native": null,
    "timezone": "Europe/Paris",
    "translations": {}
  },
  {
    "id": 44812,
    "name": "Outarville",
    "state_id": 5013,
    "state_code": "45",
    "country_id": 75,
    "country_code": "FR",
    "latitude": "48.21393000",
    "longitude": "2.02198000",
    "native": null,
    "timezone": "Europe/Paris",
    "translations": {}
  },
  {
    "id": 44816,
    "name": "Ouzouer-sur-Loire",
    "state_id": 5013,
    "state_code": "45",
    "country_id": 75,
    "country_code": "FR",
    "latitude": "47.76638000",
    "longitude": "2.48038000",
    "native": null,
    "timezone": "Europe/Paris",
    "translations": {}
  },
  {
    "id": 44817,
    "name": "Ouzouer-sur-Trézée",
    "state_id": 5013,
    "state_code": "45",
    "country_id": 75,
    "country_code": "FR",
    "latitude": "47.67266000",
    "longitude": "2.80800000",
    "native": null,
    "timezone": "Europe/Paris",
    "translations": {}
  },
  {
    "id": 44844,
    "name": "Pannes",
    "state_id": 5013,
    "state_code": "45",
    "country_id": 75,
    "country_code": "FR",
    "latitude": "48.01937000",
    "longitude": "2.66755000",
    "native": null,
    "timezone": "Europe/Paris",
    "translations": {}
  },
  {
    "id": 44866,
    "name": "Patay",
    "state_id": 5013,
    "state_code": "45",
    "country_id": 75,
    "country_code": "FR",
    "latitude": "48.04833000",
    "longitude": "1.69500000",
    "native": null,
    "timezone": "Europe/Paris",
    "translations": {}
  },
  {
    "id": 44984,
    "name": "Pithiviers",
    "state_id": 5013,
    "state_code": "45",
    "country_id": 75,
    "country_code": "FR",
    "latitude": "48.17185000",
    "longitude": "2.25185000",
    "native": null,
    "timezone": "Europe/Paris",
    "translations": {}
  },
  {
    "id": 44985,
    "name": "Pithiviers-le-Vieil",
    "state_id": 5013,
    "state_code": "45",
    "country_id": 75,
    "country_code": "FR",
    "latitude": "48.16313000",
    "longitude": "2.20922000",
    "native": null,
    "timezone": "Europe/Paris",
    "translations": {}
  },
  {
    "id": 45134,
    "name": "Poilly-lez-Gien",
    "state_id": 5013,
    "state_code": "45",
    "country_id": 75,
    "country_code": "FR",
    "latitude": "47.67724000",
    "longitude": "2.59743000",
    "native": null,
    "timezone": "Europe/Paris",
    "translations": {}
  },
  {
    "id": 45320,
    "name": "Puiseaux",
    "state_id": 5013,
    "state_code": "45",
    "country_id": 75,
    "country_code": "FR",
    "latitude": "48.09234000",
    "longitude": "2.05967000",
    "native": null,
    "timezone": "Europe/Paris",
    "translations": {}
  },
  {
    "id": 45385,
    "name": "Quiers-sur-Bézonde",
    "state_id": 5013,
    "state_code": "45",
    "country_id": 75,
    "country_code": "FR",
    "latitude": "47.99615000",
    "longitude": "2.44141000",
    "native": null,
    "timezone": "Europe/Paris",
    "translations": {}
  },
  {
    "id": 45440,
    "name": "Rebréchien",
    "state_id": 5013,
    "state_code": "45",
    "country_id": 75,
    "country_code": "FR",
    "latitude": "47.98727000",
    "longitude": "2.04432000",
    "native": null,
    "timezone": "Europe/Paris",
    "translations": {}
  },
  {
    "id": 45800,
    "name": "Saint-Ay",
    "state_id": 5013,
    "state_code": "45",
    "country_id": 75,
    "country_code": "FR",
    "latitude": "47.85890000",
    "longitude": "1.75137000",
    "native": null,
    "timezone": "Europe/Paris",
    "translations": {}
  },
  {
    "id": 45812,
    "name": "Saint-Benoît-sur-Loire",
    "state_id": 5013,
    "state_code": "45",
    "country_id": 75,
    "country_code": "FR",
    "latitude": "47.80561000",
    "longitude": "2.31274000",
    "native": null,
    "timezone": "Europe/Paris",
    "translations": {}
  },
  {
    "id": 45832,
    "name": "Saint-Brisson-sur-Loire",
    "state_id": 5013,
    "state_code": "45",
    "country_id": 75,
    "country_code": "FR",
    "latitude": "47.64686000",
    "longitude": "2.68229000",
    "native": null,
    "timezone": "Europe/Paris",
    "translations": {}
  },
  {
    "id": 45884,
    "name": "Saint-Cyr-en-Val",
    "state_id": 5013,
    "state_code": "45",
    "country_id": 75,
    "country_code": "FR",
    "latitude": "47.83182000",
    "longitude": "1.96672000",
    "native": null,
    "timezone": "Europe/Paris",
    "translations": {}
  },
  {
    "id": 161980,
    "name": "Saint-Denis-de-l'Hôtel",
    "state_id": 5013,
    "state_code": "45",
    "country_id": 75,
    "country_code": "FR",
    "latitude": "47.88390000",
    "longitude": "2.14960000",
    "native": null,
    "timezone": "Europe/Paris",
    "translations": {}
  },
  {
    "id": 45900,
    "name": "Saint-Denis-en-Val",
    "state_id": 5013,
    "state_code": "45",
    "country_id": 75,
    "country_code": "FR",
    "latitude": "47.87321000",
    "longitude": "1.96601000",
    "native": null,
    "timezone": "Europe/Paris",
    "translations": {}
  },
  {
    "id": 46007,
    "name": "Saint-Germain-des-Prés",
    "state_id": 5013,
    "state_code": "45",
    "country_id": 75,
    "country_code": "FR",
    "latitude": "47.95384000",
    "longitude": "2.84846000",
    "native": null,
    "timezone": "Europe/Paris",
    "translations": {}
  },
  {
    "id": 46053,
    "name": "Saint-Hilaire-Saint-Mesmin",
    "state_id": 5013,
    "state_code": "45",
    "country_id": 75,
    "country_code": "FR",
    "latitude": "47.86614000",
    "longitude": "1.83351000",
    "native": null,
    "timezone": "Europe/Paris",
    "translations": {}
  },
  {
    "id": 46089,
    "name": "Saint-Jean-de-Braye",
    "state_id": 5013,
    "state_code": "45",
    "country_id": 75,
    "country_code": "FR",
    "latitude": "47.91303000",
    "longitude": "1.97705000",
    "native": null,
    "timezone": "Europe/Paris",
    "translations": {}
  },
  {
    "id": 46105,
    "name": "Saint-Jean-de-la-Ruelle",
    "state_id": 5013,
    "state_code": "45",
    "country_id": 75,
    "country_code": "FR",
    "latitude": "47.91127000",
    "longitude": "1.86483000",
    "native": null,
    "timezone": "Europe/Paris",
    "translations": {}
  },
  {
    "id": 46116,
    "name": "Saint-Jean-le-Blanc",
    "state_id": 5013,
    "state_code": "45",
    "country_id": 75,
    "country_code": "FR",
    "latitude": "47.89327000",
    "longitude": "1.91540000",
    "native": null,
    "timezone": "Europe/Paris",
    "translations": {}
  },
  {
    "id": 46303,
    "name": "Saint-Martin-sur-Ocre",
    "state_id": 5013,
    "state_code": "45",
    "country_id": 75,
    "country_code": "FR",
    "latitude": "47.65942000",
    "longitude": "2.65810000",
    "native": null,
    "timezone": "Europe/Paris",
    "translations": {}
  },
  {
    "id": 46320,
    "name": "Saint-Maurice-sur-Fessard",
    "state_id": 5013,
    "state_code": "45",
    "country_id": 75,
    "country_code": "FR",
    "latitude": "47.99231000",
    "longitude": "2.62157000",
    "native": null,
    "timezone": "Europe/Paris",
    "translations": {}
  },
  {
    "id": 46479,
    "name": "Saint-Père-sur-Loire",
    "state_id": 5013,
    "state_code": "45",
    "country_id": 75,
    "country_code": "FR",
    "latitude": "47.76667000",
    "longitude": "2.36667000",
    "native": null,
    "timezone": "Europe/Paris",
    "translations": {}
  },
  {
    "id": 46475,
    "name": "Saint-Pryvé-Saint-Mesmin",
    "state_id": 5013,
    "state_code": "45",
    "country_id": 75,
    "country_code": "FR",
    "latitude": "47.88177000",
    "longitude": "1.86950000",
    "native": null,
    "timezone": "Europe/Paris",
    "translations": {}
  },
  {
    "id": 46786,
    "name": "Sandillon",
    "state_id": 5013,
    "state_code": "45",
    "country_id": 75,
    "country_code": "FR",
    "latitude": "47.84510000",
    "longitude": "2.03155000",
    "native": null,
    "timezone": "Europe/Paris",
    "translations": {}
  },
  {
    "id": 46801,
    "name": "Saran",
    "state_id": 5013,
    "state_code": "45",
    "country_id": 75,
    "country_code": "FR",
    "latitude": "47.95013000",
    "longitude": "1.87601000",
    "native": null,
    "timezone": "Europe/Paris",
    "translations": {}
  },
  {
    "id": 46937,
    "name": "Semoy",
    "state_id": 5013,
    "state_code": "45",
    "country_id": 75,
    "country_code": "FR",
    "latitude": "47.93333000",
    "longitude": "1.95000000",
    "native": null,
    "timezone": "Europe/Paris",
    "translations": {}
  },
  {
    "id": 46956,
    "name": "Sermaises",
    "state_id": 5013,
    "state_code": "45",
    "country_id": 75,
    "country_code": "FR",
    "latitude": "48.29650000",
    "longitude": "2.20546000",
    "native": null,
    "timezone": "Europe/Paris",
    "translations": {}
  },
  {
    "id": 47114,
    "name": "Sully-sur-Loire",
    "state_id": 5013,
    "state_code": "45",
    "country_id": 75,
    "country_code": "FR",
    "latitude": "47.76372000",
    "longitude": "2.37238000",
    "native": null,
    "timezone": "Europe/Paris",
    "translations": {}
  },
  {
    "id": 47193,
    "name": "Tavers",
    "state_id": 5013,
    "state_code": "45",
    "country_id": 75,
    "country_code": "FR",
    "latitude": "47.75921000",
    "longitude": "1.61267000",
    "native": null,
    "timezone": "Europe/Paris",
    "translations": {}
  },
  {
    "id": 47281,
    "name": "Tigy",
    "state_id": 5013,
    "state_code": "45",
    "country_id": 75,
    "country_code": "FR",
    "latitude": "47.79365000",
    "longitude": "2.19767000",
    "native": null,
    "timezone": "Europe/Paris",
    "translations": {}
  },
  {
    "id": 47350,
    "name": "Traînou",
    "state_id": 5013,
    "state_code": "45",
    "country_id": 75,
    "country_code": "FR",
    "latitude": "47.97353000",
    "longitude": "2.10399000",
    "native": null,
    "timezone": "Europe/Paris",
    "translations": {}
  },
  {
    "id": 47374,
    "name": "Triguères",
    "state_id": 5013,
    "state_code": "45",
    "country_id": 75,
    "country_code": "FR",
    "latitude": "47.93975000",
    "longitude": "2.98570000",
    "native": null,
    "timezone": "Europe/Paris",
    "translations": {}
  },
  {
    "id": 47585,
    "name": "Vennecy",
    "state_id": 5013,
    "state_code": "45",
    "country_id": 75,
    "country_code": "FR",
    "latitude": "47.95465000",
    "longitude": "2.05459000",
    "native": null,
    "timezone": "Europe/Paris",
    "translations": {}
  },
  {
    "id": 47684,
    "name": "Vienne-en-Val",
    "state_id": 5013,
    "state_code": "45",
    "country_id": 75,
    "country_code": "FR",
    "latitude": "47.80036000",
    "longitude": "2.13460000",
    "native": null,
    "timezone": "Europe/Paris",
    "translations": {}
  },
  {
    "id": 47749,
    "name": "Villemandeur",
    "state_id": 5013,
    "state_code": "45",
    "country_id": 75,
    "country_code": "FR",
    "latitude": "47.98701000",
    "longitude": "2.71802000",
    "native": null,
    "timezone": "Europe/Paris",
    "translations": {}
  },
  {
    "id": 47839,
    "name": "Vimory",
    "state_id": 5013,
    "state_code": "45",
    "country_id": 75,
    "country_code": "FR",
    "latitude": "47.94786000",
    "longitude": "2.68701000",
    "native": null,
    "timezone": "Europe/Paris",
    "translations": {}
  },
  {
    "id": 47871,
    "name": "Vitry-aux-Loges",
    "state_id": 5013,
    "state_code": "45",
    "country_id": 75,
    "country_code": "FR",
    "latitude": "47.93333000",
    "longitude": "2.26667000",
    "native": null,
    "timezone": "Europe/Paris",
    "translations": {}
  }
]