[
  {
    "id": 39310,
    "name": "Alençon",
    "state_id": 5029,
    "state_code": "61",
    "country_id": 75,
    "country_code": "FR",
    "latitude": "48.43476000",
    "longitude": "0.09311000",
    "native": null,
    "timezone": "Europe/Paris",
    "translations": {}
  },
  {
    "id": 39479,
    "name": "Argentan",
    "state_id": 5029,
    "state_code": "61",
    "country_id": 75,
    "country_code": "FR",
    "latitude": "48.74441000",
    "longitude": "-0.02023000",
    "native": null,
    "timezone": "Europe/Paris",
    "translations": {}
  },
  {
    "id": 39558,
    "name": "Athis-de-l'Orne",
    "state_id": 5029,
    "state_code": "61",
    "country_id": 75,
    "country_code": "FR",
    "latitude": "48.81667000",
    "longitude": "-0.50000000",
    "native": null,
    "timezone": "Europe/Paris",
    "translations": {}
  },
  {
    "id": 161670,
    "name": "Athis-Val de Rouvre",
    "state_id": 5029,
    "state_code": "61",
    "country_id": 75,
    "country_code": "FR",
    "latitude": "48.79340000",
    "longitude": "-0.46210000",
    "native": null,
    "timezone": "Europe/Paris",
    "translations": {}
  },
  {
    "id": 39568,
    "name": "Aube-sur-Rîle",
    "state_id": 5029,
    "state_code": "61",
    "country_id": 75,
    "country_code": "FR",
    "latitude": "48.73920000",
    "longitude": "0.55161000",
    "native": null,
    "timezone": "Europe/Paris",
    "translations": {}
  },
  {
    "id": 161676,
    "name": "Bagnoles de l'Orne Normandie",
    "state_id": 5029,
    "state_code": "61",
    "country_id": 75,
    "country_code": "FR",
    "latitude": "48.56960000",
    "longitude": "-0.41740000",
    "native": null,
    "timezone": "Europe/Paris",
    "translations": {}
  },
  {
    "id": 39710,
    "name": "Bagnoles-de-l'Orne",
    "state_id": 5029,
    "state_code": "61",
    "country_id": 75,
    "country_code": "FR",
    "latitude": "48.55720000",
    "longitude": "-0.41383000",
    "native": null,
    "timezone": "Europe/Paris",
    "translations": {}
  },
  {
    "id": 39931,
    "name": "Bellême",
    "state_id": 5029,
    "state_code": "61",
    "country_id": 75,
    "country_code": "FR",
    "latitude": "48.37329000",
    "longitude": "0.57005000",
    "native": null,
    "timezone": "Europe/Paris",
    "translations": {}
  },
  {
    "id": 40285,
    "name": "Bretoncelles",
    "state_id": 5029,
    "state_code": "61",
    "country_id": 75,
    "country_code": "FR",
    "latitude": "48.43122000",
    "longitude": "0.88775000",
    "native": null,
    "timezone": "Europe/Paris",
    "translations": {}
  },
  {
    "id": 40323,
    "name": "Briouze",
    "state_id": 5029,
    "state_code": "61",
    "country_id": 75,
    "country_code": "FR",
    "latitude": "48.69848000",
    "longitude": "-0.36806000",
    "native": null,
    "timezone": "Europe/Paris",
    "translations": {}
  },
  {
    "id": 40631,
    "name": "Ceaucé",
    "state_id": 5029,
    "state_code": "61",
    "country_id": 75,
    "country_code": "FR",
    "latitude": "48.49436000",
    "longitude": "-0.62526000",
    "native": null,
    "timezone": "Europe/Paris",
    "translations": {}
  },
  {
    "id": 40664,
    "name": "Ceton",
    "state_id": 5029,
    "state_code": "61",
    "country_id": 75,
    "country_code": "FR",
    "latitude": "48.22631000",
    "longitude": "0.74968000",
    "native": null,
    "timezone": "Europe/Paris",
    "translations": {}
  },
  {
    "id": 40751,
    "name": "Champsecret",
    "state_id": 5029,
    "state_code": "61",
    "country_id": 75,
    "country_code": "FR",
    "latitude": "48.60925000",
    "longitude": "-0.55058000",
    "native": null,
    "timezone": "Europe/Paris",
    "translations": {}
  },
  {
    "id": 40779,
    "name": "Chanu",
    "state_id": 5029,
    "state_code": "61",
    "country_id": 75,
    "country_code": "FR",
    "latitude": "48.72914000",
    "longitude": "-0.67603000",
    "native": null,
    "timezone": "Europe/Paris",
    "translations": {}
  },
  {
    "id": 41136,
    "name": "Condé-sur-Huisne",
    "state_id": 5029,
    "state_code": "61",
    "country_id": 75,
    "country_code": "FR",
    "latitude": "48.38103000",
    "longitude": "0.85093000",
    "native": null,
    "timezone": "Europe/Paris",
    "translations": {}
  },
  {
    "id": 41137,
    "name": "Condé-sur-Noireau",
    "state_id": 5029,
    "state_code": "61",
    "country_id": 75,
    "country_code": "FR",
    "latitude": "48.84881000",
    "longitude": "-0.55214000",
    "native": null,
    "timezone": "Europe/Paris",
    "translations": {}
  },
  {
    "id": 41138,
    "name": "Condé-sur-Sarthe",
    "state_id": 5029,
    "state_code": "61",
    "country_id": 75,
    "country_code": "FR",
    "latitude": "48.43197000",
    "longitude": "0.03398000",
    "native": null,
    "timezone": "Europe/Paris",
    "translations": {}
  },
  {
    "id": 41279,
    "name": "Couterne",
    "state_id": 5029,
    "state_code": "61",
    "country_id": 75,
    "country_code": "FR",
    "latitude": "48.51318000",
    "longitude": "-0.41538000",
    "native": null,
    "timezone": "Europe/Paris",
    "translations": {}
  },
  {
    "id": 41413,
    "name": "Damigny",
    "state_id": 5029,
    "state_code": "61",
    "country_id": 75,
    "country_code": "FR",
    "latitude": "48.45000000",
    "longitude": "0.06667000",
    "native": null,
    "timezone": "Europe/Paris",
    "translations": {}
  },
  {
    "id": 41622,
    "name": "Département de l'Orne",
    "state_id": 5029,
    "state_code": "61",
    "country_id": 75,
    "country_code": "FR",
    "latitude": "48.66667000",
    "longitude": "0.08333000",
    "native": null,
    "timezone": "Europe/Paris",
    "translations": {}
  },
  {
    "id": 161748,
    "name": "Domfront en Poiraie",
    "state_id": 5029,
    "state_code": "61",
    "country_id": 75,
    "country_code": "FR",
    "latitude": "48.58660000",
    "longitude": "-0.65540000",
    "native": null,
    "timezone": "Europe/Paris",
    "translations": {}
  },
  {
    "id": 48046,
    "name": "Écouché",
    "state_id": 5029,
    "state_code": "61",
    "country_id": 75,
    "country_code": "FR",
    "latitude": "48.71751000",
    "longitude": "-0.12409000",
    "native": null,
    "timezone": "Europe/Paris",
    "translations": {}
  },
  {
    "id": 162104,
    "name": "Écouché-les-Vallées",
    "state_id": 5029,
    "state_code": "61",
    "country_id": 75,
    "country_code": "FR",
    "latitude": "48.72320000",
    "longitude": "-0.13160000",
    "native": null,
    "timezone": "Europe/Paris",
    "translations": {}
  },
  {
    "id": 41836,
    "name": "Flers",
    "state_id": 5029,
    "state_code": "61",
    "country_id": 75,
    "country_code": "FR",
    "latitude": "48.73722000",
    "longitude": "-0.57466000",
    "native": null,
    "timezone": "Europe/Paris",
    "translations": {}
  },
  {
    "id": 41947,
    "name": "Francheville",
    "state_id": 5029,
    "state_code": "61",
    "country_id": 75,
    "country_code": "FR",
    "latitude": "48.78647000",
    "longitude": "0.84962000",
    "native": null,
    "timezone": "Europe/Paris",
    "translations": {}
  },
  {
    "id": 42010,
    "name": "Gacé",
    "state_id": 5029,
    "state_code": "61",
    "country_id": 75,
    "country_code": "FR",
    "latitude": "48.79344000",
    "longitude": "0.29624000",
    "native": null,
    "timezone": "Europe/Paris",
    "translations": {}
  },
  {
    "id": 161773,
    "name": "Gouffern en Auge",
    "state_id": 5029,
    "state_code": "61",
    "country_id": 75,
    "country_code": "FR",
    "latitude": "48.78510000",
    "longitude": "0.11260000",
    "native": null,
    "timezone": "Europe/Paris",
    "translations": {}
  },
  {
    "id": 161792,
    "name": "Juvigny Val d'Andaine",
    "state_id": 5029,
    "state_code": "61",
    "country_id": 75,
    "country_code": "FR",
    "latitude": "48.52690000",
    "longitude": "-0.52050000",
    "native": null,
    "timezone": "Europe/Paris",
    "translations": {}
  },
  {
    "id": 42599,
    "name": "Juvigny-sous-Andaine",
    "state_id": 5029,
    "state_code": "61",
    "country_id": 75,
    "country_code": "FR",
    "latitude": "48.55194000",
    "longitude": "-0.50878000",
    "native": null,
    "timezone": "Europe/Paris",
    "translations": {}
  },
  {
    "id": 161794,
    "name": "L'Aigle",
    "state_id": 5029,
    "state_code": "61",
    "country_id": 75,
    "country_code": "FR",
    "latitude": "48.75660000",
    "longitude": "0.61180000",
    "native": null,
    "timezone": "Europe/Paris",
    "translations": {}
  },
  {
    "id": 42735,
    "name": "La Ferrière-aux-Étangs",
    "state_id": 5029,
    "state_code": "61",
    "country_id": 75,
    "country_code": "FR",
    "latitude": "48.66227000",
    "longitude": "-0.51955000",
    "native": null,
    "timezone": "Europe/Paris",
    "translations": {}
  },
  {
    "id": 161815,
    "name": "La Ferté-en-Ouche",
    "state_id": 5029,
    "state_code": "61",
    "country_id": 75,
    "country_code": "FR",
    "latitude": "48.84360000",
    "longitude": "0.49510000",
    "native": null,
    "timezone": "Europe/Paris",
    "translations": {}
  },
  {
    "id": 42740,
    "name": "La Ferté-Macé",
    "state_id": 5029,
    "state_code": "61",
    "country_id": 75,
    "country_code": "FR",
    "latitude": "48.58999000",
    "longitude": "-0.35800000",
    "native": null,
    "timezone": "Europe/Paris",
    "translations": {}
  },
  {
    "id": 42789,
    "name": "La Lande-Patry",
    "state_id": 5029,
    "state_code": "61",
    "country_id": 75,
    "country_code": "FR",
    "latitude": "48.76202000",
    "longitude": "-0.59876000",
    "native": null,
    "timezone": "Europe/Paris",
    "translations": {}
  },
  {
    "id": 42876,
    "name": "La Selle-la-Forge",
    "state_id": 5029,
    "state_code": "61",
    "country_id": 75,
    "country_code": "FR",
    "latitude": "48.73295000",
    "longitude": "-0.54103000",
    "native": null,
    "timezone": "Europe/Paris",
    "translations": {}
  },
  {
    "id": 161869,
    "name": "Longny les Villages",
    "state_id": 5029,
    "state_code": "61",
    "country_id": 75,
    "country_code": "FR",
    "latitude": "48.54190000",
    "longitude": "0.80330000",
    "native": null,
    "timezone": "Europe/Paris",
    "translations": {}
  },
  {
    "id": 43564,
    "name": "Longny-au-Perche",
    "state_id": 5029,
    "state_code": "61",
    "country_id": 75,
    "country_code": "FR",
    "latitude": "48.52984000",
    "longitude": "0.75239000",
    "native": null,
    "timezone": "Europe/Paris",
    "translations": {}
  },
  {
    "id": 43727,
    "name": "Magny-le-Désert",
    "state_id": 5029,
    "state_code": "61",
    "country_id": 75,
    "country_code": "FR",
    "latitude": "48.57015000",
    "longitude": "-0.32732000",
    "native": null,
    "timezone": "Europe/Paris",
    "translations": {}
  },
  {
    "id": 44033,
    "name": "Messei",
    "state_id": 5029,
    "state_code": "61",
    "country_id": 75,
    "country_code": "FR",
    "latitude": "48.71157000",
    "longitude": "-0.53739000",
    "native": null,
    "timezone": "Europe/Paris",
    "translations": {}
  },
  {
    "id": 44368,
    "name": "Mortagne-au-Perche",
    "state_id": 5029,
    "state_code": "61",
    "country_id": 75,
    "country_code": "FR",
    "latitude": "48.52018000",
    "longitude": "0.54734000",
    "native": null,
    "timezone": "Europe/Paris",
    "translations": {}
  },
  {
    "id": 44375,
    "name": "Mortrée",
    "state_id": 5029,
    "state_code": "61",
    "country_id": 75,
    "country_code": "FR",
    "latitude": "48.63899000",
    "longitude": "0.07909000",
    "native": null,
    "timezone": "Europe/Paris",
    "translations": {}
  },
  {
    "id": 45194,
    "name": "Pont-Écrepin",
    "state_id": 5029,
    "state_code": "61",
    "country_id": 75,
    "country_code": "FR",
    "latitude": "48.76425000",
    "longitude": "-0.24455000",
    "native": null,
    "timezone": "Europe/Paris",
    "translations": {}
  },
  {
    "id": 161954,
    "name": "Putanges-le-Lac",
    "state_id": 5029,
    "state_code": "61",
    "country_id": 75,
    "country_code": "FR",
    "latitude": "48.77110000",
    "longitude": "-0.28890000",
    "native": null,
    "timezone": "Europe/Paris",
    "translations": {}
  },
  {
    "id": 45333,
    "name": "Putanges-Pont-Écrepin",
    "state_id": 5029,
    "state_code": "61",
    "country_id": 75,
    "country_code": "FR",
    "latitude": "48.76667000",
    "longitude": "-0.25000000",
    "native": null,
    "timezone": "Europe/Paris",
    "translations": {}
  },
  {
    "id": 45415,
    "name": "Radon",
    "state_id": 5029,
    "state_code": "61",
    "country_id": 75,
    "country_code": "FR",
    "latitude": "48.50246000",
    "longitude": "0.10278000",
    "native": null,
    "timezone": "Europe/Paris",
    "translations": {}
  },
  {
    "id": 45417,
    "name": "Rai",
    "state_id": 5029,
    "state_code": "61",
    "country_id": 75,
    "country_code": "FR",
    "latitude": "48.75000000",
    "longitude": "0.58333000",
    "native": null,
    "timezone": "Europe/Paris",
    "translations": {}
  },
  {
    "id": 45692,
    "name": "Rémalard",
    "state_id": 5029,
    "state_code": "61",
    "country_id": 75,
    "country_code": "FR",
    "latitude": "48.42867000",
    "longitude": "0.77185000",
    "native": null,
    "timezone": "Europe/Paris",
    "translations": {}
  },
  {
    "id": 161960,
    "name": "Rives d'Andaine",
    "state_id": 5029,
    "state_code": "61",
    "country_id": 75,
    "country_code": "FR",
    "latitude": "48.53520000",
    "longitude": "-0.44340000",
    "native": null,
    "timezone": "Europe/Paris",
    "translations": {}
  },
  {
    "id": 45904,
    "name": "Saint-Denis-sur-Sarthon",
    "state_id": 5029,
    "state_code": "61",
    "country_id": 75,
    "country_code": "FR",
    "latitude": "48.45320000",
    "longitude": "-0.04720000",
    "native": null,
    "timezone": "Europe/Paris",
    "translations": {}
  },
  {
    "id": 45982,
    "name": "Saint-Georges-des-Groseillers",
    "state_id": 5029,
    "state_code": "61",
    "country_id": 75,
    "country_code": "FR",
    "latitude": "48.76993000",
    "longitude": "-0.56768000",
    "native": null,
    "timezone": "Europe/Paris",
    "translations": {}
  },
  {
    "id": 46010,
    "name": "Saint-Germain-du-Corbéis",
    "state_id": 5029,
    "state_code": "61",
    "country_id": 75,
    "country_code": "FR",
    "latitude": "48.42215000",
    "longitude": "0.06193000",
    "native": null,
    "timezone": "Europe/Paris",
    "translations": {}
  },
  {
    "id": 46442,
    "name": "Saint-Pierre-du-Regard",
    "state_id": 5029,
    "state_code": "61",
    "country_id": 75,
    "country_code": "FR",
    "latitude": "48.84286000",
    "longitude": "-0.54631000",
    "native": null,
    "timezone": "Europe/Paris",
    "translations": {}
  },
  {
    "id": 46570,
    "name": "Saint-Sulpice-sur-Risle",
    "state_id": 5029,
    "state_code": "61",
    "country_id": 75,
    "country_code": "FR",
    "latitude": "48.78063000",
    "longitude": "0.65739000",
    "native": null,
    "timezone": "Europe/Paris",
    "translations": {}
  },
  {
    "id": 46688,
    "name": "Sainte-Gauburge-Sainte-Colombe",
    "state_id": 5029,
    "state_code": "61",
    "country_id": 75,
    "country_code": "FR",
    "latitude": "48.71722000",
    "longitude": "0.43126000",
    "native": null,
    "timezone": "Europe/Paris",
    "translations": {}
  },
  {
    "id": 47133,
    "name": "Sées",
    "state_id": 5029,
    "state_code": "61",
    "country_id": 75,
    "country_code": "FR",
    "latitude": "48.60403000",
    "longitude": "0.17244000",
    "native": null,
    "timezone": "Europe/Paris",
    "translations": {}
  },
  {
    "id": 47213,
    "name": "Tessé-la-Madeleine",
    "state_id": 5029,
    "state_code": "61",
    "country_id": 75,
    "country_code": "FR",
    "latitude": "48.54963000",
    "longitude": "-0.42521000",
    "native": null,
    "timezone": "Europe/Paris",
    "translations": {}
  },
  {
    "id": 47288,
    "name": "Tinchebray",
    "state_id": 5029,
    "state_code": "61",
    "country_id": 75,
    "country_code": "FR",
    "latitude": "48.76437000",
    "longitude": "-0.73333000",
    "native": null,
    "timezone": "Europe/Paris",
    "translations": {}
  },
  {
    "id": 162045,
    "name": "Tinchebray-Bocage",
    "state_id": 5029,
    "state_code": "61",
    "country_id": 75,
    "country_code": "FR",
    "latitude": "48.72830000",
    "longitude": "-0.73370000",
    "native": null,
    "timezone": "Europe/Paris",
    "translations": {}
  },
  {
    "id": 47330,
    "name": "Tourouvre",
    "state_id": 5029,
    "state_code": "61",
    "country_id": 75,
    "country_code": "FR",
    "latitude": "48.58951000",
    "longitude": "0.65253000",
    "native": null,
    "timezone": "Europe/Paris",
    "translations": {}
  },
  {
    "id": 162047,
    "name": "Tourouvre au Perche",
    "state_id": 5029,
    "state_code": "61",
    "country_id": 75,
    "country_code": "FR",
    "latitude": "48.60650000",
    "longitude": "0.63210000",
    "native": null,
    "timezone": "Europe/Paris",
    "translations": {}
  },
  {
    "id": 47387,
    "name": "Trun",
    "state_id": 5029,
    "state_code": "61",
    "country_id": 75,
    "country_code": "FR",
    "latitude": "48.84268000",
    "longitude": "0.03268000",
    "native": null,
    "timezone": "Europe/Paris",
    "translations": {}
  },
  {
    "id": 162062,
    "name": "Val-au-Perche",
    "state_id": 5029,
    "state_code": "61",
    "country_id": 75,
    "country_code": "FR",
    "latitude": "48.28830000",
    "longitude": "0.69870000",
    "native": null,
    "timezone": "Europe/Paris",
    "translations": {}
  },
  {
    "id": 47483,
    "name": "Valframbert",
    "state_id": 5029,
    "state_code": "61",
    "country_id": 75,
    "country_code": "FR",
    "latitude": "48.46465000",
    "longitude": "0.10828000",
    "native": null,
    "timezone": "Europe/Paris",
    "translations": {}
  },
  {
    "id": 47526,
    "name": "Vassy",
    "state_id": 5029,
    "state_code": "61",
    "country_id": 75,
    "country_code": "FR",
    "latitude": "48.85381000",
    "longitude": "-0.67485000",
    "native": null,
    "timezone": "Europe/Paris",
    "translations": {}
  },
  {
    "id": 47840,
    "name": "Vimoutiers",
    "state_id": 5029,
    "state_code": "61",
    "country_id": 75,
    "country_code": "FR",
    "latitude": "48.92772000",
    "longitude": "0.19835000",
    "native": null,
    "timezone": "Europe/Paris",
    "translations": {}
  }
]