[
  {
    "id": 135283,
    "name": "Acqui Terme",
    "state_id": 1783,
    "state_code": "AL",
    "country_id": 107,
    "country_code": "IT",
    "latitude": "44.67552000",
    "longitude": "8.46934000",
    "native": null,
    "timezone": "Europe/Rome",
    "translations": {}
  },
  {
    "id": 135363,
    "name": "Albera Ligure",
    "state_id": 1783,
    "state_code": "AL",
    "country_id": 107,
    "country_code": "IT",
    "latitude": "44.70159000",
    "longitude": "9.06720000",
    "native": null,
    "timezone": "Europe/Rome",
    "translations": {}
  },
  {
    "id": 135394,
    "name": "Alessandria",
    "state_id": 1783,
    "state_code": "AL",
    "country_id": 107,
    "country_code": "IT",
    "latitude": "44.90924000",
    "longitude": "8.61007000",
    "native": null,
    "timezone": "Europe/Rome",
    "translations": {}
  },
  {
    "id": 135402,
    "name": "Alfiano Natta",
    "state_id": 1783,
    "state_code": "AL",
    "country_id": 107,
    "country_code": "IT",
    "latitude": "45.04860000",
    "longitude": "8.20730000",
    "native": null,
    "timezone": "Europe/Rome",
    "translations": {}
  },
  {
    "id": 135408,
    "name": "Alice Bel Colle",
    "state_id": 1783,
    "state_code": "AL",
    "country_id": 107,
    "country_code": "IT",
    "latitude": "44.72605000",
    "longitude": "8.45074000",
    "native": null,
    "timezone": "Europe/Rome",
    "translations": {}
  },
  {
    "id": 135434,
    "name": "Altavilla Monferrato",
    "state_id": 1783,
    "state_code": "AL",
    "country_id": 107,
    "country_code": "IT",
    "latitude": "44.99355000",
    "longitude": "8.37594000",
    "native": null,
    "timezone": "Europe/Rome",
    "translations": {}
  },
  {
    "id": 135451,
    "name": "Alzano Scrivia",
    "state_id": 1783,
    "state_code": "AL",
    "country_id": 107,
    "country_code": "IT",
    "latitude": "45.01806000",
    "longitude": "8.88065000",
    "native": null,
    "timezone": "Europe/Rome",
    "translations": {}
  },
  {
    "id": 135630,
    "name": "Arquata Scrivia",
    "state_id": 1783,
    "state_code": "AL",
    "country_id": 107,
    "country_code": "IT",
    "latitude": "44.68830000",
    "longitude": "8.88682000",
    "native": null,
    "timezone": "Europe/Rome",
    "translations": {}
  },
  {
    "id": 135714,
    "name": "Avolasca",
    "state_id": 1783,
    "state_code": "AL",
    "country_id": 107,
    "country_code": "IT",
    "latitude": "44.80315000",
    "longitude": "8.96545000",
    "native": null,
    "timezone": "Europe/Rome",
    "translations": {}
  },
  {
    "id": 135799,
    "name": "Balzola",
    "state_id": 1783,
    "state_code": "AL",
    "country_id": 107,
    "country_code": "IT",
    "latitude": "45.18358000",
    "longitude": "8.40277000",
    "native": null,
    "timezone": "Europe/Rome",
    "translations": {}
  },
  {
    "id": 135878,
    "name": "Basaluzzo",
    "state_id": 1783,
    "state_code": "AL",
    "country_id": 107,
    "country_code": "IT",
    "latitude": "44.76885000",
    "longitude": "8.70485000",
    "native": null,
    "timezone": "Europe/Rome",
    "translations": {}
  },
  {
    "id": 135896,
    "name": "Bassignana",
    "state_id": 1783,
    "state_code": "AL",
    "country_id": 107,
    "country_code": "IT",
    "latitude": "45.00110000",
    "longitude": "8.73291000",
    "native": null,
    "timezone": "Europe/Rome",
    "translations": {}
  },
  {
    "id": 135930,
    "name": "Belforte Monferrato",
    "state_id": 1783,
    "state_code": "AL",
    "country_id": 107,
    "country_code": "IT",
    "latitude": "44.62505000",
    "longitude": "8.66125000",
    "native": null,
    "timezone": "Europe/Rome",
    "translations": {}
  },
  {
    "id": 135986,
    "name": "Bergamasco",
    "state_id": 1783,
    "state_code": "AL",
    "country_id": 107,
    "country_code": "IT",
    "latitude": "44.82725000",
    "longitude": "8.45474000",
    "native": null,
    "timezone": "Europe/Rome",
    "translations": {}
  },
  {
    "id": 136005,
    "name": "Berzano di Tortona",
    "state_id": 1783,
    "state_code": "AL",
    "country_id": 107,
    "country_code": "IT",
    "latitude": "44.87666000",
    "longitude": "8.95108000",
    "native": null,
    "timezone": "Europe/Rome",
    "translations": {}
  },
  {
    "id": 136065,
    "name": "Bistagno",
    "state_id": 1783,
    "state_code": "AL",
    "country_id": 107,
    "country_code": "IT",
    "latitude": "44.66059000",
    "longitude": "8.37163000",
    "native": null,
    "timezone": "Europe/Rome",
    "translations": {}
  },
  {
    "id": 136162,
    "name": "Borghetto di Borbera",
    "state_id": 1783,
    "state_code": "AL",
    "country_id": 107,
    "country_code": "IT",
    "latitude": "44.72945000",
    "longitude": "8.94346000",
    "native": null,
    "timezone": "Europe/Rome",
    "translations": {}
  },
  {
    "id": 136185,
    "name": "Borgo San Martino",
    "state_id": 1783,
    "state_code": "AL",
    "country_id": 107,
    "country_code": "IT",
    "latitude": "45.09259000",
    "longitude": "8.52373000",
    "native": null,
    "timezone": "Europe/Rome",
    "translations": {}
  },
  {
    "id": 136213,
    "name": "Borgoratto Alessandrino",
    "state_id": 1783,
    "state_code": "AL",
    "country_id": 107,
    "country_code": "IT",
    "latitude": "44.83625000",
    "longitude": "8.53854000",
    "native": null,
    "timezone": "Europe/Rome",
    "translations": {}
  },
  {
    "id": 136243,
    "name": "Bosco Marengo",
    "state_id": 1783,
    "state_code": "AL",
    "country_id": 107,
    "country_code": "IT",
    "latitude": "44.82373000",
    "longitude": "8.68008000",
    "native": null,
    "timezone": "Europe/Rome",
    "translations": {}
  },
  {
    "id": 136251,
    "name": "Bosio",
    "state_id": 1783,
    "state_code": "AL",
    "country_id": 107,
    "country_code": "IT",
    "latitude": "44.64975000",
    "longitude": "8.79285000",
    "native": null,
    "timezone": "Europe/Rome",
    "translations": {}
  },
  {
    "id": 136276,
    "name": "Bozzole",
    "state_id": 1783,
    "state_code": "AL",
    "country_id": 107,
    "country_code": "IT",
    "latitude": "45.06934000",
    "longitude": "8.60561000",
    "native": null,
    "timezone": "Europe/Rome",
    "translations": {}
  },
  {
    "id": 136332,
    "name": "Brignano",
    "state_id": 1783,
    "state_code": "AL",
    "country_id": 107,
    "country_code": "IT",
    "latitude": "44.81457000",
    "longitude": "9.04005000",
    "native": null,
    "timezone": "Europe/Rome",
    "translations": {}
  },
  {
    "id": 136448,
    "name": "Cabella Ligure",
    "state_id": 1783,
    "state_code": "AL",
    "country_id": 107,
    "country_code": "IT",
    "latitude": "44.67491000",
    "longitude": "9.09607000",
    "native": null,
    "timezone": "Europe/Rome",
    "translations": {}
  },
  {
    "id": 136566,
    "name": "Camagna Monferrato",
    "state_id": 1783,
    "state_code": "AL",
    "country_id": 107,
    "country_code": "IT",
    "latitude": "45.01765000",
    "longitude": "8.42974000",
    "native": null,
    "timezone": "Europe/Rome",
    "translations": {}
  },
  {
    "id": 136590,
    "name": "Camino",
    "state_id": 1783,
    "state_code": "AL",
    "country_id": 107,
    "country_code": "IT",
    "latitude": "45.15723000",
    "longitude": "8.29376000",
    "native": null,
    "timezone": "Europe/Rome",
    "translations": {}
  },
  {
    "id": 136742,
    "name": "Cantalupo Ligure",
    "state_id": 1783,
    "state_code": "AL",
    "country_id": 107,
    "country_code": "IT",
    "latitude": "44.71811000",
    "longitude": "9.04575000",
    "native": null,
    "timezone": "Europe/Rome",
    "translations": {}
  },
  {
    "id": 136814,
    "name": "Capriata d'Orba",
    "state_id": 1783,
    "state_code": "AL",
    "country_id": 107,
    "country_code": "IT",
    "latitude": "44.72785000",
    "longitude": "8.69085000",
    "native": null,
    "timezone": "Europe/Rome",
    "translations": {}
  },
  {
    "id": 136845,
    "name": "Carbonara Scrivia",
    "state_id": 1783,
    "state_code": "AL",
    "country_id": 107,
    "country_code": "IT",
    "latitude": "44.84915000",
    "longitude": "8.86975000",
    "native": null,
    "timezone": "Europe/Rome",
    "translations": {}
  },
  {
    "id": 136867,
    "name": "Carentino",
    "state_id": 1783,
    "state_code": "AL",
    "country_id": 107,
    "country_code": "IT",
    "latitude": "44.82885000",
    "longitude": "8.47134000",
    "native": null,
    "timezone": "Europe/Rome",
    "translations": {}
  },
  {
    "id": 136871,
    "name": "Carezzano Maggiore",
    "state_id": 1783,
    "state_code": "AL",
    "country_id": 107,
    "country_code": "IT",
    "latitude": "44.80705000",
    "longitude": "8.90055000",
    "native": null,
    "timezone": "Europe/Rome",
    "translations": {}
  },
  {
    "id": 136911,
    "name": "Carpeneto",
    "state_id": 1783,
    "state_code": "AL",
    "country_id": 107,
    "country_code": "IT",
    "latitude": "44.67835000",
    "longitude": "8.60555000",
    "native": null,
    "timezone": "Europe/Rome",
    "translations": {}
  },
  {
    "id": 136927,
    "name": "Carrega Ligure",
    "state_id": 1783,
    "state_code": "AL",
    "country_id": 107,
    "country_code": "IT",
    "latitude": "44.61879000",
    "longitude": "9.17564000",
    "native": null,
    "timezone": "Europe/Rome",
    "translations": {}
  },
  {
    "id": 136930,
    "name": "Carrosio",
    "state_id": 1783,
    "state_code": "AL",
    "country_id": 107,
    "country_code": "IT",
    "latitude": "44.65776000",
    "longitude": "8.83126000",
    "native": null,
    "timezone": "Europe/Rome",
    "translations": {}
  },
  {
    "id": 136941,
    "name": "Cartosio",
    "state_id": 1783,
    "state_code": "AL",
    "country_id": 107,
    "country_code": "IT",
    "latitude": "44.59024000",
    "longitude": "8.42065000",
    "native": null,
    "timezone": "Europe/Rome",
    "translations": {}
  },
  {
    "id": 136957,
    "name": "Casal Cermelli",
    "state_id": 1783,
    "state_code": "AL",
    "country_id": 107,
    "country_code": "IT",
    "latitude": "44.83495000",
    "longitude": "8.62495000",
    "native": null,
    "timezone": "Europe/Rome",
    "translations": {}
  },
  {
    "id": 136978,
    "name": "Casale Monferrato",
    "state_id": 1783,
    "state_code": "AL",
    "country_id": 107,
    "country_code": "IT",
    "latitude": "45.13338000",
    "longitude": "8.45250000",
    "native": null,
    "timezone": "Europe/Rome",
    "translations": {}
  },
  {
    "id": 136982,
    "name": "Casaleggio Boiro",
    "state_id": 1783,
    "state_code": "AL",
    "country_id": 107,
    "country_code": "IT",
    "latitude": "44.63355000",
    "longitude": "8.73045000",
    "native": null,
    "timezone": "Europe/Rome",
    "translations": {}
  },
  {
    "id": 137002,
    "name": "Casalnoceto",
    "state_id": 1783,
    "state_code": "AL",
    "country_id": 107,
    "country_code": "IT",
    "latitude": "44.91326000",
    "longitude": "8.98376000",
    "native": null,
    "timezone": "Europe/Rome",
    "translations": {}
  },
  {
    "id": 137036,
    "name": "Casasco",
    "state_id": 1783,
    "state_code": "AL",
    "country_id": 107,
    "country_code": "IT",
    "latitude": "44.82734000",
    "longitude": "9.00565000",
    "native": null,
    "timezone": "Europe/Rome",
    "translations": {}
  },
  {
    "id": 137056,
    "name": "Casei",
    "state_id": 1783,
    "state_code": "AL",
    "country_id": 107,
    "country_code": "IT",
    "latitude": "45.00756000",
    "longitude": "8.92675000",
    "native": null,
    "timezone": "Europe/Rome",
    "translations": {}
  },
  {
    "id": 137090,
    "name": "Casorzo",
    "state_id": 1783,
    "state_code": "AL",
    "country_id": 107,
    "country_code": "IT",
    "latitude": "45.02165000",
    "longitude": "8.33843000",
    "native": null,
    "timezone": "Europe/Rome",
    "translations": {}
  },
  {
    "id": 137098,
    "name": "Cassano Spinola",
    "state_id": 1783,
    "state_code": "AL",
    "country_id": 107,
    "country_code": "IT",
    "latitude": "44.76557000",
    "longitude": "8.86228000",
    "native": null,
    "timezone": "Europe/Rome",
    "translations": {}
  },
  {
    "id": 137109,
    "name": "Cassine",
    "state_id": 1783,
    "state_code": "AL",
    "country_id": 107,
    "country_code": "IT",
    "latitude": "44.75166000",
    "longitude": "8.52872000",
    "native": null,
    "timezone": "Europe/Rome",
    "translations": {}
  },
  {
    "id": 137110,
    "name": "Cassinelle-Concentrico",
    "state_id": 1783,
    "state_code": "AL",
    "country_id": 107,
    "country_code": "IT",
    "latitude": "44.60154000",
    "longitude": "8.56345000",
    "native": null,
    "timezone": "Europe/Rome",
    "translations": {}
  },
  {
    "id": 137184,
    "name": "Castelceriolo",
    "state_id": 1783,
    "state_code": "AL",
    "country_id": 107,
    "country_code": "IT",
    "latitude": "44.91723000",
    "longitude": "8.69384000",
    "native": null,
    "timezone": "Europe/Rome",
    "translations": {}
  },
  {
    "id": 137218,
    "name": "Castellania",
    "state_id": 1783,
    "state_code": "AL",
    "country_id": 107,
    "country_code": "IT",
    "latitude": "44.79845000",
    "longitude": "8.93035000",
    "native": null,
    "timezone": "Europe/Rome",
    "translations": {}
  },
  {
    "id": 137221,
    "name": "Castellar Guidobono",
    "state_id": 1783,
    "state_code": "AL",
    "country_id": 107,
    "country_code": "IT",
    "latitude": "44.90483000",
    "longitude": "8.94835000",
    "native": null,
    "timezone": "Europe/Rome",
    "translations": {}
  },
  {
    "id": 137224,
    "name": "Castellazzo Bormida",
    "state_id": 1783,
    "state_code": "AL",
    "country_id": 107,
    "country_code": "IT",
    "latitude": "44.84353000",
    "longitude": "8.57900000",
    "native": null,
    "timezone": "Europe/Rome",
    "translations": {}
  },
  {
    "id": 137239,
    "name": "Castelletto d'Erro",
    "state_id": 1783,
    "state_code": "AL",
    "country_id": 107,
    "country_code": "IT",
    "latitude": "44.62597000",
    "longitude": "8.39442000",
    "native": null,
    "timezone": "Europe/Rome",
    "translations": {}
  },
  {
    "id": 137240,
    "name": "Castelletto d'Orba",
    "state_id": 1783,
    "state_code": "AL",
    "country_id": 107,
    "country_code": "IT",
    "latitude": "44.68455000",
    "longitude": "8.70395000",
    "native": null,
    "timezone": "Europe/Rome",
    "translations": {}
  },
  {
    "id": 137232,
    "name": "Castelletto Merli",
    "state_id": 1783,
    "state_code": "AL",
    "country_id": 107,
    "country_code": "IT",
    "latitude": "45.07395000",
    "longitude": "8.24013000",
    "native": null,
    "timezone": "Europe/Rome",
    "translations": {}
  },
  {
    "id": 137234,
    "name": "Castelletto Monferrato",
    "state_id": 1783,
    "state_code": "AL",
    "country_id": 107,
    "country_code": "IT",
    "latitude": "44.98115000",
    "longitude": "8.56454000",
    "native": null,
    "timezone": "Europe/Rome",
    "translations": {}
  },
  {
    "id": 137285,
    "name": "Castelnuovo Bormida",
    "state_id": 1783,
    "state_code": "AL",
    "country_id": 107,
    "country_code": "IT",
    "latitude": "44.74236000",
    "longitude": "8.55060000",
    "native": null,
    "timezone": "Europe/Rome",
    "translations": {}
  },
  {
    "id": 137294,
    "name": "Castelnuovo Scrivia",
    "state_id": 1783,
    "state_code": "AL",
    "country_id": 107,
    "country_code": "IT",
    "latitude": "44.97932000",
    "longitude": "8.88246000",
    "native": null,
    "timezone": "Europe/Rome",
    "translations": {}
  },
  {
    "id": 137317,
    "name": "Castelspina",
    "state_id": 1783,
    "state_code": "AL",
    "country_id": 107,
    "country_code": "IT",
    "latitude": "44.80615000",
    "longitude": "8.58315000",
    "native": null,
    "timezone": "Europe/Rome",
    "translations": {}
  },
  {
    "id": 137427,
    "name": "Cavatore",
    "state_id": 1783,
    "state_code": "AL",
    "country_id": 107,
    "country_code": "IT",
    "latitude": "44.63099000",
    "longitude": "8.45276000",
    "native": null,
    "timezone": "Europe/Rome",
    "translations": {}
  },
  {
    "id": 137468,
    "name": "Cella Monte",
    "state_id": 1783,
    "state_code": "AL",
    "country_id": 107,
    "country_code": "IT",
    "latitude": "45.07405000",
    "longitude": "8.39154000",
    "native": null,
    "timezone": "Europe/Rome",
    "translations": {}
  },
  {
    "id": 137539,
    "name": "Cereseto",
    "state_id": 1783,
    "state_code": "AL",
    "country_id": 107,
    "country_code": "IT",
    "latitude": "45.08685000",
    "longitude": "8.31817000",
    "native": null,
    "timezone": "Europe/Rome",
    "translations": {}
  },
  {
    "id": 137562,
    "name": "Cerreto Grue",
    "state_id": 1783,
    "state_code": "AL",
    "country_id": 107,
    "country_code": "IT",
    "latitude": "44.84255000",
    "longitude": "8.93035000",
    "native": null,
    "timezone": "Europe/Rome",
    "translations": {}
  },
  {
    "id": 137570,
    "name": "Cerrina",
    "state_id": 1783,
    "state_code": "AL",
    "country_id": 107,
    "country_code": "IT",
    "latitude": "45.12135000",
    "longitude": "8.21383000",
    "native": null,
    "timezone": "Europe/Rome",
    "translations": {}
  },
  {
    "id": 137970,
    "name": "Coniolo Bricco",
    "state_id": 1783,
    "state_code": "AL",
    "country_id": 107,
    "country_code": "IT",
    "latitude": "45.14816000",
    "longitude": "8.37093000",
    "native": null,
    "timezone": "Europe/Rome",
    "translations": {}
  },
  {
    "id": 137984,
    "name": "Conzano",
    "state_id": 1783,
    "state_code": "AL",
    "country_id": 107,
    "country_code": "IT",
    "latitude": "45.02009000",
    "longitude": "8.45554000",
    "native": null,
    "timezone": "Europe/Rome",
    "translations": {}
  },
  {
    "id": 138095,
    "name": "Costa Vescovato",
    "state_id": 1783,
    "state_code": "AL",
    "country_id": 107,
    "country_code": "IT",
    "latitude": "44.81615000",
    "longitude": "8.92695000",
    "native": null,
    "timezone": "Europe/Rome",
    "translations": {}
  },
  {
    "id": 138137,
    "name": "Cremolino",
    "state_id": 1783,
    "state_code": "AL",
    "country_id": 107,
    "country_code": "IT",
    "latitude": "44.63674000",
    "longitude": "8.58584000",
    "native": null,
    "timezone": "Europe/Rome",
    "translations": {}
  },
  {
    "id": 138178,
    "name": "Cuccaro Monferrato",
    "state_id": 1783,
    "state_code": "AL",
    "country_id": 107,
    "country_code": "IT",
    "latitude": "44.99365000",
    "longitude": "8.45754000",
    "native": null,
    "timezone": "Europe/Rome",
    "translations": {}
  },
  {
    "id": 138247,
    "name": "Denice",
    "state_id": 1783,
    "state_code": "AL",
    "country_id": 107,
    "country_code": "IT",
    "latitude": "44.59884000",
    "longitude": "8.33315000",
    "native": null,
    "timezone": "Europe/Rome",
    "translations": {}
  },
  {
    "id": 138250,
    "name": "Dernice",
    "state_id": 1783,
    "state_code": "AL",
    "country_id": 107,
    "country_code": "IT",
    "latitude": "44.76660000",
    "longitude": "9.05001000",
    "native": null,
    "timezone": "Europe/Rome",
    "translations": {}
  },
  {
    "id": 138471,
    "name": "Felizzano",
    "state_id": 1783,
    "state_code": "AL",
    "country_id": 107,
    "country_code": "IT",
    "latitude": "44.89935000",
    "longitude": "8.43584000",
    "native": null,
    "timezone": "Europe/Rome",
    "translations": {}
  },
  {
    "id": 138686,
    "name": "Fraconalto",
    "state_id": 1783,
    "state_code": "AL",
    "country_id": 107,
    "country_code": "IT",
    "latitude": "44.59105000",
    "longitude": "8.87846000",
    "native": null,
    "timezone": "Europe/Rome",
    "translations": {}
  },
  {
    "id": 138693,
    "name": "Francavilla Bisio",
    "state_id": 1783,
    "state_code": "AL",
    "country_id": 107,
    "country_code": "IT",
    "latitude": "44.73465000",
    "longitude": "8.73125000",
    "native": null,
    "timezone": "Europe/Rome",
    "translations": {}
  },
  {
    "id": 138706,
    "name": "Frascaro",
    "state_id": 1783,
    "state_code": "AL",
    "country_id": 107,
    "country_code": "IT",
    "latitude": "44.82575000",
    "longitude": "8.53127000",
    "native": null,
    "timezone": "Europe/Rome",
    "translations": {}
  },
  {
    "id": 138712,
    "name": "Frassinello Monferrato",
    "state_id": 1783,
    "state_code": "AL",
    "country_id": 107,
    "country_code": "IT",
    "latitude": "45.03322000",
    "longitude": "8.38666000",
    "native": null,
    "timezone": "Europe/Rome",
    "translations": {}
  },
  {
    "id": 138713,
    "name": "Frassineto Po",
    "state_id": 1783,
    "state_code": "AL",
    "country_id": 107,
    "country_code": "IT",
    "latitude": "45.13271000",
    "longitude": "8.53525000",
    "native": null,
    "timezone": "Europe/Rome",
    "translations": {}
  },
  {
    "id": 138732,
    "name": "Fresonara",
    "state_id": 1783,
    "state_code": "AL",
    "country_id": 107,
    "country_code": "IT",
    "latitude": "44.78295000",
    "longitude": "8.68615000",
    "native": null,
    "timezone": "Europe/Rome",
    "translations": {}
  },
  {
    "id": 138744,
    "name": "Frugarolo",
    "state_id": 1783,
    "state_code": "AL",
    "country_id": 107,
    "country_code": "IT",
    "latitude": "44.83924000",
    "longitude": "8.68165000",
    "native": null,
    "timezone": "Europe/Rome",
    "translations": {}
  },
  {
    "id": 138745,
    "name": "Fubine",
    "state_id": 1783,
    "state_code": "AL",
    "country_id": 107,
    "country_code": "IT",
    "latitude": "44.96305000",
    "longitude": "8.42814000",
    "native": null,
    "timezone": "Europe/Rome",
    "translations": {}
  },
  {
    "id": 138769,
    "name": "Gabiano",
    "state_id": 1783,
    "state_code": "AL",
    "country_id": 107,
    "country_code": "IT",
    "latitude": "45.15714000",
    "longitude": "8.19469000",
    "native": null,
    "timezone": "Europe/Rome",
    "translations": {}
  },
  {
    "id": 138825,
    "name": "Gamalero",
    "state_id": 1783,
    "state_code": "AL",
    "country_id": 107,
    "country_code": "IT",
    "latitude": "44.80850000",
    "longitude": "8.54116000",
    "native": null,
    "timezone": "Europe/Rome",
    "translations": {}
  },
  {
    "id": 138842,
    "name": "Garadassi",
    "state_id": 1783,
    "state_code": "AL",
    "country_id": 107,
    "country_code": "IT",
    "latitude": "44.75429000",
    "longitude": "9.15393000",
    "native": null,
    "timezone": "Europe/Rome",
    "translations": {}
  },
  {
    "id": 138844,
    "name": "Garbagna",
    "state_id": 1783,
    "state_code": "AL",
    "country_id": 107,
    "country_code": "IT",
    "latitude": "44.78045000",
    "longitude": "8.99786000",
    "native": null,
    "timezone": "Europe/Rome",
    "translations": {}
  },
  {
    "id": 138873,
    "name": "Gavazzana",
    "state_id": 1783,
    "state_code": "AL",
    "country_id": 107,
    "country_code": "IT",
    "latitude": "44.77585000",
    "longitude": "8.88595000",
    "native": null,
    "timezone": "Europe/Rome",
    "translations": {}
  },
  {
    "id": 138876,
    "name": "Gavi",
    "state_id": 1783,
    "state_code": "AL",
    "country_id": 107,
    "country_code": "IT",
    "latitude": "44.68627000",
    "longitude": "8.80717000",
    "native": null,
    "timezone": "Europe/Rome",
    "translations": {}
  },
  {
    "id": 138947,
    "name": "Giarole",
    "state_id": 1783,
    "state_code": "AL",
    "country_id": 107,
    "country_code": "IT",
    "latitude": "45.06148000",
    "longitude": "8.56730000",
    "native": null,
    "timezone": "Europe/Rome",
    "translations": {}
  },
  {
    "id": 139088,
    "name": "Gremiasco",
    "state_id": 1783,
    "state_code": "AL",
    "country_id": 107,
    "country_code": "IT",
    "latitude": "44.79625000",
    "longitude": "9.10686000",
    "native": null,
    "timezone": "Europe/Rome",
    "translations": {}
  },
  {
    "id": 139107,
    "name": "Grognardo",
    "state_id": 1783,
    "state_code": "AL",
    "country_id": 107,
    "country_code": "IT",
    "latitude": "44.63034000",
    "longitude": "8.49265000",
    "native": null,
    "timezone": "Europe/Rome",
    "translations": {}
  },
  {
    "id": 139110,
    "name": "Grondona",
    "state_id": 1783,
    "state_code": "AL",
    "country_id": 107,
    "country_code": "IT",
    "latitude": "44.69645000",
    "longitude": "8.96546000",
    "native": null,
    "timezone": "Europe/Rome",
    "translations": {}
  },
  {
    "id": 139172,
    "name": "Guazzora",
    "state_id": 1783,
    "state_code": "AL",
    "country_id": 107,
    "country_code": "IT",
    "latitude": "45.01392000",
    "longitude": "8.84822000",
    "native": null,
    "timezone": "Europe/Rome",
    "translations": {}
  },
  {
    "id": 139240,
    "name": "Isola Sant'Antonio",
    "state_id": 1783,
    "state_code": "AL",
    "country_id": 107,
    "country_code": "IT",
    "latitude": "45.03019000",
    "longitude": "8.84928000",
    "native": null,
    "timezone": "Europe/Rome",
    "translations": {}
  },
  {
    "id": 139465,
    "name": "Lerma",
    "state_id": 1783,
    "state_code": "AL",
    "country_id": 107,
    "country_code": "IT",
    "latitude": "44.63577000",
    "longitude": "8.71323000",
    "native": null,
    "timezone": "Europe/Rome",
    "translations": {}
  },
  {
    "id": 139544,
    "name": "Litta Parodi-Cascinagrossa",
    "state_id": 1783,
    "state_code": "AL",
    "country_id": 107,
    "country_code": "IT",
    "latitude": "44.87336000",
    "longitude": "8.71246000",
    "native": null,
    "timezone": "Europe/Rome",
    "translations": {}
  },
  {
    "id": 139626,
    "name": "Lu",
    "state_id": 1783,
    "state_code": "AL",
    "country_id": 107,
    "country_code": "IT",
    "latitude": "45.00184000",
    "longitude": "8.48561000",
    "native": null,
    "timezone": "Europe/Rome",
    "translations": {}
  },
  {
    "id": 139777,
    "name": "Malvicino",
    "state_id": 1783,
    "state_code": "AL",
    "country_id": 107,
    "country_code": "IT",
    "latitude": "44.55934000",
    "longitude": "8.41315000",
    "native": null,
    "timezone": "Europe/Rome",
    "translations": {}
  },
  {
    "id": 139790,
    "name": "Mandrogne",
    "state_id": 1783,
    "state_code": "AL",
    "country_id": 107,
    "country_code": "IT",
    "latitude": "44.86308000",
    "longitude": "8.74676000",
    "native": null,
    "timezone": "Europe/Rome",
    "translations": {}
  },
  {
    "id": 139962,
    "name": "Masio",
    "state_id": 1783,
    "state_code": "AL",
    "country_id": 107,
    "country_code": "IT",
    "latitude": "44.86965000",
    "longitude": "8.40774000",
    "native": null,
    "timezone": "Europe/Rome",
    "translations": {}
  },
  {
    "id": 140036,
    "name": "Melazzo",
    "state_id": 1783,
    "state_code": "AL",
    "country_id": 107,
    "country_code": "IT",
    "latitude": "44.64394000",
    "longitude": "8.42495000",
    "native": null,
    "timezone": "Europe/Rome",
    "translations": {}
  },
  {
    "id": 140067,
    "name": "Merana",
    "state_id": 1783,
    "state_code": "AL",
    "country_id": 107,
    "country_code": "IT",
    "latitude": "44.51884000",
    "longitude": "8.29824000",
    "native": null,
    "timezone": "Europe/Rome",
    "translations": {}
  },
  {
    "id": 140170,
    "name": "Mirabello Monferrato",
    "state_id": 1783,
    "state_code": "AL",
    "country_id": 107,
    "country_code": "IT",
    "latitude": "45.03496000",
    "longitude": "8.52385000",
    "native": null,
    "timezone": "Europe/Rome",
    "translations": {}
  },
  {
    "id": 140210,
    "name": "Molare",
    "state_id": 1783,
    "state_code": "AL",
    "country_id": 107,
    "country_code": "IT",
    "latitude": "44.61807000",
    "longitude": "8.59960000",
    "native": null,
    "timezone": "Europe/Rome",
    "translations": {}
  },
  {
    "id": 140222,
    "name": "Molino dei Torti",
    "state_id": 1783,
    "state_code": "AL",
    "country_id": 107,
    "country_code": "IT",
    "latitude": "45.02426000",
    "longitude": "8.89365000",
    "native": null,
    "timezone": "Europe/Rome",
    "translations": {}
  },
  {
    "id": 140240,
    "name": "Mombello Monferrato",
    "state_id": 1783,
    "state_code": "AL",
    "country_id": 107,
    "country_code": "IT",
    "latitude": "45.13285000",
    "longitude": "8.25033000",
    "native": null,
    "timezone": "Europe/Rome",
    "translations": {}
  },
  {
    "id": 140247,
    "name": "Momperone",
    "state_id": 1783,
    "state_code": "AL",
    "country_id": 107,
    "country_code": "IT",
    "latitude": "44.83845000",
    "longitude": "9.03425000",
    "native": null,
    "timezone": "Europe/Rome",
    "translations": {}
  },
  {
    "id": 140265,
    "name": "Moncestino",
    "state_id": 1783,
    "state_code": "AL",
    "country_id": 107,
    "country_code": "IT",
    "latitude": "45.15465000",
    "longitude": "8.16143000",
    "native": null,
    "timezone": "Europe/Rome",
    "translations": {}
  },
  {
    "id": 140286,
    "name": "Mongiardino Ligure",
    "state_id": 1783,
    "state_code": "AL",
    "country_id": 107,
    "country_code": "IT",
    "latitude": "44.63443000",
    "longitude": "9.06462000",
    "native": null,
    "timezone": "Europe/Rome",
    "translations": {}
  },
  {
    "id": 140294,
    "name": "Monleale",
    "state_id": 1783,
    "state_code": "AL",
    "country_id": 107,
    "country_code": "IT",
    "latitude": "44.88435000",
    "longitude": "8.97395000",
    "native": null,
    "timezone": "Europe/Rome",
    "translations": {}
  },
  {
    "id": 140305,
    "name": "Montacuto",
    "state_id": 1783,
    "state_code": "AL",
    "country_id": 107,
    "country_code": "IT",
    "latitude": "44.76645000",
    "longitude": "9.10496000",
    "native": null,
    "timezone": "Europe/Rome",
    "translations": {}
  },
  {
    "id": 140320,
    "name": "Montaldeo",
    "state_id": 1783,
    "state_code": "AL",
    "country_id": 107,
    "country_code": "IT",
    "latitude": "44.66715000",
    "longitude": "8.73015000",
    "native": null,
    "timezone": "Europe/Rome",
    "translations": {}
  },
  {
    "id": 140321,
    "name": "Montaldo Bormida",
    "state_id": 1783,
    "state_code": "AL",
    "country_id": 107,
    "country_code": "IT",
    "latitude": "44.68265000",
    "longitude": "8.58785000",
    "native": null,
    "timezone": "Europe/Rome",
    "translations": {}
  },
  {
    "id": 140347,
    "name": "Montariolo",
    "state_id": 1783,
    "state_code": "AL",
    "country_id": 107,
    "country_code": "IT",
    "latitude": "44.99575000",
    "longitude": "8.77539000",
    "native": null,
    "timezone": "Europe/Rome",
    "translations": {}
  },
  {
    "id": 140403,
    "name": "Montecastello",
    "state_id": 1783,
    "state_code": "AL",
    "country_id": 107,
    "country_code": "IT",
    "latitude": "44.94945000",
    "longitude": "8.68575000",
    "native": null,
    "timezone": "Europe/Rome",
    "translations": {}
  },
  {
    "id": 140414,
    "name": "Montechiaro d'Acqui",
    "state_id": 1783,
    "state_code": "AL",
    "country_id": 107,
    "country_code": "IT",
    "latitude": "44.59444000",
    "longitude": "8.37865000",
    "native": null,
    "timezone": "Europe/Rome",
    "translations": {}
  },
  {
    "id": 140453,
    "name": "Montegioco",
    "state_id": 1783,
    "state_code": "AL",
    "country_id": 107,
    "country_code": "IT",
    "latitude": "44.84205000",
    "longitude": "8.96275000",
    "native": null,
    "timezone": "Europe/Rome",
    "translations": {}
  },
  {
    "id": 140489,
    "name": "Montemarzino",
    "state_id": 1783,
    "state_code": "AL",
    "country_id": 107,
    "country_code": "IT",
    "latitude": "44.84835000",
    "longitude": "8.99365000",
    "native": null,
    "timezone": "Europe/Rome",
    "translations": {}
  },
  {
    "id": 140598,
    "name": "Morano sul Po",
    "state_id": 1783,
    "state_code": "AL",
    "country_id": 107,
    "country_code": "IT",
    "latitude": "45.16621000",
    "longitude": "8.36674000",
    "native": null,
    "timezone": "Europe/Rome",
    "translations": {}
  },
  {
    "id": 140603,
    "name": "Morbello",
    "state_id": 1783,
    "state_code": "AL",
    "country_id": 107,
    "country_code": "IT",
    "latitude": "44.60504000",
    "longitude": "8.51075000",
    "native": null,
    "timezone": "Europe/Rome",
    "translations": {}
  },
  {
    "id": 140625,
    "name": "Mornese",
    "state_id": 1783,
    "state_code": "AL",
    "country_id": 107,
    "country_code": "IT",
    "latitude": "44.63925000",
    "longitude": "8.75615000",
    "native": null,
    "timezone": "Europe/Rome",
    "translations": {}
  },
  {
    "id": 140638,
    "name": "Morsasco",
    "state_id": 1783,
    "state_code": "AL",
    "country_id": 107,
    "country_code": "IT",
    "latitude": "44.66535000",
    "longitude": "8.55085000",
    "native": null,
    "timezone": "Europe/Rome",
    "translations": {}
  },
  {
    "id": 140691,
    "name": "Murisengo",
    "state_id": 1783,
    "state_code": "AL",
    "country_id": 107,
    "country_code": "IT",
    "latitude": "45.08165000",
    "longitude": "8.13554000",
    "native": null,
    "timezone": "Europe/Rome",
    "translations": {}
  },
  {
    "id": 140835,
    "name": "Novi Ligure",
    "state_id": 1783,
    "state_code": "AL",
    "country_id": 107,
    "country_code": "IT",
    "latitude": "44.76246000",
    "longitude": "8.78700000",
    "native": null,
    "timezone": "Europe/Rome",
    "translations": {}
  },
  {
    "id": 140869,
    "name": "Occimiano",
    "state_id": 1783,
    "state_code": "AL",
    "country_id": 107,
    "country_code": "IT",
    "latitude": "45.05991000",
    "longitude": "8.50666000",
    "native": null,
    "timezone": "Europe/Rome",
    "translations": {}
  },
  {
    "id": 140870,
    "name": "Odalengo Grande",
    "state_id": 1783,
    "state_code": "AL",
    "country_id": 107,
    "country_code": "IT",
    "latitude": "45.10922000",
    "longitude": "8.16748000",
    "native": null,
    "timezone": "Europe/Rome",
    "translations": {}
  },
  {
    "id": 140871,
    "name": "Odalengo Piccolo",
    "state_id": 1783,
    "state_code": "AL",
    "country_id": 107,
    "country_code": "IT",
    "latitude": "45.07165000",
    "longitude": "8.20603000",
    "native": null,
    "timezone": "Europe/Rome",
    "translations": {}
  },
  {
    "id": 140904,
    "name": "Olivola",
    "state_id": 1783,
    "state_code": "AL",
    "country_id": 107,
    "country_code": "IT",
    "latitude": "45.03725000",
    "longitude": "8.36784000",
    "native": null,
    "timezone": "Europe/Rome",
    "translations": {}
  },
  {
    "id": 140971,
    "name": "Orsara Bormida",
    "state_id": 1783,
    "state_code": "AL",
    "country_id": 107,
    "country_code": "IT",
    "latitude": "44.69015000",
    "longitude": "8.56275000",
    "native": null,
    "timezone": "Europe/Rome",
    "translations": {}
  },
  {
    "id": 141051,
    "name": "Ottiglio",
    "state_id": 1783,
    "state_code": "AL",
    "country_id": 107,
    "country_code": "IT",
    "latitude": "45.05426000",
    "longitude": "8.33980000",
    "native": null,
    "timezone": "Europe/Rome",
    "translations": {}
  },
  {
    "id": 141055,
    "name": "Ovada",
    "state_id": 1783,
    "state_code": "AL",
    "country_id": 107,
    "country_code": "IT",
    "latitude": "44.63727000",
    "longitude": "8.64196000",
    "native": null,
    "timezone": "Europe/Rome",
    "translations": {}
  },
  {
    "id": 141057,
    "name": "Oviglio",
    "state_id": 1783,
    "state_code": "AL",
    "country_id": 107,
    "country_code": "IT",
    "latitude": "44.86125000",
    "longitude": "8.48774000",
    "native": null,
    "timezone": "Europe/Rome",
    "translations": {}
  },
  {
    "id": 141063,
    "name": "Ozzano Monferrato",
    "state_id": 1783,
    "state_code": "AL",
    "country_id": 107,
    "country_code": "IT",
    "latitude": "45.10592000",
    "longitude": "8.37238000",
    "native": null,
    "timezone": "Europe/Rome",
    "translations": {}
  },
  {
    "id": 141075,
    "name": "Paderna",
    "state_id": 1783,
    "state_code": "AL",
    "country_id": 107,
    "country_code": "IT",
    "latitude": "44.82148000",
    "longitude": "8.89088000",
    "native": null,
    "timezone": "Europe/Rome",
    "translations": {}
  },
  {
    "id": 58304,
    "name": "Pareto",
    "state_id": 1783,
    "state_code": "AL",
    "country_id": 107,
    "country_code": "IT",
    "latitude": "44.51644000",
    "longitude": "8.38185000",
    "native": null,
    "timezone": "Europe/Rome",
    "translations": {}
  },
  {
    "id": 58309,
    "name": "Parodi Ligure",
    "state_id": 1783,
    "state_code": "AL",
    "country_id": 107,
    "country_code": "IT",
    "latitude": "44.66975000",
    "longitude": "8.75865000",
    "native": null,
    "timezone": "Europe/Rome",
    "translations": {}
  },
  {
    "id": 58341,
    "name": "Pasturana",
    "state_id": 1783,
    "state_code": "AL",
    "country_id": 107,
    "country_code": "IT",
    "latitude": "44.75085000",
    "longitude": "8.74925000",
    "native": null,
    "timezone": "Europe/Rome",
    "translations": {}
  },
  {
    "id": 58370,
    "name": "Pecetto di Valenza",
    "state_id": 1783,
    "state_code": "AL",
    "country_id": 107,
    "country_code": "IT",
    "latitude": "44.98904000",
    "longitude": "8.66996000",
    "native": null,
    "timezone": "Europe/Rome",
    "translations": {}
  },
  {
    "id": 58602,
    "name": "Pietra Marazzi",
    "state_id": 1783,
    "state_code": "AL",
    "country_id": 107,
    "country_code": "IT",
    "latitude": "44.94265000",
    "longitude": "8.66854000",
    "native": null,
    "timezone": "Europe/Rome",
    "translations": {}
  },
  {
    "id": 58697,
    "name": "Piovera",
    "state_id": 1783,
    "state_code": "AL",
    "country_id": 107,
    "country_code": "IT",
    "latitude": "44.95845000",
    "longitude": "8.73595000",
    "native": null,
    "timezone": "Europe/Rome",
    "translations": {}
  },
  {
    "id": 58811,
    "name": "Pomaro Monferrato",
    "state_id": 1783,
    "state_code": "AL",
    "country_id": 107,
    "country_code": "IT",
    "latitude": "45.06246000",
    "longitude": "8.59604000",
    "native": null,
    "timezone": "Europe/Rome",
    "translations": {}
  },
  {
    "id": 58867,
    "name": "Pontecurone",
    "state_id": 1783,
    "state_code": "AL",
    "country_id": 107,
    "country_code": "IT",
    "latitude": "44.95880000",
    "longitude": "8.93289000",
    "native": null,
    "timezone": "Europe/Rome",
    "translations": {}
  },
  {
    "id": 58879,
    "name": "Pontestura",
    "state_id": 1783,
    "state_code": "AL",
    "country_id": 107,
    "country_code": "IT",
    "latitude": "45.14245000",
    "longitude": "8.33324000",
    "native": null,
    "timezone": "Europe/Rome",
    "translations": {}
  },
  {
    "id": 58882,
    "name": "Ponti",
    "state_id": 1783,
    "state_code": "AL",
    "country_id": 107,
    "country_code": "IT",
    "latitude": "44.62847000",
    "longitude": "8.36461000",
    "native": null,
    "timezone": "Europe/Rome",
    "translations": {}
  },
  {
    "id": 58896,
    "name": "Ponzano Monferrato",
    "state_id": 1783,
    "state_code": "AL",
    "country_id": 107,
    "country_code": "IT",
    "latitude": "45.08485000",
    "longitude": "8.26553000",
    "native": null,
    "timezone": "Europe/Rome",
    "translations": {}
  },
  {
    "id": 58899,
    "name": "Ponzone",
    "state_id": 1783,
    "state_code": "AL",
    "country_id": 107,
    "country_code": "IT",
    "latitude": "44.58814000",
    "longitude": "8.45935000",
    "native": null,
    "timezone": "Europe/Rome",
    "translations": {}
  },
  {
    "id": 58983,
    "name": "Pozzol Groppo",
    "state_id": 1783,
    "state_code": "AL",
    "country_id": 107,
    "country_code": "IT",
    "latitude": "44.87806000",
    "longitude": "9.02985000",
    "native": null,
    "timezone": "Europe/Rome",
    "translations": {}
  },
  {
    "id": 58986,
    "name": "Pozzolo Formigaro",
    "state_id": 1783,
    "state_code": "AL",
    "country_id": 107,
    "country_code": "IT",
    "latitude": "44.79925000",
    "longitude": "8.78364000",
    "native": null,
    "timezone": "Europe/Rome",
    "translations": {}
  },
  {
    "id": 59009,
    "name": "Prasco",
    "state_id": 1783,
    "state_code": "AL",
    "country_id": 107,
    "country_code": "IT",
    "latitude": "44.63938000",
    "longitude": "8.55167000",
    "native": null,
    "timezone": "Europe/Rome",
    "translations": {}
  },
  {
    "id": 59047,
    "name": "Predosa",
    "state_id": 1783,
    "state_code": "AL",
    "country_id": 107,
    "country_code": "IT",
    "latitude": "44.75049000",
    "longitude": "8.65568000",
    "native": null,
    "timezone": "Europe/Rome",
    "translations": {}
  },
  {
    "id": 59220,
    "name": "Quargnento",
    "state_id": 1783,
    "state_code": "AL",
    "country_id": 107,
    "country_code": "IT",
    "latitude": "44.94566000",
    "longitude": "8.48821000",
    "native": null,
    "timezone": "Europe/Rome",
    "translations": {}
  },
  {
    "id": 59235,
    "name": "Quattordio",
    "state_id": 1783,
    "state_code": "AL",
    "country_id": 107,
    "country_code": "IT",
    "latitude": "44.89877000",
    "longitude": "8.40495000",
    "native": null,
    "timezone": "Europe/Rome",
    "translations": {}
  },
  {
    "id": 59363,
    "name": "Ricaldone",
    "state_id": 1783,
    "state_code": "AL",
    "country_id": 107,
    "country_code": "IT",
    "latitude": "44.73235000",
    "longitude": "8.46814000",
    "native": null,
    "timezone": "Europe/Rome",
    "translations": {}
  },
  {
    "id": 59423,
    "name": "Rivalta Bormida",
    "state_id": 1783,
    "state_code": "AL",
    "country_id": 107,
    "country_code": "IT",
    "latitude": "44.70975000",
    "longitude": "8.55175000",
    "native": null,
    "timezone": "Europe/Rome",
    "translations": {}
  },
  {
    "id": 59426,
    "name": "Rivanazzano",
    "state_id": 1783,
    "state_code": "AL",
    "country_id": 107,
    "country_code": "IT",
    "latitude": "44.92908000",
    "longitude": "9.01368000",
    "native": null,
    "timezone": "Europe/Rome",
    "translations": {}
  },
  {
    "id": 59431,
    "name": "Rivarone",
    "state_id": 1783,
    "state_code": "AL",
    "country_id": 107,
    "country_code": "IT",
    "latitude": "44.97686000",
    "longitude": "8.71565000",
    "native": null,
    "timezone": "Europe/Rome",
    "translations": {}
  },
  {
    "id": 59469,
    "name": "Rocca Grimalda",
    "state_id": 1783,
    "state_code": "AL",
    "country_id": 107,
    "country_code": "IT",
    "latitude": "44.67145000",
    "longitude": "8.64845000",
    "native": null,
    "timezone": "Europe/Rome",
    "translations": {}
  },
  {
    "id": 59497,
    "name": "Roccaforte Ligure",
    "state_id": 1783,
    "state_code": "AL",
    "country_id": 107,
    "country_code": "IT",
    "latitude": "44.67780000",
    "longitude": "9.02800000",
    "native": null,
    "timezone": "Europe/Rome",
    "translations": {}
  },
  {
    "id": 59537,
    "name": "Rocchetta Ligure",
    "state_id": 1783,
    "state_code": "AL",
    "country_id": 107,
    "country_code": "IT",
    "latitude": "44.70655000",
    "longitude": "9.05046000",
    "native": null,
    "timezone": "Europe/Rome",
    "translations": {}
  },
  {
    "id": 59640,
    "name": "Rosignano Monferrato",
    "state_id": 1783,
    "state_code": "AL",
    "country_id": 107,
    "country_code": "IT",
    "latitude": "45.08055000",
    "longitude": "8.39974000",
    "native": null,
    "timezone": "Europe/Rome",
    "translations": {}
  },
  {
    "id": 59744,
    "name": "Sala Monferrato",
    "state_id": 1783,
    "state_code": "AL",
    "country_id": 107,
    "country_code": "IT",
    "latitude": "45.07546000",
    "longitude": "8.36119000",
    "native": null,
    "timezone": "Europe/Rome",
    "translations": {}
  },
  {
    "id": 59754,
    "name": "Sale",
    "state_id": 1783,
    "state_code": "AL",
    "country_id": 107,
    "country_code": "IT",
    "latitude": "44.97932000",
    "longitude": "8.80963000",
    "native": null,
    "timezone": "Europe/Rome",
    "translations": {}
  },
  {
    "id": 59768,
    "name": "Salice Terme",
    "state_id": 1783,
    "state_code": "AL",
    "country_id": 107,
    "country_code": "IT",
    "latitude": "44.91510000",
    "longitude": "9.02630000",
    "native": null,
    "timezone": "Europe/Rome",
    "translations": {}
  },
  {
    "id": 59883,
    "name": "San Cristoforo",
    "state_id": 1783,
    "state_code": "AL",
    "country_id": 107,
    "country_code": "IT",
    "latitude": "44.69304000",
    "longitude": "8.74939000",
    "native": null,
    "timezone": "Europe/Rome",
    "translations": {}
  },
  {
    "id": 59953,
    "name": "San Giorgio",
    "state_id": 1783,
    "state_code": "AL",
    "country_id": 107,
    "country_code": "IT",
    "latitude": "45.10778000",
    "longitude": "8.41421000",
    "native": null,
    "timezone": "Europe/Rome",
    "translations": {}
  },
  {
    "id": 59958,
    "name": "San Giorgio Monferrato",
    "state_id": 1783,
    "state_code": "AL",
    "country_id": 107,
    "country_code": "IT",
    "latitude": "45.10735000",
    "longitude": "8.41614000",
    "native": null,
    "timezone": "Europe/Rome",
    "translations": {}
  },
  {
    "id": 60006,
    "name": "San Giuliano Vecchio",
    "state_id": 1783,
    "state_code": "AL",
    "country_id": 107,
    "country_code": "IT",
    "latitude": "44.88902000",
    "longitude": "8.76057000",
    "native": null,
    "timezone": "Europe/Rome",
    "translations": {}
  },
  {
    "id": 60231,
    "name": "San Salvatore Monferrato",
    "state_id": 1783,
    "state_code": "AL",
    "country_id": 107,
    "country_code": "IT",
    "latitude": "44.99489000",
    "longitude": "8.56639000",
    "native": null,
    "timezone": "Europe/Rome",
    "translations": {}
  },
  {
    "id": 60236,
    "name": "San Sebastiano Curone",
    "state_id": 1783,
    "state_code": "AL",
    "country_id": 107,
    "country_code": "IT",
    "latitude": "44.78633000",
    "longitude": "9.06446000",
    "native": null,
    "timezone": "Europe/Rome",
    "translations": {}
  },
  {
    "id": 60317,
    "name": "Sant'Agata Fossili",
    "state_id": 1783,
    "state_code": "AL",
    "country_id": 107,
    "country_code": "IT",
    "latitude": "44.78475000",
    "longitude": "8.92115000",
    "native": null,
    "timezone": "Europe/Rome",
    "translations": {}
  },
  {
    "id": 60544,
    "name": "Sardigliano",
    "state_id": 1783,
    "state_code": "AL",
    "country_id": 107,
    "country_code": "IT",
    "latitude": "44.75240000",
    "longitude": "8.89575000",
    "native": null,
    "timezone": "Europe/Rome",
    "translations": {}
  },
  {
    "id": 60547,
    "name": "Sarezzano",
    "state_id": 1783,
    "state_code": "AL",
    "country_id": 107,
    "country_code": "IT",
    "latitude": "44.86878000",
    "longitude": "8.91237000",
    "native": null,
    "timezone": "Europe/Rome",
    "translations": {}
  },
  {
    "id": 60761,
    "name": "Serralunga di Crea",
    "state_id": 1783,
    "state_code": "AL",
    "country_id": 107,
    "country_code": "IT",
    "latitude": "45.10110000",
    "longitude": "8.28069000",
    "native": null,
    "timezone": "Europe/Rome",
    "translations": {}
  },
  {
    "id": 60774,
    "name": "Serravalle Scrivia",
    "state_id": 1783,
    "state_code": "AL",
    "country_id": 107,
    "country_code": "IT",
    "latitude": "44.72277000",
    "longitude": "8.85635000",
    "native": null,
    "timezone": "Europe/Rome",
    "translations": {}
  },
  {
    "id": 60823,
    "name": "Sezzadio",
    "state_id": 1783,
    "state_code": "AL",
    "country_id": 107,
    "country_code": "IT",
    "latitude": "44.78485000",
    "longitude": "8.57255000",
    "native": null,
    "timezone": "Europe/Rome",
    "translations": {}
  },
  {
    "id": 60856,
    "name": "Silvano d'Orba",
    "state_id": 1783,
    "state_code": "AL",
    "country_id": 107,
    "country_code": "IT",
    "latitude": "44.68580000",
    "longitude": "8.67182000",
    "native": null,
    "timezone": "Europe/Rome",
    "translations": {}
  },
  {
    "id": 60914,
    "name": "Solero",
    "state_id": 1783,
    "state_code": "AL",
    "country_id": 107,
    "country_code": "IT",
    "latitude": "44.91835000",
    "longitude": "8.50754000",
    "native": null,
    "timezone": "Europe/Rome",
    "translations": {}
  },
  {
    "id": 60922,
    "name": "Solonghello",
    "state_id": 1783,
    "state_code": "AL",
    "country_id": 107,
    "country_code": "IT",
    "latitude": "45.12905000",
    "longitude": "8.28323000",
    "native": null,
    "timezone": "Europe/Rome",
    "translations": {}
  },
  {
    "id": 61007,
    "name": "Spigno Monferrato",
    "state_id": 1783,
    "state_code": "AL",
    "country_id": 107,
    "country_code": "IT",
    "latitude": "44.54314000",
    "longitude": "8.33395000",
    "native": null,
    "timezone": "Europe/Rome",
    "translations": {}
  },
  {
    "id": 61018,
    "name": "Spineto Scrivia",
    "state_id": 1783,
    "state_code": "AL",
    "country_id": 107,
    "country_code": "IT",
    "latitude": "44.83735000",
    "longitude": "8.87375000",
    "native": null,
    "timezone": "Europe/Rome",
    "translations": {}
  },
  {
    "id": 61020,
    "name": "Spinetta Marengo",
    "state_id": 1783,
    "state_code": "AL",
    "country_id": 107,
    "country_code": "IT",
    "latitude": "44.88554000",
    "longitude": "8.67750000",
    "native": null,
    "timezone": "Europe/Rome",
    "translations": {}
  },
  {
    "id": 61058,
    "name": "Stazzano",
    "state_id": 1783,
    "state_code": "AL",
    "country_id": 107,
    "country_code": "IT",
    "latitude": "44.72728000",
    "longitude": "8.86846000",
    "native": null,
    "timezone": "Europe/Rome",
    "translations": {}
  },
  {
    "id": 61095,
    "name": "Strevi",
    "state_id": 1783,
    "state_code": "AL",
    "country_id": 107,
    "country_code": "IT",
    "latitude": "44.69985000",
    "longitude": "8.52470000",
    "native": null,
    "timezone": "Europe/Rome",
    "translations": {}
  },
  {
    "id": 61146,
    "name": "Tagliolo Monferrato",
    "state_id": 1783,
    "state_code": "AL",
    "country_id": 107,
    "country_code": "IT",
    "latitude": "44.63835000",
    "longitude": "8.66585000",
    "native": null,
    "timezone": "Europe/Rome",
    "translations": {}
  },
  {
    "id": 61172,
    "name": "Tassarolo",
    "state_id": 1783,
    "state_code": "AL",
    "country_id": 107,
    "country_code": "IT",
    "latitude": "44.72811000",
    "longitude": "8.77164000",
    "native": null,
    "timezone": "Europe/Rome",
    "translations": {}
  },
  {
    "id": 61253,
    "name": "Terruggia",
    "state_id": 1783,
    "state_code": "AL",
    "country_id": 107,
    "country_code": "IT",
    "latitude": "45.08199000",
    "longitude": "8.44428000",
    "native": null,
    "timezone": "Europe/Rome",
    "translations": {}
  },
  {
    "id": 61256,
    "name": "Terzo",
    "state_id": 1783,
    "state_code": "AL",
    "country_id": 107,
    "country_code": "IT",
    "latitude": "44.67045000",
    "longitude": "8.42164000",
    "native": null,
    "timezone": "Europe/Rome",
    "translations": {}
  },
  {
    "id": 61275,
    "name": "Ticineto",
    "state_id": 1783,
    "state_code": "AL",
    "country_id": 107,
    "country_code": "IT",
    "latitude": "45.09627000",
    "longitude": "8.55315000",
    "native": null,
    "timezone": "Europe/Rome",
    "translations": {}
  },
  {
    "id": 61412,
    "name": "Tortona",
    "state_id": 1783,
    "state_code": "AL",
    "country_id": 107,
    "country_code": "IT",
    "latitude": "44.89784000",
    "longitude": "8.86374000",
    "native": null,
    "timezone": "Europe/Rome",
    "translations": {}
  },
  {
    "id": 61507,
    "name": "Treville",
    "state_id": 1783,
    "state_code": "AL",
    "country_id": 107,
    "country_code": "IT",
    "latitude": "45.09685000",
    "longitude": "8.35954000",
    "native": null,
    "timezone": "Europe/Rome",
    "translations": {}
  },
  {
    "id": 61536,
    "name": "Trisobbio",
    "state_id": 1783,
    "state_code": "AL",
    "country_id": 107,
    "country_code": "IT",
    "latitude": "44.66063000",
    "longitude": "8.58621000",
    "native": null,
    "timezone": "Europe/Rome",
    "translations": {}
  },
  {
    "id": 61664,
    "name": "Valenza",
    "state_id": 1783,
    "state_code": "AL",
    "country_id": 107,
    "country_code": "IT",
    "latitude": "45.01242000",
    "longitude": "8.64379000",
    "native": null,
    "timezone": "Europe/Rome",
    "translations": {}
  },
  {
    "id": 61691,
    "name": "Valle San Bartolomeo",
    "state_id": 1783,
    "state_code": "AL",
    "country_id": 107,
    "country_code": "IT",
    "latitude": "44.95017000",
    "longitude": "8.64040000",
    "native": null,
    "timezone": "Europe/Rome",
    "translations": {}
  },
  {
    "id": 61728,
    "name": "Valmacca",
    "state_id": 1783,
    "state_code": "AL",
    "country_id": 107,
    "country_code": "IT",
    "latitude": "45.10101000",
    "longitude": "8.58382000",
    "native": null,
    "timezone": "Europe/Rome",
    "translations": {}
  },
  {
    "id": 61729,
    "name": "Valmadonna",
    "state_id": 1783,
    "state_code": "AL",
    "country_id": 107,
    "country_code": "IT",
    "latitude": "44.97444000",
    "longitude": "8.61146000",
    "native": null,
    "timezone": "Europe/Rome",
    "translations": {}
  },
  {
    "id": 61956,
    "name": "Vignale Monferrato",
    "state_id": 1783,
    "state_code": "AL",
    "country_id": 107,
    "country_code": "IT",
    "latitude": "45.00996000",
    "longitude": "8.39703000",
    "native": null,
    "timezone": "Europe/Rome",
    "translations": {}
  },
  {
    "id": 61963,
    "name": "Vignole Borbera",
    "state_id": 1783,
    "state_code": "AL",
    "country_id": 107,
    "country_code": "IT",
    "latitude": "44.70819000",
    "longitude": "8.89026000",
    "native": null,
    "timezone": "Europe/Rome",
    "translations": {}
  },
  {
    "id": 61979,
    "name": "Viguzzolo",
    "state_id": 1783,
    "state_code": "AL",
    "country_id": 107,
    "country_code": "IT",
    "latitude": "44.90567000",
    "longitude": "8.91968000",
    "native": null,
    "timezone": "Europe/Rome",
    "translations": {}
  },
  {
    "id": 62051,
    "name": "Villadeati",
    "state_id": 1783,
    "state_code": "AL",
    "country_id": 107,
    "country_code": "IT",
    "latitude": "45.07225000",
    "longitude": "8.16793000",
    "native": null,
    "timezone": "Europe/Rome",
    "translations": {}
  },
  {
    "id": 62079,
    "name": "Villalvernia",
    "state_id": 1783,
    "state_code": "AL",
    "country_id": 107,
    "country_code": "IT",
    "latitude": "44.81387000",
    "longitude": "8.85532000",
    "native": null,
    "timezone": "Europe/Rome",
    "translations": {}
  },
  {
    "id": 62085,
    "name": "Villamiroglio",
    "state_id": 1783,
    "state_code": "AL",
    "country_id": 107,
    "country_code": "IT",
    "latitude": "45.13455000",
    "longitude": "8.17103000",
    "native": null,
    "timezone": "Europe/Rome",
    "translations": {}
  },
  {
    "id": 62100,
    "name": "Villanova Monferrato",
    "state_id": 1783,
    "state_code": "AL",
    "country_id": 107,
    "country_code": "IT",
    "latitude": "45.18111000",
    "longitude": "8.47813000",
    "native": null,
    "timezone": "Europe/Rome",
    "translations": {}
  },
  {
    "id": 62130,
    "name": "Villaromagnano",
    "state_id": 1783,
    "state_code": "AL",
    "country_id": 107,
    "country_code": "IT",
    "latitude": "44.84965000",
    "longitude": "8.88775000",
    "native": null,
    "timezone": "Europe/Rome",
    "translations": {}
  },
  {
    "id": 62174,
    "name": "Visone",
    "state_id": 1783,
    "state_code": "AL",
    "country_id": 107,
    "country_code": "IT",
    "latitude": "44.66184000",
    "longitude": "8.50075000",
    "native": null,
    "timezone": "Europe/Rome",
    "translations": {}
  },
  {
    "id": 62210,
    "name": "Volpedo",
    "state_id": 1783,
    "state_code": "AL",
    "country_id": 107,
    "country_code": "IT",
    "latitude": "44.88887000",
    "longitude": "8.98615000",
    "native": null,
    "timezone": "Europe/Rome",
    "translations": {}
  },
  {
    "id": 62211,
    "name": "Volpeglino",
    "state_id": 1783,
    "state_code": "AL",
    "country_id": 107,
    "country_code": "IT",
    "latitude": "44.89296000",
    "longitude": "8.95945000",
    "native": null,
    "timezone": "Europe/Rome",
    "translations": {}
  },
  {
    "id": 62214,
    "name": "Voltaggio",
    "state_id": 1783,
    "state_code": "AL",
    "country_id": 107,
    "country_code": "IT",
    "latitude": "44.62095000",
    "longitude": "8.84274000",
    "native": null,
    "timezone": "Europe/Rome",
    "translations": {}
  }
]