[
  {
    "id": 39318,
    "name": "Allaire",
    "state_id": 5024,
    "state_code": "56",
    "country_id": 75,
    "country_code": "FR",
    "latitude": "47.63752000",
    "longitude": "-2.16324000",
    "native": null,
    "timezone": "Europe/Paris",
    "translations": {}
  },
  {
    "id": 39356,
    "name": "Ambon",
    "state_id": 5024,
    "state_code": "56",
    "country_id": 75,
    "country_code": "FR",
    "latitude": "47.55367000",
    "longitude": "-2.55512000",
    "native": null,
    "timezone": "Europe/Paris",
    "translations": {}
  },
  {
    "id": 39510,
    "name": "Arradon",
    "state_id": 5024,
    "state_code": "56",
    "country_id": 75,
    "country_code": "FR",
    "latitude": "47.62709000",
    "longitude": "-2.82150000",
    "native": null,
    "timezone": "Europe/Paris",
    "translations": {}
  },
  {
    "id": 39536,
    "name": "Arzon",
    "state_id": 5024,
    "state_code": "56",
    "country_id": 75,
    "country_code": "FR",
    "latitude": "47.54852000",
    "longitude": "-2.88989000",
    "native": null,
    "timezone": "Europe/Paris",
    "translations": {}
  },
  {
    "id": 39604,
    "name": "Augan",
    "state_id": 5024,
    "state_code": "56",
    "country_id": 75,
    "country_code": "FR",
    "latitude": "47.91943000",
    "longitude": "-2.27905000",
    "native": null,
    "timezone": "Europe/Paris",
    "translations": {}
  },
  {
    "id": 39623,
    "name": "Auray",
    "state_id": 5024,
    "state_code": "56",
    "country_id": 75,
    "country_code": "FR",
    "latitude": "47.67025000",
    "longitude": "-2.99183000",
    "native": null,
    "timezone": "Europe/Paris",
    "translations": {}
  },
  {
    "id": 39703,
    "name": "Baden",
    "state_id": 5024,
    "state_code": "56",
    "country_id": 75,
    "country_code": "FR",
    "latitude": "47.61734000",
    "longitude": "-2.91987000",
    "native": null,
    "timezone": "Europe/Paris",
    "translations": {}
  },
  {
    "id": 39808,
    "name": "Baud",
    "state_id": 5024,
    "state_code": "56",
    "country_id": 75,
    "country_code": "FR",
    "latitude": "47.87474000",
    "longitude": "-3.01760000",
    "native": null,
    "timezone": "Europe/Paris",
    "translations": {}
  },
  {
    "id": 40417,
    "name": "Béganne",
    "state_id": 5024,
    "state_code": "56",
    "country_id": 75,
    "country_code": "FR",
    "latitude": "47.59670000",
    "longitude": "-2.24162000",
    "native": null,
    "timezone": "Europe/Paris",
    "translations": {}
  },
  {
    "id": 39900,
    "name": "Beignon",
    "state_id": 5024,
    "state_code": "56",
    "country_id": 75,
    "country_code": "FR",
    "latitude": "47.97200000",
    "longitude": "-2.16933000",
    "native": null,
    "timezone": "Europe/Paris",
    "translations": {}
  },
  {
    "id": 39937,
    "name": "Belz",
    "state_id": 5024,
    "state_code": "56",
    "country_id": 75,
    "country_code": "FR",
    "latitude": "47.67506000",
    "longitude": "-3.16800000",
    "native": null,
    "timezone": "Europe/Paris",
    "translations": {}
  },
  {
    "id": 39958,
    "name": "Berné",
    "state_id": 5024,
    "state_code": "56",
    "country_id": 75,
    "country_code": "FR",
    "latitude": "47.99470000",
    "longitude": "-3.39421000",
    "native": null,
    "timezone": "Europe/Paris",
    "translations": {}
  },
  {
    "id": 39961,
    "name": "Berric",
    "state_id": 5024,
    "state_code": "56",
    "country_id": 75,
    "country_code": "FR",
    "latitude": "47.63326000",
    "longitude": "-2.52250000",
    "native": null,
    "timezone": "Europe/Paris",
    "translations": {}
  },
  {
    "id": 40016,
    "name": "Bignan",
    "state_id": 5024,
    "state_code": "56",
    "country_id": 75,
    "country_code": "FR",
    "latitude": "47.87935000",
    "longitude": "-2.77153000",
    "native": null,
    "timezone": "Europe/Paris",
    "translations": {}
  },
  {
    "id": 40253,
    "name": "Brandérion",
    "state_id": 5024,
    "state_code": "56",
    "country_id": 75,
    "country_code": "FR",
    "latitude": "47.79412000",
    "longitude": "-3.19474000",
    "native": null,
    "timezone": "Europe/Paris",
    "translations": {}
  },
  {
    "id": 40272,
    "name": "Brech",
    "state_id": 5024,
    "state_code": "56",
    "country_id": 75,
    "country_code": "FR",
    "latitude": "47.72134000",
    "longitude": "-2.99862000",
    "native": null,
    "timezone": "Europe/Paris",
    "translations": {}
  },
  {
    "id": 161708,
    "name": "Bréhan",
    "state_id": 5024,
    "state_code": "56",
    "country_id": 75,
    "country_code": "FR",
    "latitude": "48.07050000",
    "longitude": "-2.69400000",
    "native": null,
    "timezone": "Europe/Paris",
    "translations": {}
  },
  {
    "id": 40367,
    "name": "Bubry",
    "state_id": 5024,
    "state_code": "56",
    "country_id": 75,
    "country_code": "FR",
    "latitude": "47.96336000",
    "longitude": "-3.17108000",
    "native": null,
    "timezone": "Europe/Paris",
    "translations": {}
  },
  {
    "id": 40452,
    "name": "Caden",
    "state_id": 5024,
    "state_code": "56",
    "country_id": 75,
    "country_code": "FR",
    "latitude": "47.63124000",
    "longitude": "-2.28704000",
    "native": null,
    "timezone": "Europe/Paris",
    "translations": {}
  },
  {
    "id": 40495,
    "name": "Camors",
    "state_id": 5024,
    "state_code": "56",
    "country_id": 75,
    "country_code": "FR",
    "latitude": "47.84739000",
    "longitude": "-2.99981000",
    "native": null,
    "timezone": "Europe/Paris",
    "translations": {}
  },
  {
    "id": 40503,
    "name": "Campénéac",
    "state_id": 5024,
    "state_code": "56",
    "country_id": 75,
    "country_code": "FR",
    "latitude": "47.95733000",
    "longitude": "-2.29277000",
    "native": null,
    "timezone": "Europe/Paris",
    "translations": {}
  },
  {
    "id": 40542,
    "name": "Carentoir",
    "state_id": 5024,
    "state_code": "56",
    "country_id": 75,
    "country_code": "FR",
    "latitude": "47.81667000",
    "longitude": "-2.13333000",
    "native": null,
    "timezone": "Europe/Paris",
    "translations": {}
  },
  {
    "id": 40550,
    "name": "Carnac",
    "state_id": 5024,
    "state_code": "56",
    "country_id": 75,
    "country_code": "FR",
    "latitude": "47.58351000",
    "longitude": "-3.07884000",
    "native": null,
    "timezone": "Europe/Paris",
    "translations": {}
  },
  {
    "id": 40553,
    "name": "Caro",
    "state_id": 5024,
    "state_code": "56",
    "country_id": 75,
    "country_code": "FR",
    "latitude": "47.86429000",
    "longitude": "-2.31924000",
    "native": null,
    "timezone": "Europe/Paris",
    "translations": {}
  },
  {
    "id": 40601,
    "name": "Caudan",
    "state_id": 5024,
    "state_code": "56",
    "country_id": 75,
    "country_code": "FR",
    "latitude": "47.80877000",
    "longitude": "-3.34250000",
    "native": null,
    "timezone": "Europe/Paris",
    "translations": {}
  },
  {
    "id": 41069,
    "name": "Cléguer",
    "state_id": 5024,
    "state_code": "56",
    "country_id": 75,
    "country_code": "FR",
    "latitude": "47.85407000",
    "longitude": "-3.38219000",
    "native": null,
    "timezone": "Europe/Paris",
    "translations": {}
  },
  {
    "id": 41070,
    "name": "Cléguérec",
    "state_id": 5024,
    "state_code": "56",
    "country_id": 75,
    "country_code": "FR",
    "latitude": "48.12577000",
    "longitude": "-3.07162000",
    "native": null,
    "timezone": "Europe/Paris",
    "translations": {}
  },
  {
    "id": 41107,
    "name": "Colpo",
    "state_id": 5024,
    "state_code": "56",
    "country_id": 75,
    "country_code": "FR",
    "latitude": "47.81778000",
    "longitude": "-2.81002000",
    "native": null,
    "timezone": "Europe/Paris",
    "translations": {}
  },
  {
    "id": 41294,
    "name": "Crach",
    "state_id": 5024,
    "state_code": "56",
    "country_id": 75,
    "country_code": "FR",
    "latitude": "47.61700000",
    "longitude": "-3.00170000",
    "native": null,
    "timezone": "Europe/Paris",
    "translations": {}
  },
  {
    "id": 41343,
    "name": "Crédin",
    "state_id": 5024,
    "state_code": "56",
    "country_id": 75,
    "country_code": "FR",
    "latitude": "48.03462000",
    "longitude": "-2.76630000",
    "native": null,
    "timezone": "Europe/Paris",
    "translations": {}
  },
  {
    "id": 41412,
    "name": "Damgan",
    "state_id": 5024,
    "state_code": "56",
    "country_id": 75,
    "country_code": "FR",
    "latitude": "47.51799000",
    "longitude": "-2.57698000",
    "native": null,
    "timezone": "Europe/Paris",
    "translations": {}
  },
  {
    "id": 41665,
    "name": "Elven",
    "state_id": 5024,
    "state_code": "56",
    "country_id": 75,
    "country_code": "FR",
    "latitude": "47.73230000",
    "longitude": "-2.58956000",
    "native": null,
    "timezone": "Europe/Paris",
    "translations": {}
  },
  {
    "id": 41694,
    "name": "Erdeven",
    "state_id": 5024,
    "state_code": "56",
    "country_id": 75,
    "country_code": "FR",
    "latitude": "47.64210000",
    "longitude": "-3.15706000",
    "native": null,
    "timezone": "Europe/Paris",
    "translations": {}
  },
  {
    "id": 48101,
    "name": "Étel",
    "state_id": 5024,
    "state_code": "56",
    "country_id": 75,
    "country_code": "FR",
    "latitude": "47.65614000",
    "longitude": "-3.20018000",
    "native": null,
    "timezone": "Europe/Paris",
    "translations": {}
  },
  {
    "id": 162105,
    "name": "Évellys",
    "state_id": 5024,
    "state_code": "56",
    "country_id": 75,
    "country_code": "FR",
    "latitude": "47.97140000",
    "longitude": "-2.86750000",
    "native": null,
    "timezone": "Europe/Paris",
    "translations": {}
  },
  {
    "id": 42004,
    "name": "Férel",
    "state_id": 5024,
    "state_code": "56",
    "country_id": 75,
    "country_code": "FR",
    "latitude": "47.48203000",
    "longitude": "-2.34227000",
    "native": null,
    "timezone": "Europe/Paris",
    "translations": {}
  },
  {
    "id": 161765,
    "name": "Forges de Lanouée",
    "state_id": 5024,
    "state_code": "56",
    "country_id": 75,
    "country_code": "FR",
    "latitude": "48.01440000",
    "longitude": "-2.57810000",
    "native": null,
    "timezone": "Europe/Paris",
    "translations": {}
  },
  {
    "id": 42079,
    "name": "Gestel",
    "state_id": 5024,
    "state_code": "56",
    "country_id": 75,
    "country_code": "FR",
    "latitude": "47.80361000",
    "longitude": "-3.44245000",
    "native": null,
    "timezone": "Europe/Paris",
    "translations": {}
  },
  {
    "id": 42151,
    "name": "Gourin",
    "state_id": 5024,
    "state_code": "56",
    "country_id": 75,
    "country_code": "FR",
    "latitude": "48.13866000",
    "longitude": "-3.60755000",
    "native": null,
    "timezone": "Europe/Paris",
    "translations": {}
  },
  {
    "id": 42170,
    "name": "Grand-Champ",
    "state_id": 5024,
    "state_code": "56",
    "country_id": 75,
    "country_code": "FR",
    "latitude": "47.75804000",
    "longitude": "-2.84635000",
    "native": null,
    "timezone": "Europe/Paris",
    "translations": {}
  },
  {
    "id": 42221,
    "name": "Groix",
    "state_id": 5024,
    "state_code": "56",
    "country_id": 75,
    "country_code": "FR",
    "latitude": "47.63887000",
    "longitude": "-3.45430000",
    "native": null,
    "timezone": "Europe/Paris",
    "translations": {}
  },
  {
    "id": 42278,
    "name": "Guégon",
    "state_id": 5024,
    "state_code": "56",
    "country_id": 75,
    "country_code": "FR",
    "latitude": "47.93707000",
    "longitude": "-2.56450000",
    "native": null,
    "timezone": "Europe/Paris",
    "translations": {}
  },
  {
    "id": 42281,
    "name": "Guémené-sur-Scorff",
    "state_id": 5024,
    "state_code": "56",
    "country_id": 75,
    "country_code": "FR",
    "latitude": "48.06667000",
    "longitude": "-3.20000000",
    "native": null,
    "timezone": "Europe/Paris",
    "translations": {}
  },
  {
    "id": 42283,
    "name": "Guénin",
    "state_id": 5024,
    "state_code": "56",
    "country_id": 75,
    "country_code": "FR",
    "latitude": "47.90757000",
    "longitude": "-2.97941000",
    "native": null,
    "timezone": "Europe/Paris",
    "translations": {}
  },
  {
    "id": 42242,
    "name": "Guer",
    "state_id": 5024,
    "state_code": "56",
    "country_id": 75,
    "country_code": "FR",
    "latitude": "47.90619000",
    "longitude": "-2.12314000",
    "native": null,
    "timezone": "Europe/Paris",
    "translations": {}
  },
  {
    "id": 42245,
    "name": "Guern",
    "state_id": 5024,
    "state_code": "56",
    "country_id": 75,
    "country_code": "FR",
    "latitude": "48.02964000",
    "longitude": "-3.09145000",
    "native": null,
    "timezone": "Europe/Paris",
    "translations": {}
  },
  {
    "id": 161780,
    "name": "Guidel",
    "state_id": 5024,
    "state_code": "56",
    "country_id": 75,
    "country_code": "FR",
    "latitude": "47.79380000",
    "longitude": "-3.49060000",
    "native": null,
    "timezone": "Europe/Paris",
    "translations": {}
  },
  {
    "id": 42254,
    "name": "Guidel-Plage",
    "state_id": 5024,
    "state_code": "56",
    "country_id": 75,
    "country_code": "FR",
    "latitude": "47.76768000",
    "longitude": "-3.52180000",
    "native": null,
    "timezone": "Europe/Paris",
    "translations": {}
  },
  {
    "id": 42260,
    "name": "Guillac",
    "state_id": 5024,
    "state_code": "56",
    "country_id": 75,
    "country_code": "FR",
    "latitude": "47.91096000",
    "longitude": "-2.46571000",
    "native": null,
    "timezone": "Europe/Paris",
    "translations": {}
  },
  {
    "id": 42262,
    "name": "Guilliers",
    "state_id": 5024,
    "state_code": "56",
    "country_id": 75,
    "country_code": "FR",
    "latitude": "48.04286000",
    "longitude": "-2.40562000",
    "native": null,
    "timezone": "Europe/Paris",
    "translations": {}
  },
  {
    "id": 42269,
    "name": "Guiscriff",
    "state_id": 5024,
    "state_code": "56",
    "country_id": 75,
    "country_code": "FR",
    "latitude": "48.04944000",
    "longitude": "-3.64356000",
    "native": null,
    "timezone": "Europe/Paris",
    "translations": {}
  },
  {
    "id": 42368,
    "name": "Hennebont",
    "state_id": 5024,
    "state_code": "56",
    "country_id": 75,
    "country_code": "FR",
    "latitude": "47.80512000",
    "longitude": "-3.27337000",
    "native": null,
    "timezone": "Europe/Paris",
    "translations": {}
  },
  {
    "id": 42490,
    "name": "Inguiniel",
    "state_id": 5024,
    "state_code": "56",
    "country_id": 75,
    "country_code": "FR",
    "latitude": "47.97658000",
    "longitude": "-3.28072000",
    "native": null,
    "timezone": "Europe/Paris",
    "translations": {}
  },
  {
    "id": 161787,
    "name": "Inzinzac-Lochrist",
    "state_id": 5024,
    "state_code": "56",
    "country_id": 75,
    "country_code": "FR",
    "latitude": "47.85990000",
    "longitude": "-3.25680000",
    "native": null,
    "timezone": "Europe/Paris",
    "translations": {}
  },
  {
    "id": 42564,
    "name": "Josselin",
    "state_id": 5024,
    "state_code": "56",
    "country_id": 75,
    "country_code": "FR",
    "latitude": "47.95720000",
    "longitude": "-2.54713000",
    "native": null,
    "timezone": "Europe/Paris",
    "translations": {}
  },
  {
    "id": 42612,
    "name": "Kervignac",
    "state_id": 5024,
    "state_code": "56",
    "country_id": 75,
    "country_code": "FR",
    "latitude": "47.76289000",
    "longitude": "-3.23778000",
    "native": null,
    "timezone": "Europe/Paris",
    "translations": {}
  },
  {
    "id": 42760,
    "name": "La Gacilly",
    "state_id": 5024,
    "state_code": "56",
    "country_id": 75,
    "country_code": "FR",
    "latitude": "47.76562000",
    "longitude": "-2.13220000",
    "native": null,
    "timezone": "Europe/Paris",
    "translations": {}
  },
  {
    "id": 42899,
    "name": "La Trinité-sur-Mer",
    "state_id": 5024,
    "state_code": "56",
    "country_id": 75,
    "country_code": "FR",
    "latitude": "47.58680000",
    "longitude": "-3.02994000",
    "native": null,
    "timezone": "Europe/Paris",
    "translations": {}
  },
  {
    "id": 42919,
    "name": "La Vraie-Croix",
    "state_id": 5024,
    "state_code": "56",
    "country_id": 75,
    "country_code": "FR",
    "latitude": "47.68954000",
    "longitude": "-2.54274000",
    "native": null,
    "timezone": "Europe/Paris",
    "translations": {}
  },
  {
    "id": 43000,
    "name": "Landaul",
    "state_id": 5024,
    "state_code": "56",
    "country_id": 75,
    "country_code": "FR",
    "latitude": "47.74785000",
    "longitude": "-3.07694000",
    "native": null,
    "timezone": "Europe/Paris",
    "translations": {}
  },
  {
    "id": 43018,
    "name": "Landévant",
    "state_id": 5024,
    "state_code": "56",
    "country_id": 75,
    "country_code": "FR",
    "latitude": "47.76499000",
    "longitude": "-3.12221000",
    "native": null,
    "timezone": "Europe/Paris",
    "translations": {}
  },
  {
    "id": 43019,
    "name": "Lanester",
    "state_id": 5024,
    "state_code": "56",
    "country_id": 75,
    "country_code": "FR",
    "latitude": "47.76132000",
    "longitude": "-3.33965000",
    "native": null,
    "timezone": "Europe/Paris",
    "translations": {}
  },
  {
    "id": 43029,
    "name": "Langonnet",
    "state_id": 5024,
    "state_code": "56",
    "country_id": 75,
    "country_code": "FR",
    "latitude": "48.10511000",
    "longitude": "-3.49356000",
    "native": null,
    "timezone": "Europe/Paris",
    "translations": {}
  },
  {
    "id": 43033,
    "name": "Languidic",
    "state_id": 5024,
    "state_code": "56",
    "country_id": 75,
    "country_code": "FR",
    "latitude": "47.83266000",
    "longitude": "-3.15821000",
    "native": null,
    "timezone": "Europe/Paris",
    "translations": {}
  },
  {
    "id": 43041,
    "name": "Lanouée",
    "state_id": 5024,
    "state_code": "56",
    "country_id": 75,
    "country_code": "FR",
    "latitude": "48.00225000",
    "longitude": "-2.58157000",
    "native": null,
    "timezone": "Europe/Paris",
    "translations": {}
  },
  {
    "id": 43054,
    "name": "Lanvénégen",
    "state_id": 5024,
    "state_code": "56",
    "country_id": 75,
    "country_code": "FR",
    "latitude": "47.99811000",
    "longitude": "-3.54134000",
    "native": null,
    "timezone": "Europe/Paris",
    "translations": {}
  },
  {
    "id": 43072,
    "name": "Larmor-Baden",
    "state_id": 5024,
    "state_code": "56",
    "country_id": 75,
    "country_code": "FR",
    "latitude": "47.58341000",
    "longitude": "-2.89440000",
    "native": null,
    "timezone": "Europe/Paris",
    "translations": {}
  },
  {
    "id": 43073,
    "name": "Larmor-Plage",
    "state_id": 5024,
    "state_code": "56",
    "country_id": 75,
    "country_code": "FR",
    "latitude": "47.70646000",
    "longitude": "-3.38339000",
    "native": null,
    "timezone": "Europe/Paris",
    "translations": {}
  },
  {
    "id": 43134,
    "name": "Le Bono",
    "state_id": 5024,
    "state_code": "56",
    "country_id": 75,
    "country_code": "FR",
    "latitude": "47.64129000",
    "longitude": "-2.94902000",
    "native": null,
    "timezone": "Europe/Paris",
    "translations": {}
  },
  {
    "id": 43184,
    "name": "Le Faouët",
    "state_id": 5024,
    "state_code": "56",
    "country_id": 75,
    "country_code": "FR",
    "latitude": "48.03299000",
    "longitude": "-3.49048000",
    "native": null,
    "timezone": "Europe/Paris",
    "translations": {}
  },
  {
    "id": 43243,
    "name": "Le Palais",
    "state_id": 5024,
    "state_code": "56",
    "country_id": 75,
    "country_code": "FR",
    "latitude": "47.34590000",
    "longitude": "-3.15488000",
    "native": null,
    "timezone": "Europe/Paris",
    "translations": {}
  },
  {
    "id": 43302,
    "name": "Le Sourn",
    "state_id": 5024,
    "state_code": "56",
    "country_id": 75,
    "country_code": "FR",
    "latitude": "48.04262000",
    "longitude": "-2.98790000",
    "native": null,
    "timezone": "Europe/Paris",
    "translations": {}
  },
  {
    "id": 43491,
    "name": "Limerzel",
    "state_id": 5024,
    "state_code": "56",
    "country_id": 75,
    "country_code": "FR",
    "latitude": "47.63619000",
    "longitude": "-2.35448000",
    "native": null,
    "timezone": "Europe/Paris",
    "translations": {}
  },
  {
    "id": 43528,
    "name": "Locmariaquer",
    "state_id": 5024,
    "state_code": "56",
    "country_id": 75,
    "country_code": "FR",
    "latitude": "47.56915000",
    "longitude": "-2.94468000",
    "native": null,
    "timezone": "Europe/Paris",
    "translations": {}
  },
  {
    "id": 43529,
    "name": "Locminé",
    "state_id": 5024,
    "state_code": "56",
    "country_id": 75,
    "country_code": "FR",
    "latitude": "47.88619000",
    "longitude": "-2.83536000",
    "native": null,
    "timezone": "Europe/Paris",
    "translations": {}
  },
  {
    "id": 43530,
    "name": "Locmiquélic",
    "state_id": 5024,
    "state_code": "56",
    "country_id": 75,
    "country_code": "FR",
    "latitude": "47.72499000",
    "longitude": "-3.34153000",
    "native": null,
    "timezone": "Europe/Paris",
    "translations": {}
  },
  {
    "id": 43531,
    "name": "Locoal-Mendon",
    "state_id": 5024,
    "state_code": "56",
    "country_id": 75,
    "country_code": "FR",
    "latitude": "47.70520000",
    "longitude": "-3.10796000",
    "native": null,
    "timezone": "Europe/Paris",
    "translations": {}
  },
  {
    "id": 161864,
    "name": "Locqueltas",
    "state_id": 5024,
    "state_code": "56",
    "country_id": 75,
    "country_code": "FR",
    "latitude": "47.76540000",
    "longitude": "-2.76160000",
    "native": null,
    "timezone": "Europe/Paris",
    "translations": {}
  },
  {
    "id": 43587,
    "name": "Lorient",
    "state_id": 5024,
    "state_code": "56",
    "country_id": 75,
    "country_code": "FR",
    "latitude": "47.74589000",
    "longitude": "-3.36643000",
    "native": null,
    "timezone": "Europe/Paris",
    "translations": {}
  },
  {
    "id": 43623,
    "name": "Loyat",
    "state_id": 5024,
    "state_code": "56",
    "country_id": 75,
    "country_code": "FR",
    "latitude": "47.98933000",
    "longitude": "-2.38344000",
    "native": null,
    "timezone": "Europe/Paris",
    "translations": {}
  },
  {
    "id": 43749,
    "name": "Malansac",
    "state_id": 5024,
    "state_code": "56",
    "country_id": 75,
    "country_code": "FR",
    "latitude": "47.67724000",
    "longitude": "-2.29543000",
    "native": null,
    "timezone": "Europe/Paris",
    "translations": {}
  },
  {
    "id": 43757,
    "name": "Malestroit",
    "state_id": 5024,
    "state_code": "56",
    "country_id": 75,
    "country_code": "FR",
    "latitude": "47.80934000",
    "longitude": "-2.38457000",
    "native": null,
    "timezone": "Europe/Paris",
    "translations": {}
  },
  {
    "id": 43758,
    "name": "Malguénac",
    "state_id": 5024,
    "state_code": "56",
    "country_id": 75,
    "country_code": "FR",
    "latitude": "48.08008000",
    "longitude": "-3.05248000",
    "native": null,
    "timezone": "Europe/Paris",
    "translations": {}
  },
  {
    "id": 43924,
    "name": "Marzan",
    "state_id": 5024,
    "state_code": "56",
    "country_id": 75,
    "country_code": "FR",
    "latitude": "47.54069000",
    "longitude": "-2.32466000",
    "native": null,
    "timezone": "Europe/Paris",
    "translations": {}
  },
  {
    "id": 43957,
    "name": "Mauron",
    "state_id": 5024,
    "state_code": "56",
    "country_id": 75,
    "country_code": "FR",
    "latitude": "48.08257000",
    "longitude": "-2.28477000",
    "native": null,
    "timezone": "Europe/Paris",
    "translations": {}
  },
  {
    "id": 43997,
    "name": "Melrand",
    "state_id": 5024,
    "state_code": "56",
    "country_id": 75,
    "country_code": "FR",
    "latitude": "47.98002000",
    "longitude": "-3.10941000",
    "native": null,
    "timezone": "Europe/Paris",
    "translations": {}
  },
  {
    "id": 44466,
    "name": "Ménéac",
    "state_id": 5024,
    "state_code": "56",
    "country_id": 75,
    "country_code": "FR",
    "latitude": "48.13972000",
    "longitude": "-2.46134000",
    "native": null,
    "timezone": "Europe/Paris",
    "translations": {}
  },
  {
    "id": 44016,
    "name": "Merlevenez",
    "state_id": 5024,
    "state_code": "56",
    "country_id": 75,
    "country_code": "FR",
    "latitude": "47.73563000",
    "longitude": "-3.23047000",
    "native": null,
    "timezone": "Europe/Paris",
    "translations": {}
  },
  {
    "id": 44028,
    "name": "Meslan",
    "state_id": 5024,
    "state_code": "56",
    "country_id": 75,
    "country_code": "FR",
    "latitude": "47.99502000",
    "longitude": "-3.43285000",
    "native": null,
    "timezone": "Europe/Paris",
    "translations": {}
  },
  {
    "id": 44044,
    "name": "Meucon",
    "state_id": 5024,
    "state_code": "56",
    "country_id": 75,
    "country_code": "FR",
    "latitude": "47.71648000",
    "longitude": "-2.76170000",
    "native": null,
    "timezone": "Europe/Paris",
    "translations": {}
  },
  {
    "id": 44121,
    "name": "Molac",
    "state_id": 5024,
    "state_code": "56",
    "country_id": 75,
    "country_code": "FR",
    "latitude": "47.73011000",
    "longitude": "-2.43484000",
    "native": null,
    "timezone": "Europe/Paris",
    "translations": {}
  },
  {
    "id": 44221,
    "name": "Monterblanc",
    "state_id": 5024,
    "state_code": "56",
    "country_id": 75,
    "country_code": "FR",
    "latitude": "47.74211000",
    "longitude": "-2.67950000",
    "native": null,
    "timezone": "Europe/Paris",
    "translations": {}
  },
  {
    "id": 44345,
    "name": "Morbihan",
    "state_id": 5024,
    "state_code": "56",
    "country_id": 75,
    "country_code": "FR",
    "latitude": "47.84765000",
    "longitude": "-2.77760000",
    "native": null,
    "timezone": "Europe/Paris",
    "translations": {}
  },
  {
    "id": 44378,
    "name": "Moréac",
    "state_id": 5024,
    "state_code": "56",
    "country_id": 75,
    "country_code": "FR",
    "latitude": "47.91967000",
    "longitude": "-2.81934000",
    "native": null,
    "timezone": "Europe/Paris",
    "translations": {}
  },
  {
    "id": 44410,
    "name": "Moustoir-Ac",
    "state_id": 5024,
    "state_code": "56",
    "country_id": 75,
    "country_code": "FR",
    "latitude": "47.85461000",
    "longitude": "-2.83481000",
    "native": null,
    "timezone": "Europe/Paris",
    "translations": {}
  },
  {
    "id": 44450,
    "name": "Muzillac",
    "state_id": 5024,
    "state_code": "56",
    "country_id": 75,
    "country_code": "FR",
    "latitude": "47.55451000",
    "longitude": "-2.48041000",
    "native": null,
    "timezone": "Europe/Paris",
    "translations": {}
  },
  {
    "id": 44498,
    "name": "Naizin",
    "state_id": 5024,
    "state_code": "56",
    "country_id": 75,
    "country_code": "FR",
    "latitude": "47.98993000",
    "longitude": "-2.83287000",
    "native": null,
    "timezone": "Europe/Paris",
    "translations": {}
  },
  {
    "id": 44556,
    "name": "Neulliac",
    "state_id": 5024,
    "state_code": "56",
    "country_id": 75,
    "country_code": "FR",
    "latitude": "48.12836000",
    "longitude": "-2.98289000",
    "native": null,
    "timezone": "Europe/Paris",
    "translations": {}
  },
  {
    "id": 44603,
    "name": "Nivillac",
    "state_id": 5024,
    "state_code": "56",
    "country_id": 75,
    "country_code": "FR",
    "latitude": "47.53371000",
    "longitude": "-2.28298000",
    "native": null,
    "timezone": "Europe/Paris",
    "translations": {}
  },
  {
    "id": 44647,
    "name": "Nostang",
    "state_id": 5024,
    "state_code": "56",
    "country_id": 75,
    "country_code": "FR",
    "latitude": "47.74870000",
    "longitude": "-3.18639000",
    "native": null,
    "timezone": "Europe/Paris",
    "translations": {}
  },
  {
    "id": 44669,
    "name": "Noyal-Muzillac",
    "state_id": 5024,
    "state_code": "56",
    "country_id": 75,
    "country_code": "FR",
    "latitude": "47.59169000",
    "longitude": "-2.45557000",
    "native": null,
    "timezone": "Europe/Paris",
    "translations": {}
  },
  {
    "id": 44670,
    "name": "Noyal-Pontivy",
    "state_id": 5024,
    "state_code": "56",
    "country_id": 75,
    "country_code": "FR",
    "latitude": "48.06667000",
    "longitude": "-2.88333000",
    "native": null,
    "timezone": "Europe/Paris",
    "translations": {}
  },
  {
    "id": 45342,
    "name": "Péaule",
    "state_id": 5024,
    "state_code": "56",
    "country_id": 75,
    "country_code": "FR",
    "latitude": "47.57972000",
    "longitude": "-2.35601000",
    "native": null,
    "timezone": "Europe/Paris",
    "translations": {}
  },
  {
    "id": 44881,
    "name": "Peillac",
    "state_id": 5024,
    "state_code": "56",
    "country_id": 75,
    "country_code": "FR",
    "latitude": "47.71391000",
    "longitude": "-2.21971000",
    "native": null,
    "timezone": "Europe/Paris",
    "translations": {}
  },
  {
    "id": 45348,
    "name": "Pénestin",
    "state_id": 5024,
    "state_code": "56",
    "country_id": 75,
    "country_code": "FR",
    "latitude": "47.48226000",
    "longitude": "-2.47275000",
    "native": null,
    "timezone": "Europe/Paris",
    "translations": {}
  },
  {
    "id": 45003,
    "name": "Plaudren",
    "state_id": 5024,
    "state_code": "56",
    "country_id": 75,
    "country_code": "FR",
    "latitude": "47.77868000",
    "longitude": "-2.69331000",
    "native": null,
    "timezone": "Europe/Paris",
    "translations": {}
  },
  {
    "id": 45008,
    "name": "Plescop",
    "state_id": 5024,
    "state_code": "56",
    "country_id": 75,
    "country_code": "FR",
    "latitude": "47.69726000",
    "longitude": "-2.80560000",
    "native": null,
    "timezone": "Europe/Paris",
    "translations": {}
  },
  {
    "id": 45015,
    "name": "Pleucadeuc",
    "state_id": 5024,
    "state_code": "56",
    "country_id": 75,
    "country_code": "FR",
    "latitude": "47.75876000",
    "longitude": "-2.37362000",
    "native": null,
    "timezone": "Europe/Paris",
    "translations": {}
  },
  {
    "id": 45018,
    "name": "Pleugriffet",
    "state_id": 5024,
    "state_code": "56",
    "country_id": 75,
    "country_code": "FR",
    "latitude": "47.98594000",
    "longitude": "-2.68454000",
    "native": null,
    "timezone": "Europe/Paris",
    "translations": {}
  },
  {
    "id": 45030,
    "name": "Ploemel",
    "state_id": 5024,
    "state_code": "56",
    "country_id": 75,
    "country_code": "FR",
    "latitude": "47.65153000",
    "longitude": "-3.07030000",
    "native": null,
    "timezone": "Europe/Paris",
    "translations": {}
  },
  {
    "id": 45031,
    "name": "Ploemeur",
    "state_id": 5024,
    "state_code": "56",
    "country_id": 75,
    "country_code": "FR",
    "latitude": "47.73333000",
    "longitude": "-3.43333000",
    "native": null,
    "timezone": "Europe/Paris",
    "translations": {}
  },
  {
    "id": 45100,
    "name": "Ploërdut",
    "state_id": 5024,
    "state_code": "56",
    "country_id": 75,
    "country_code": "FR",
    "latitude": "48.08742000",
    "longitude": "-3.28550000",
    "native": null,
    "timezone": "Europe/Paris",
    "translations": {}
  },
  {
    "id": 45032,
    "name": "Ploeren",
    "state_id": 5024,
    "state_code": "56",
    "country_id": 75,
    "country_code": "FR",
    "latitude": "47.65713000",
    "longitude": "-2.86397000",
    "native": null,
    "timezone": "Europe/Paris",
    "translations": {}
  },
  {
    "id": 45101,
    "name": "Ploërmel",
    "state_id": 5024,
    "state_code": "56",
    "country_id": 75,
    "country_code": "FR",
    "latitude": "47.93172000",
    "longitude": "-2.39781000",
    "native": null,
    "timezone": "Europe/Paris",
    "translations": {}
  },
  {
    "id": 45049,
    "name": "Plouay",
    "state_id": 5024,
    "state_code": "56",
    "country_id": 75,
    "country_code": "FR",
    "latitude": "47.91444000",
    "longitude": "-3.33384000",
    "native": null,
    "timezone": "Europe/Paris",
    "translations": {}
  },
  {
    "id": 45063,
    "name": "Plougoumelen",
    "state_id": 5024,
    "state_code": "56",
    "country_id": 75,
    "country_code": "FR",
    "latitude": "47.65070000",
    "longitude": "-2.91716000",
    "native": null,
    "timezone": "Europe/Paris",
    "translations": {}
  },
  {
    "id": 45072,
    "name": "Plouharnel",
    "state_id": 5024,
    "state_code": "56",
    "country_id": 75,
    "country_code": "FR",
    "latitude": "47.59804000",
    "longitude": "-3.11274000",
    "native": null,
    "timezone": "Europe/Paris",
    "translations": {}
  },
  {
    "id": 45087,
    "name": "Plouray",
    "state_id": 5024,
    "state_code": "56",
    "country_id": 75,
    "country_code": "FR",
    "latitude": "48.14580000",
    "longitude": "-3.38671000",
    "native": null,
    "timezone": "Europe/Paris",
    "translations": {}
  },
  {
    "id": 45105,
    "name": "Pluherlin",
    "state_id": 5024,
    "state_code": "56",
    "country_id": 75,
    "country_code": "FR",
    "latitude": "47.69632000",
    "longitude": "-2.36349000",
    "native": null,
    "timezone": "Europe/Paris",
    "translations": {}
  },
  {
    "id": 45107,
    "name": "Plumelec",
    "state_id": 5024,
    "state_code": "56",
    "country_id": 75,
    "country_code": "FR",
    "latitude": "47.83754000",
    "longitude": "-2.63987000",
    "native": null,
    "timezone": "Europe/Paris",
    "translations": {}
  },
  {
    "id": 45111,
    "name": "Pluméliau",
    "state_id": 5024,
    "state_code": "56",
    "country_id": 75,
    "country_code": "FR",
    "latitude": "47.95769000",
    "longitude": "-2.97494000",
    "native": null,
    "timezone": "Europe/Paris",
    "translations": {}
  },
  {
    "id": 161940,
    "name": "Pluméliau-Bieuzy",
    "state_id": 5024,
    "state_code": "56",
    "country_id": 75,
    "country_code": "FR",
    "latitude": "47.97260000",
    "longitude": "-2.98960000",
    "native": null,
    "timezone": "Europe/Paris",
    "translations": {}
  },
  {
    "id": 45108,
    "name": "Plumelin",
    "state_id": 5024,
    "state_code": "56",
    "country_id": 75,
    "country_code": "FR",
    "latitude": "47.86036000",
    "longitude": "-2.88754000",
    "native": null,
    "timezone": "Europe/Paris",
    "translations": {}
  },
  {
    "id": 45109,
    "name": "Plumergat",
    "state_id": 5024,
    "state_code": "56",
    "country_id": 75,
    "country_code": "FR",
    "latitude": "47.74134000",
    "longitude": "-2.91501000",
    "native": null,
    "timezone": "Europe/Paris",
    "translations": {}
  },
  {
    "id": 45112,
    "name": "Pluneret",
    "state_id": 5024,
    "state_code": "56",
    "country_id": 75,
    "country_code": "FR",
    "latitude": "47.67525000",
    "longitude": "-2.95782000",
    "native": null,
    "timezone": "Europe/Paris",
    "translations": {}
  },
  {
    "id": 45114,
    "name": "Pluvigner",
    "state_id": 5024,
    "state_code": "56",
    "country_id": 75,
    "country_code": "FR",
    "latitude": "47.77627000",
    "longitude": "-3.01013000",
    "native": null,
    "timezone": "Europe/Paris",
    "translations": {}
  },
  {
    "id": 45176,
    "name": "Pont-Scorff",
    "state_id": 5024,
    "state_code": "56",
    "country_id": 75,
    "country_code": "FR",
    "latitude": "47.83343000",
    "longitude": "-3.40251000",
    "native": null,
    "timezone": "Europe/Paris",
    "translations": {}
  },
  {
    "id": 45211,
    "name": "Pontivy",
    "state_id": 5024,
    "state_code": "56",
    "country_id": 75,
    "country_code": "FR",
    "latitude": "48.06862000",
    "longitude": "-2.96280000",
    "native": null,
    "timezone": "Europe/Paris",
    "translations": {}
  },
  {
    "id": 45228,
    "name": "Port-Louis",
    "state_id": 5024,
    "state_code": "56",
    "country_id": 75,
    "country_code": "FR",
    "latitude": "47.70704000",
    "longitude": "-3.35484000",
    "native": null,
    "timezone": "Europe/Paris",
    "translations": {}
  },
  {
    "id": 45293,
    "name": "Priziac",
    "state_id": 5024,
    "state_code": "56",
    "country_id": 75,
    "country_code": "FR",
    "latitude": "48.06667000",
    "longitude": "-3.41667000",
    "native": null,
    "timezone": "Europe/Paris",
    "translations": {}
  },
  {
    "id": 45379,
    "name": "Questembert",
    "state_id": 5024,
    "state_code": "56",
    "country_id": 75,
    "country_code": "FR",
    "latitude": "47.66296000",
    "longitude": "-2.45220000",
    "native": null,
    "timezone": "Europe/Paris",
    "translations": {}
  },
  {
    "id": 45409,
    "name": "Quéven",
    "state_id": 5024,
    "state_code": "56",
    "country_id": 75,
    "country_code": "FR",
    "latitude": "47.78333000",
    "longitude": "-3.41667000",
    "native": null,
    "timezone": "Europe/Paris",
    "translations": {}
  },
  {
    "id": 45384,
    "name": "Quiberon",
    "state_id": 5024,
    "state_code": "56",
    "country_id": 75,
    "country_code": "FR",
    "latitude": "47.48412000",
    "longitude": "-3.11963000",
    "native": null,
    "timezone": "Europe/Paris",
    "translations": {}
  },
  {
    "id": 45403,
    "name": "Quistinic",
    "state_id": 5024,
    "state_code": "56",
    "country_id": 75,
    "country_code": "FR",
    "latitude": "47.90410000",
    "longitude": "-3.13400000",
    "native": null,
    "timezone": "Europe/Paris",
    "translations": {}
  },
  {
    "id": 45688,
    "name": "Réguiny",
    "state_id": 5024,
    "state_code": "56",
    "country_id": 75,
    "country_code": "FR",
    "latitude": "47.97649000",
    "longitude": "-2.74478000",
    "native": null,
    "timezone": "Europe/Paris",
    "translations": {}
  },
  {
    "id": 45488,
    "name": "Riantec",
    "state_id": 5024,
    "state_code": "56",
    "country_id": 75,
    "country_code": "FR",
    "latitude": "47.71093000",
    "longitude": "-3.31629000",
    "native": null,
    "timezone": "Europe/Paris",
    "translations": {}
  },
  {
    "id": 45561,
    "name": "Rohan",
    "state_id": 5024,
    "state_code": "56",
    "country_id": 75,
    "country_code": "FR",
    "latitude": "48.06833000",
    "longitude": "-2.75120000",
    "native": null,
    "timezone": "Europe/Paris",
    "translations": {}
  },
  {
    "id": 45665,
    "name": "Ruffiac",
    "state_id": 5024,
    "state_code": "56",
    "country_id": 75,
    "country_code": "FR",
    "latitude": "47.81866000",
    "longitude": "-2.28238000",
    "native": null,
    "timezone": "Europe/Paris",
    "translations": {}
  },
  {
    "id": 45799,
    "name": "Saint-Avé",
    "state_id": 5024,
    "state_code": "56",
    "country_id": 75,
    "country_code": "FR",
    "latitude": "47.69085000",
    "longitude": "-2.74648000",
    "native": null,
    "timezone": "Europe/Paris",
    "translations": {}
  },
  {
    "id": 45914,
    "name": "Saint-Dolay",
    "state_id": 5024,
    "state_code": "56",
    "country_id": 75,
    "country_code": "FR",
    "latitude": "47.54476000",
    "longitude": "-2.15466000",
    "native": null,
    "timezone": "Europe/Paris",
    "translations": {}
  },
  {
    "id": 46032,
    "name": "Saint-Gildas-de-Rhuys",
    "state_id": 5024,
    "state_code": "56",
    "country_id": 75,
    "country_code": "FR",
    "latitude": "47.50060000",
    "longitude": "-2.83825000",
    "native": null,
    "timezone": "Europe/Paris",
    "translations": {}
  },
  {
    "id": 46040,
    "name": "Saint-Gonnery",
    "state_id": 5024,
    "state_code": "56",
    "country_id": 75,
    "country_code": "FR",
    "latitude": "48.12465000",
    "longitude": "-2.81848000",
    "native": null,
    "timezone": "Europe/Paris",
    "translations": {}
  },
  {
    "id": 46077,
    "name": "Saint-Jacut-les-Pins",
    "state_id": 5024,
    "state_code": "56",
    "country_id": 75,
    "country_code": "FR",
    "latitude": "47.68581000",
    "longitude": "-2.21514000",
    "native": null,
    "timezone": "Europe/Paris",
    "translations": {}
  },
  {
    "id": 46084,
    "name": "Saint-Jean-Brévelay",
    "state_id": 5024,
    "state_code": "56",
    "country_id": 75,
    "country_code": "FR",
    "latitude": "47.84497000",
    "longitude": "-2.72231000",
    "native": null,
    "timezone": "Europe/Paris",
    "translations": {}
  },
  {
    "id": 46115,
    "name": "Saint-Jean-la-Poterie",
    "state_id": 5024,
    "state_code": "56",
    "country_id": 75,
    "country_code": "FR",
    "latitude": "47.63581000",
    "longitude": "-2.12420000",
    "native": null,
    "timezone": "Europe/Paris",
    "translations": {}
  },
  {
    "id": 46304,
    "name": "Saint-Martin-sur-Oust",
    "state_id": 5024,
    "state_code": "56",
    "country_id": 75,
    "country_code": "FR",
    "latitude": "47.74600000",
    "longitude": "-2.25343000",
    "native": null,
    "timezone": "Europe/Paris",
    "translations": {}
  },
  {
    "id": 46371,
    "name": "Saint-Nolff",
    "state_id": 5024,
    "state_code": "56",
    "country_id": 75,
    "country_code": "FR",
    "latitude": "47.70365000",
    "longitude": "-2.65209000",
    "native": null,
    "timezone": "Europe/Paris",
    "translations": {}
  },
  {
    "id": 46422,
    "name": "Saint-Perreux",
    "state_id": 5024,
    "state_code": "56",
    "country_id": 75,
    "country_code": "FR",
    "latitude": "47.66952000",
    "longitude": "-2.10809000",
    "native": null,
    "timezone": "Europe/Paris",
    "translations": {}
  },
  {
    "id": 46426,
    "name": "Saint-Philibert",
    "state_id": 5024,
    "state_code": "56",
    "country_id": 75,
    "country_code": "FR",
    "latitude": "47.58821000",
    "longitude": "-2.99978000",
    "native": null,
    "timezone": "Europe/Paris",
    "translations": {}
  },
  {
    "id": 46430,
    "name": "Saint-Pierre-Quiberon",
    "state_id": 5024,
    "state_code": "56",
    "country_id": 75,
    "country_code": "FR",
    "latitude": "47.52061000",
    "longitude": "-3.13084000",
    "native": null,
    "timezone": "Europe/Paris",
    "translations": {}
  },
  {
    "id": 46583,
    "name": "Saint-Thuriau",
    "state_id": 5024,
    "state_code": "56",
    "country_id": 75,
    "country_code": "FR",
    "latitude": "48.01667000",
    "longitude": "-2.95000000",
    "native": null,
    "timezone": "Europe/Paris",
    "translations": {}
  },
  {
    "id": 46618,
    "name": "Saint-Vincent-sur-Oust",
    "state_id": 5024,
    "state_code": "56",
    "country_id": 75,
    "country_code": "FR",
    "latitude": "47.70010000",
    "longitude": "-2.14657000",
    "native": null,
    "timezone": "Europe/Paris",
    "translations": {}
  },
  {
    "id": 46664,
    "name": "Sainte-Anne-d'Auray",
    "state_id": 5024,
    "state_code": "56",
    "country_id": 75,
    "country_code": "FR",
    "latitude": "47.70000000",
    "longitude": "-2.95000000",
    "native": null,
    "timezone": "Europe/Paris",
    "translations": {}
  },
  {
    "id": 46824,
    "name": "Sarzeau",
    "state_id": 5024,
    "state_code": "56",
    "country_id": 75,
    "country_code": "FR",
    "latitude": "47.52772000",
    "longitude": "-2.76933000",
    "native": null,
    "timezone": "Europe/Paris",
    "translations": {}
  },
  {
    "id": 47140,
    "name": "Séné",
    "state_id": 5024,
    "state_code": "56",
    "country_id": 75,
    "country_code": "FR",
    "latitude": "47.61900000",
    "longitude": "-2.73700000",
    "native": null,
    "timezone": "Europe/Paris",
    "translations": {}
  },
  {
    "id": 47142,
    "name": "Sérent",
    "state_id": 5024,
    "state_code": "56",
    "country_id": 75,
    "country_code": "FR",
    "latitude": "47.82333000",
    "longitude": "-2.50571000",
    "native": null,
    "timezone": "Europe/Paris",
    "translations": {}
  },
  {
    "id": 47115,
    "name": "Sulniac",
    "state_id": 5024,
    "state_code": "56",
    "country_id": 75,
    "country_code": "FR",
    "latitude": "47.67375000",
    "longitude": "-2.57136000",
    "native": null,
    "timezone": "Europe/Paris",
    "translations": {}
  },
  {
    "id": 47125,
    "name": "Surzur",
    "state_id": 5024,
    "state_code": "56",
    "country_id": 75,
    "country_code": "FR",
    "latitude": "47.57850000",
    "longitude": "-2.62892000",
    "native": null,
    "timezone": "Europe/Paris",
    "translations": {}
  },
  {
    "id": 47187,
    "name": "Taupont",
    "state_id": 5024,
    "state_code": "56",
    "country_id": 75,
    "country_code": "FR",
    "latitude": "47.95961000",
    "longitude": "-2.43933000",
    "native": null,
    "timezone": "Europe/Paris",
    "translations": {}
  },
  {
    "id": 47221,
    "name": "Theix",
    "state_id": 5024,
    "state_code": "56",
    "country_id": 75,
    "country_code": "FR",
    "latitude": "47.62916000",
    "longitude": "-2.65186000",
    "native": null,
    "timezone": "Europe/Paris",
    "translations": {}
  },
  {
    "id": 162040,
    "name": "Theix-Noyalo",
    "state_id": 5024,
    "state_code": "56",
    "country_id": 75,
    "country_code": "FR",
    "latitude": "47.63040000",
    "longitude": "-2.64720000",
    "native": null,
    "timezone": "Europe/Paris",
    "translations": {}
  },
  {
    "id": 47352,
    "name": "Treffléan",
    "state_id": 5024,
    "state_code": "56",
    "country_id": 75,
    "country_code": "FR",
    "latitude": "47.68163000",
    "longitude": "-2.61287000",
    "native": null,
    "timezone": "Europe/Paris",
    "translations": {}
  },
  {
    "id": 162058,
    "name": "Val d'Oust",
    "state_id": 5024,
    "state_code": "56",
    "country_id": 75,
    "country_code": "FR",
    "latitude": "47.86940000",
    "longitude": "-2.42500000",
    "native": null,
    "timezone": "Europe/Paris",
    "translations": {}
  },
  {
    "id": 47504,
    "name": "Vannes",
    "state_id": 5024,
    "state_code": "56",
    "country_id": 75,
    "country_code": "FR",
    "latitude": "47.65790000",
    "longitude": "-2.75574000",
    "native": null,
    "timezone": "Europe/Paris",
    "translations": {}
  }
]