[
  {
    "id": 39316,
    "name": "Alixan",
    "state_id": 4992,
    "state_code": "26",
    "country_id": 75,
    "country_code": "FR",
    "latitude": "44.97426000",
    "longitude": "5.02850000",
    "native": null,
    "timezone": "Europe/Paris",
    "translations": {}
  },
  {
    "id": 39319,
    "name": "Allan",
    "state_id": 4992,
    "state_code": "26",
    "country_id": 75,
    "country_code": "FR",
    "latitude": "44.49713000",
    "longitude": "4.79068000",
    "native": null,
    "timezone": "Europe/Paris",
    "translations": {}
  },
  {
    "id": 39326,
    "name": "Allex",
    "state_id": 4992,
    "state_code": "26",
    "country_id": 75,
    "country_code": "FR",
    "latitude": "44.76765000",
    "longitude": "4.89837000",
    "native": null,
    "timezone": "Europe/Paris",
    "translations": {}
  },
  {
    "id": 39375,
    "name": "Ancône",
    "state_id": 4992,
    "state_code": "26",
    "country_id": 75,
    "country_code": "FR",
    "latitude": "44.58107000",
    "longitude": "4.72711000",
    "native": null,
    "timezone": "Europe/Paris",
    "translations": {}
  },
  {
    "id": 39377,
    "name": "Andancette",
    "state_id": 4992,
    "state_code": "26",
    "country_id": 75,
    "country_code": "FR",
    "latitude": "45.24858000",
    "longitude": "4.80860000",
    "native": null,
    "timezone": "Europe/Paris",
    "translations": {}
  },
  {
    "id": 39420,
    "name": "Anneyron",
    "state_id": 4992,
    "state_code": "26",
    "country_id": 75,
    "country_code": "FR",
    "latitude": "45.27220000",
    "longitude": "4.88626000",
    "native": null,
    "timezone": "Europe/Paris",
    "translations": {}
  },
  {
    "id": 39441,
    "name": "Aouste-sur-Sye",
    "state_id": 4992,
    "state_code": "26",
    "country_id": 75,
    "country_code": "FR",
    "latitude": "44.71813000",
    "longitude": "5.05422000",
    "native": null,
    "timezone": "Europe/Paris",
    "translations": {}
  },
  {
    "id": 39870,
    "name": "Beaumont-lès-Valence",
    "state_id": 4992,
    "state_code": "26",
    "country_id": 75,
    "country_code": "FR",
    "latitude": "44.86203000",
    "longitude": "4.94309000",
    "native": null,
    "timezone": "Europe/Paris",
    "translations": {}
  },
  {
    "id": 39862,
    "name": "Beaumont-Monteux",
    "state_id": 4992,
    "state_code": "26",
    "country_id": 75,
    "country_code": "FR",
    "latitude": "45.01980000",
    "longitude": "4.91883000",
    "native": null,
    "timezone": "Europe/Paris",
    "translations": {}
  },
  {
    "id": 39885,
    "name": "Beausemblant",
    "state_id": 4992,
    "state_code": "26",
    "country_id": 75,
    "country_code": "FR",
    "latitude": "45.21706000",
    "longitude": "4.83241000",
    "native": null,
    "timezone": "Europe/Paris",
    "translations": {}
  },
  {
    "id": 39891,
    "name": "Beauvallon",
    "state_id": 4992,
    "state_code": "26",
    "country_id": 75,
    "country_code": "FR",
    "latitude": "44.85593000",
    "longitude": "4.90756000",
    "native": null,
    "timezone": "Europe/Paris",
    "translations": {}
  },
  {
    "id": 40191,
    "name": "Bourg-de-Péage",
    "state_id": 4992,
    "state_code": "26",
    "country_id": 75,
    "country_code": "FR",
    "latitude": "45.03151000",
    "longitude": "5.04993000",
    "native": null,
    "timezone": "Europe/Paris",
    "translations": {}
  },
  {
    "id": 40196,
    "name": "Bourg-lès-Valence",
    "state_id": 4992,
    "state_code": "26",
    "country_id": 75,
    "country_code": "FR",
    "latitude": "44.94703000",
    "longitude": "4.89463000",
    "native": null,
    "timezone": "Europe/Paris",
    "translations": {}
  },
  {
    "id": 40379,
    "name": "Buis-les-Baronnies",
    "state_id": 4992,
    "state_code": "26",
    "country_id": 75,
    "country_code": "FR",
    "latitude": "44.27647000",
    "longitude": "5.27187000",
    "native": null,
    "timezone": "Europe/Paris",
    "translations": {}
  },
  {
    "id": 40669,
    "name": "Chabeuil",
    "state_id": 4992,
    "state_code": "26",
    "country_id": 75,
    "country_code": "FR",
    "latitude": "44.89843000",
    "longitude": "5.01438000",
    "native": null,
    "timezone": "Europe/Paris",
    "translations": {}
  },
  {
    "id": 40766,
    "name": "Chanos-Curson",
    "state_id": 4992,
    "state_code": "26",
    "country_id": 75,
    "country_code": "FR",
    "latitude": "45.06057000",
    "longitude": "4.92381000",
    "native": null,
    "timezone": "Europe/Paris",
    "translations": {}
  },
  {
    "id": 40962,
    "name": "Châteauneuf-de-Galaure",
    "state_id": 4992,
    "state_code": "26",
    "country_id": 75,
    "country_code": "FR",
    "latitude": "45.22977000",
    "longitude": "4.95777000",
    "native": null,
    "timezone": "Europe/Paris",
    "translations": {}
  },
  {
    "id": 40965,
    "name": "Châteauneuf-du-Rhône",
    "state_id": 4992,
    "state_code": "26",
    "country_id": 75,
    "country_code": "FR",
    "latitude": "44.48906000",
    "longitude": "4.71706000",
    "native": null,
    "timezone": "Europe/Paris",
    "translations": {}
  },
  {
    "id": 40973,
    "name": "Châteauneuf-sur-Isère",
    "state_id": 4992,
    "state_code": "26",
    "country_id": 75,
    "country_code": "FR",
    "latitude": "45.01667000",
    "longitude": "4.93333000",
    "native": null,
    "timezone": "Europe/Paris",
    "translations": {}
  },
  {
    "id": 40833,
    "name": "Chatuzange-le-Goubet",
    "state_id": 4992,
    "state_code": "26",
    "country_id": 75,
    "country_code": "FR",
    "latitude": "45.00359000",
    "longitude": "5.09079000",
    "native": null,
    "timezone": "Europe/Paris",
    "translations": {}
  },
  {
    "id": 41073,
    "name": "Clérieux",
    "state_id": 4992,
    "state_code": "26",
    "country_id": 75,
    "country_code": "FR",
    "latitude": "45.07591000",
    "longitude": "4.95983000",
    "native": null,
    "timezone": "Europe/Paris",
    "translations": {}
  },
  {
    "id": 41309,
    "name": "Crest",
    "state_id": 4992,
    "state_code": "26",
    "country_id": 75,
    "country_code": "FR",
    "latitude": "44.72639000",
    "longitude": "5.01517000",
    "native": null,
    "timezone": "Europe/Paris",
    "translations": {}
  },
  {
    "id": 41627,
    "name": "Département de la Drôme",
    "state_id": 4992,
    "state_code": "26",
    "country_id": 75,
    "country_code": "FR",
    "latitude": "44.69971000",
    "longitude": "5.16521000",
    "native": null,
    "timezone": "Europe/Paris",
    "translations": {}
  },
  {
    "id": 41466,
    "name": "Die",
    "state_id": 4992,
    "state_code": "26",
    "country_id": 75,
    "country_code": "FR",
    "latitude": "44.75360000",
    "longitude": "5.37033000",
    "native": null,
    "timezone": "Europe/Paris",
    "translations": {}
  },
  {
    "id": 41473,
    "name": "Dieulefit",
    "state_id": 4992,
    "state_code": "26",
    "country_id": 75,
    "country_code": "FR",
    "latitude": "44.52563000",
    "longitude": "5.06180000",
    "native": null,
    "timezone": "Europe/Paris",
    "translations": {}
  },
  {
    "id": 41537,
    "name": "Donzère",
    "state_id": 4992,
    "state_code": "26",
    "country_id": 75,
    "country_code": "FR",
    "latitude": "44.44246000",
    "longitude": "4.71134000",
    "native": null,
    "timezone": "Europe/Paris",
    "translations": {}
  },
  {
    "id": 48082,
    "name": "Épinouze",
    "state_id": 4992,
    "state_code": "26",
    "country_id": 75,
    "country_code": "FR",
    "latitude": "45.31003000",
    "longitude": "4.92936000",
    "native": null,
    "timezone": "Europe/Paris",
    "translations": {}
  },
  {
    "id": 48106,
    "name": "Étoile-sur-Rhône",
    "state_id": 4992,
    "state_code": "26",
    "country_id": 75,
    "country_code": "FR",
    "latitude": "44.83883000",
    "longitude": "4.89050000",
    "native": null,
    "timezone": "Europe/Paris",
    "translations": {}
  },
  {
    "id": 41744,
    "name": "Eurre",
    "state_id": 4992,
    "state_code": "26",
    "country_id": 75,
    "country_code": "FR",
    "latitude": "44.75825000",
    "longitude": "4.98843000",
    "native": null,
    "timezone": "Europe/Paris",
    "translations": {}
  },
  {
    "id": 42297,
    "name": "Génissieux",
    "state_id": 4992,
    "state_code": "26",
    "country_id": 75,
    "country_code": "FR",
    "latitude": "45.08413000",
    "longitude": "5.08133000",
    "native": null,
    "timezone": "Europe/Paris",
    "translations": {}
  },
  {
    "id": 42182,
    "name": "Grane",
    "state_id": 4992,
    "state_code": "26",
    "country_id": 75,
    "country_code": "FR",
    "latitude": "44.73255000",
    "longitude": "4.92203000",
    "native": null,
    "timezone": "Europe/Paris",
    "translations": {}
  },
  {
    "id": 42208,
    "name": "Grignan",
    "state_id": 4992,
    "state_code": "26",
    "country_id": 75,
    "country_code": "FR",
    "latitude": "44.41967000",
    "longitude": "4.90785000",
    "native": null,
    "timezone": "Europe/Paris",
    "translations": {}
  },
  {
    "id": 42350,
    "name": "Hauterives",
    "state_id": 4992,
    "state_code": "26",
    "country_id": 75,
    "country_code": "FR",
    "latitude": "45.25565000",
    "longitude": "5.01904000",
    "native": null,
    "timezone": "Europe/Paris",
    "translations": {}
  },
  {
    "id": 42661,
    "name": "La Bégude-de-Mazenc",
    "state_id": 4992,
    "state_code": "26",
    "country_id": 75,
    "country_code": "FR",
    "latitude": "44.54298000",
    "longitude": "4.93403000",
    "native": null,
    "timezone": "Europe/Paris",
    "translations": {}
  },
  {
    "id": 42762,
    "name": "La Garde-Adhémar",
    "state_id": 4992,
    "state_code": "26",
    "country_id": 75,
    "country_code": "FR",
    "latitude": "44.39699000",
    "longitude": "4.75759000",
    "native": null,
    "timezone": "Europe/Paris",
    "translations": {}
  },
  {
    "id": 42856,
    "name": "La Roche-de-Glun",
    "state_id": 4992,
    "state_code": "26",
    "country_id": 75,
    "country_code": "FR",
    "latitude": "45.01336000",
    "longitude": "4.84488000",
    "native": null,
    "timezone": "Europe/Paris",
    "translations": {}
  },
  {
    "id": 43519,
    "name": "Livron-sur-Drôme",
    "state_id": 4992,
    "state_code": "26",
    "country_id": 75,
    "country_code": "FR",
    "latitude": "44.77689000",
    "longitude": "4.84180000",
    "native": null,
    "timezone": "Europe/Paris",
    "translations": {}
  },
  {
    "id": 43589,
    "name": "Loriol-sur-Drôme",
    "state_id": 4992,
    "state_code": "26",
    "country_id": 75,
    "country_code": "FR",
    "latitude": "44.74703000",
    "longitude": "4.81719000",
    "native": null,
    "timezone": "Europe/Paris",
    "translations": {}
  },
  {
    "id": 43750,
    "name": "Malataverne",
    "state_id": 4992,
    "state_code": "26",
    "country_id": 75,
    "country_code": "FR",
    "latitude": "44.48525000",
    "longitude": "4.75326000",
    "native": null,
    "timezone": "Europe/Paris",
    "translations": {}
  },
  {
    "id": 43762,
    "name": "Malissard",
    "state_id": 4992,
    "state_code": "26",
    "country_id": 75,
    "country_code": "FR",
    "latitude": "44.89969000",
    "longitude": "4.95384000",
    "native": null,
    "timezone": "Europe/Paris",
    "translations": {}
  },
  {
    "id": 43880,
    "name": "Marsanne",
    "state_id": 4992,
    "state_code": "26",
    "country_id": 75,
    "country_code": "FR",
    "latitude": "44.64204000",
    "longitude": "4.87529000",
    "native": null,
    "timezone": "Europe/Paris",
    "translations": {}
  },
  {
    "id": 44011,
    "name": "Mercurol-Veaunes",
    "state_id": 4992,
    "state_code": "26",
    "country_id": 75,
    "country_code": "FR",
    "latitude": "45.07437000",
    "longitude": "4.89279000",
    "native": null,
    "timezone": "Europe/Paris",
    "translations": {}
  },
  {
    "id": 44086,
    "name": "Mirabel-aux-Baronnies",
    "state_id": 4992,
    "state_code": "26",
    "country_id": 75,
    "country_code": "FR",
    "latitude": "44.31002000",
    "longitude": "5.09962000",
    "native": null,
    "timezone": "Europe/Paris",
    "translations": {}
  },
  {
    "id": 44200,
    "name": "Montboucher-sur-Jabron",
    "state_id": 4992,
    "state_code": "26",
    "country_id": 75,
    "country_code": "FR",
    "latitude": "44.55050000",
    "longitude": "4.80200000",
    "native": null,
    "timezone": "Europe/Paris",
    "translations": {}
  },
  {
    "id": 44334,
    "name": "Montéléger",
    "state_id": 4992,
    "state_code": "26",
    "country_id": 75,
    "country_code": "FR",
    "latitude": "44.85296000",
    "longitude": "4.93598000",
    "native": null,
    "timezone": "Europe/Paris",
    "translations": {}
  },
  {
    "id": 44332,
    "name": "Montélier",
    "state_id": 4992,
    "state_code": "26",
    "country_id": 75,
    "country_code": "FR",
    "latitude": "44.93441000",
    "longitude": "5.03126000",
    "native": null,
    "timezone": "Europe/Paris",
    "translations": {}
  },
  {
    "id": 44333,
    "name": "Montélimar",
    "state_id": 4992,
    "state_code": "26",
    "country_id": 75,
    "country_code": "FR",
    "latitude": "44.55468000",
    "longitude": "4.75469000",
    "native": null,
    "timezone": "Europe/Paris",
    "translations": {}
  },
  {
    "id": 44284,
    "name": "Montmeyran",
    "state_id": 4992,
    "state_code": "26",
    "country_id": 75,
    "country_code": "FR",
    "latitude": "44.83389000",
    "longitude": "4.97181000",
    "native": null,
    "timezone": "Europe/Paris",
    "translations": {}
  },
  {
    "id": 44295,
    "name": "Montoison",
    "state_id": 4992,
    "state_code": "26",
    "country_id": 75,
    "country_code": "FR",
    "latitude": "44.79608000",
    "longitude": "4.94118000",
    "native": null,
    "timezone": "Europe/Paris",
    "translations": {}
  },
  {
    "id": 44329,
    "name": "Montségur-sur-Lauzon",
    "state_id": 4992,
    "state_code": "26",
    "country_id": 75,
    "country_code": "FR",
    "latitude": "44.36098000",
    "longitude": "4.85468000",
    "native": null,
    "timezone": "Europe/Paris",
    "translations": {}
  },
  {
    "id": 44405,
    "name": "Mours-Saint-Eusèbe",
    "state_id": 4992,
    "state_code": "26",
    "country_id": 75,
    "country_code": "FR",
    "latitude": "45.06513000",
    "longitude": "5.05776000",
    "native": null,
    "timezone": "Europe/Paris",
    "translations": {}
  },
  {
    "id": 44690,
    "name": "Nyons",
    "state_id": 4992,
    "state_code": "26",
    "country_id": 75,
    "country_code": "FR",
    "latitude": "44.36082000",
    "longitude": "5.14052000",
    "native": null,
    "timezone": "Europe/Paris",
    "translations": {}
  },
  {
    "id": 44933,
    "name": "Peyrins",
    "state_id": 4992,
    "state_code": "26",
    "country_id": 75,
    "country_code": "FR",
    "latitude": "45.09331000",
    "longitude": "5.04513000",
    "native": null,
    "timezone": "Europe/Paris",
    "translations": {}
  },
  {
    "id": 44959,
    "name": "Pierrelatte",
    "state_id": 4992,
    "state_code": "26",
    "country_id": 75,
    "country_code": "FR",
    "latitude": "44.37549000",
    "longitude": "4.70314000",
    "native": null,
    "timezone": "Europe/Paris",
    "translations": {}
  },
  {
    "id": 161944,
    "name": "Pont-de-l'Isère",
    "state_id": 4992,
    "state_code": "26",
    "country_id": 75,
    "country_code": "FR",
    "latitude": "45.01710000",
    "longitude": "4.88150000",
    "native": null,
    "timezone": "Europe/Paris",
    "translations": {}
  },
  {
    "id": 45240,
    "name": "Portes-lès-Valence",
    "state_id": 4992,
    "state_code": "26",
    "country_id": 75,
    "country_code": "FR",
    "latitude": "44.87585000",
    "longitude": "4.87415000",
    "native": null,
    "timezone": "Europe/Paris",
    "translations": {}
  },
  {
    "id": 45547,
    "name": "Rochegude",
    "state_id": 4992,
    "state_code": "26",
    "country_id": 75,
    "country_code": "FR",
    "latitude": "44.24414000",
    "longitude": "4.82719000",
    "native": null,
    "timezone": "Europe/Paris",
    "translations": {}
  },
  {
    "id": 45574,
    "name": "Romans-sur-Isère",
    "state_id": 4992,
    "state_code": "26",
    "country_id": 75,
    "country_code": "FR",
    "latitude": "45.04960000",
    "longitude": "5.06602000",
    "native": null,
    "timezone": "Europe/Paris",
    "translations": {}
  },
  {
    "id": 45804,
    "name": "Saint-Barthélemy-de-Vals",
    "state_id": 4992,
    "state_code": "26",
    "country_id": 75,
    "country_code": "FR",
    "latitude": "45.16938000",
    "longitude": "4.87160000",
    "native": null,
    "timezone": "Europe/Paris",
    "translations": {}
  },
  {
    "id": 161983,
    "name": "Saint-Donat-sur-l'Herbasse",
    "state_id": 4992,
    "state_code": "26",
    "country_id": 75,
    "country_code": "FR",
    "latitude": "45.13110000",
    "longitude": "4.98580000",
    "native": null,
    "timezone": "Europe/Paris",
    "translations": {}
  },
  {
    "id": 46114,
    "name": "Saint-Jean-en-Royans",
    "state_id": 4992,
    "state_code": "26",
    "country_id": 75,
    "country_code": "FR",
    "latitude": "45.01968000",
    "longitude": "5.29223000",
    "native": null,
    "timezone": "Europe/Paris",
    "translations": {}
  },
  {
    "id": 46187,
    "name": "Saint-Laurent-en-Royans",
    "state_id": 4992,
    "state_code": "26",
    "country_id": 75,
    "country_code": "FR",
    "latitude": "45.02653000",
    "longitude": "5.32669000",
    "native": null,
    "timezone": "Europe/Paris",
    "translations": {}
  },
  {
    "id": 46247,
    "name": "Saint-Marcel-lès-Sauzet",
    "state_id": 4992,
    "state_code": "26",
    "country_id": 75,
    "country_code": "FR",
    "latitude": "44.59752000",
    "longitude": "4.80541000",
    "native": null,
    "timezone": "Europe/Paris",
    "translations": {}
  },
  {
    "id": 46248,
    "name": "Saint-Marcel-lès-Valence",
    "state_id": 4992,
    "state_code": "26",
    "country_id": 75,
    "country_code": "FR",
    "latitude": "44.97132000",
    "longitude": "4.95316000",
    "native": null,
    "timezone": "Europe/Paris",
    "translations": {}
  },
  {
    "id": 46417,
    "name": "Saint-Paul-lès-Romans",
    "state_id": 4992,
    "state_code": "26",
    "country_id": 75,
    "country_code": "FR",
    "latitude": "45.06725000",
    "longitude": "5.13213000",
    "native": null,
    "timezone": "Europe/Paris",
    "translations": {}
  },
  {
    "id": 46405,
    "name": "Saint-Paul-Trois-Châteaux",
    "state_id": 4992,
    "state_code": "26",
    "country_id": 75,
    "country_code": "FR",
    "latitude": "44.34594000",
    "longitude": "4.76356000",
    "native": null,
    "timezone": "Europe/Paris",
    "translations": {}
  },
  {
    "id": 162016,
    "name": "Saint-Rambert-d'Albon",
    "state_id": 4992,
    "state_code": "26",
    "country_id": 75,
    "country_code": "FR",
    "latitude": "45.28830000",
    "longitude": "4.82990000",
    "native": null,
    "timezone": "Europe/Paris",
    "translations": {}
  },
  {
    "id": 46496,
    "name": "Saint-Restitut",
    "state_id": 4992,
    "state_code": "26",
    "country_id": 75,
    "country_code": "FR",
    "latitude": "44.32446000",
    "longitude": "4.79282000",
    "native": null,
    "timezone": "Europe/Paris",
    "translations": {}
  },
  {
    "id": 46556,
    "name": "Saint-Sorlin-en-Valloire",
    "state_id": 4992,
    "state_code": "26",
    "country_id": 75,
    "country_code": "FR",
    "latitude": "45.28774000",
    "longitude": "4.94903000",
    "native": null,
    "timezone": "Europe/Paris",
    "translations": {}
  },
  {
    "id": 46594,
    "name": "Saint-Uze",
    "state_id": 4992,
    "state_code": "26",
    "country_id": 75,
    "country_code": "FR",
    "latitude": "45.18409000",
    "longitude": "4.86000000",
    "native": null,
    "timezone": "Europe/Paris",
    "translations": {}
  },
  {
    "id": 46598,
    "name": "Saint-Vallier",
    "state_id": 4992,
    "state_code": "26",
    "country_id": 75,
    "country_code": "FR",
    "latitude": "45.17154000",
    "longitude": "4.81758000",
    "native": null,
    "timezone": "Europe/Paris",
    "translations": {}
  },
  {
    "id": 46838,
    "name": "Saulce-sur-Rhône",
    "state_id": 4992,
    "state_code": "26",
    "country_id": 75,
    "country_code": "FR",
    "latitude": "44.70430000",
    "longitude": "4.80061000",
    "native": null,
    "timezone": "Europe/Paris",
    "translations": {}
  },
  {
    "id": 46868,
    "name": "Sauzet",
    "state_id": 4992,
    "state_code": "26",
    "country_id": 75,
    "country_code": "FR",
    "latitude": "44.60397000",
    "longitude": "4.82091000",
    "native": null,
    "timezone": "Europe/Paris",
    "translations": {}
  },
  {
    "id": 46870,
    "name": "Savasse",
    "state_id": 4992,
    "state_code": "26",
    "country_id": 75,
    "country_code": "FR",
    "latitude": "44.60428000",
    "longitude": "4.77653000",
    "native": null,
    "timezone": "Europe/Paris",
    "translations": {}
  },
  {
    "id": 47127,
    "name": "Suze-la-Rousse",
    "state_id": 4992,
    "state_code": "26",
    "country_id": 75,
    "country_code": "FR",
    "latitude": "44.28761000",
    "longitude": "4.84161000",
    "native": null,
    "timezone": "Europe/Paris",
    "translations": {}
  },
  {
    "id": 47157,
    "name": "Tain-l’Hermitage",
    "state_id": 4992,
    "state_code": "26",
    "country_id": 75,
    "country_code": "FR",
    "latitude": "45.06672000",
    "longitude": "4.85590000",
    "native": null,
    "timezone": "Europe/Paris",
    "translations": {}
  },
  {
    "id": 47185,
    "name": "Taulignan",
    "state_id": 4992,
    "state_code": "26",
    "country_id": 75,
    "country_code": "FR",
    "latitude": "44.44419000",
    "longitude": "4.97057000",
    "native": null,
    "timezone": "Europe/Paris",
    "translations": {}
  },
  {
    "id": 47412,
    "name": "Tulette",
    "state_id": 4992,
    "state_code": "26",
    "country_id": 75,
    "country_code": "FR",
    "latitude": "44.28656000",
    "longitude": "4.93122000",
    "native": null,
    "timezone": "Europe/Paris",
    "translations": {}
  },
  {
    "id": 47429,
    "name": "Upie",
    "state_id": 4992,
    "state_code": "26",
    "country_id": 75,
    "country_code": "FR",
    "latitude": "44.80250000",
    "longitude": "4.97673000",
    "native": null,
    "timezone": "Europe/Paris",
    "translations": {}
  },
  {
    "id": 47470,
    "name": "Valence",
    "state_id": 4992,
    "state_code": "26",
    "country_id": 75,
    "country_code": "FR",
    "latitude": "44.92560000",
    "longitude": "4.90956000",
    "native": null,
    "timezone": "Europe/Paris",
    "translations": {}
  },
  {
    "id": 47850,
    "name": "Vinsobres",
    "state_id": 4992,
    "state_code": "26",
    "country_id": 75,
    "country_code": "FR",
    "latitude": "44.33328000",
    "longitude": "5.06204000",
    "native": null,
    "timezone": "Europe/Paris",
    "translations": {}
  }
]