[
  {
    "id": 5473,
    "name": "Bagerhat",
    "country_id": 19,
    "country_code": "BD",
    "fips_code": null,
    "iso2": "05",
    "type": "district",
    "latitude": "22.65833000",
    "longitude": "89.78333000",
    "native": "বাগেরহাট জেলা",
    "timezone": "Asia/Dhaka",
    "translations": {}
  },
  {
    "id": 5474,
    "name": "Bandarban",
    "country_id": 19,
    "country_code": "BD",
    "fips_code": null,
    "iso2": "01",
    "type": "district",
    "latitude": "22.19534000",
    "longitude": "92.21946000",
    "native": "বান্দরবান জেলা",
    "timezone": "Asia/Dhaka",
    "translations": {}
  },
  {
    "id": 5475,
    "name": "Barguna",
    "country_id": 19,
    "country_code": "BD",
    "fips_code": null,
    "iso2": "02",
    "type": "district",
    "latitude": "22.15330000",
    "longitude": "90.11997000",
    "native": "বরগুনা জেলা",
    "timezone": "Asia/Dhaka",
    "translations": {}
  },
  {
    "id": 807,
    "name": "Barisal ",
    "country_id": 19,
    "country_code": "BD",
    "fips_code": null,
    "iso2": "A",
    "type": "division",
    "latitude": "22.49340350",
    "longitude": "90.35480150",
    "native": "বরিশাল",
    "timezone": "Asia/Dhaka",
    "translations": {}
  },
  {
    "id": 5476,
    "name": "Barishal",
    "country_id": 19,
    "country_code": "BD",
    "fips_code": null,
    "iso2": "06",
    "type": "district",
    "latitude": "22.70100000",
    "longitude": "90.35360000",
    "native": "বরিশাল জেলা",
    "timezone": "Asia/Dhaka",
    "translations": {}
  },
  {
    "id": 5477,
    "name": "Bhola",
    "country_id": 19,
    "country_code": "BD",
    "fips_code": null,
    "iso2": "07",
    "type": "district",
    "latitude": "22.68540000",
    "longitude": "90.64820000",
    "native": "ভোলা জেলা",
    "timezone": "Asia/Dhaka",
    "translations": {}
  },
  {
    "id": 5478,
    "name": "Bogura",
    "country_id": 19,
    "country_code": "BD",
    "fips_code": null,
    "iso2": "03",
    "type": "district",
    "latitude": "24.84656000",
    "longitude": "89.37764000",
    "native": "বগুড়া জেলা",
    "timezone": "Asia/Dhaka",
    "translations": {}
  },
  {
    "id": 5479,
    "name": "Brahmanbaria",
    "country_id": 19,
    "country_code": "BD",
    "fips_code": null,
    "iso2": "04",
    "type": "district",
    "latitude": "23.96090000",
    "longitude": "91.11150000",
    "native": "ব্রাহ্মণবাড়িয়া জেলা",
    "timezone": "Asia/Dhaka",
    "translations": {}
  },
  {
    "id": 5480,
    "name": "Chandpur",
    "country_id": 19,
    "country_code": "BD",
    "fips_code": null,
    "iso2": "09",
    "type": "district",
    "latitude": "23.25130000",
    "longitude": "90.85180000",
    "native": "চাঁদপুর জেলা",
    "timezone": "Asia/Dhaka",
    "translations": {}
  },
  {
    "id": 5481,
    "name": "Chapai Nawabganj",
    "country_id": 19,
    "country_code": "BD",
    "fips_code": null,
    "iso2": "45",
    "type": "district",
    "latitude": "24.59548000",
    "longitude": "88.29125000",
    "native": "চাঁপাইনবাবগঞ্জ জেলা",
    "timezone": "Asia/Dhaka",
    "translations": {}
  },
  {
    "id": 5482,
    "name": "Chattogram",
    "country_id": 19,
    "country_code": "BD",
    "fips_code": null,
    "iso2": "10",
    "type": "district",
    "latitude": "22.35690000",
    "longitude": "91.78320000",
    "native": "চট্টগ্রাম জেলা",
    "timezone": "Asia/Dhaka",
    "translations": {}
  },
  {
    "id": 803,
    "name": "Chittagong ",
    "country_id": 19,
    "country_code": "BD",
    "fips_code": null,
    "iso2": "B",
    "type": "division",
    "latitude": "22.68004660",
    "longitude": "91.88399380",
    "native": "চট্টগ্রাম",
    "timezone": "Asia/Dhaka",
    "translations": {}
  },
  {
    "id": 5483,
    "name": "Chuadanga",
    "country_id": 19,
    "country_code": "BD",
    "fips_code": null,
    "iso2": "12",
    "type": "district",
    "latitude": "23.64020000",
    "longitude": "88.84120000",
    "native": "চুয়াডাঙ্গা জেলা",
    "timezone": "Asia/Dhaka",
    "translations": {}
  },
  {
    "id": 5484,
    "name": "Cox's Bazar",
    "country_id": 19,
    "country_code": "BD",
    "fips_code": null,
    "iso2": "11",
    "type": "district",
    "latitude": "21.43940000",
    "longitude": "92.00990000",
    "native": "কক্সবাজার জেলা",
    "timezone": "Asia/Dhaka",
    "translations": {}
  },
  {
    "id": 5485,
    "name": "Cumilla",
    "country_id": 19,
    "country_code": "BD",
    "fips_code": null,
    "iso2": "08",
    "type": "district",
    "latitude": "23.46050000",
    "longitude": "91.18090000",
    "native": "কুমিল্লা জেলা",
    "timezone": "Asia/Dhaka",
    "translations": {}
  },
  {
    "id": 5486,
    "name": "Dhaka",
    "country_id": 19,
    "country_code": "BD",
    "fips_code": null,
    "iso2": "13",
    "type": "district",
    "latitude": "23.81050000",
    "longitude": "90.40720000",
    "native": "ঢাকা জেলা",
    "timezone": "Asia/Dhaka",
    "translations": {}
  },
  {
    "id": 760,
    "name": "Dhaka ",
    "country_id": 19,
    "country_code": "BD",
    "fips_code": null,
    "iso2": "C",
    "type": "division",
    "latitude": "23.94561660",
    "longitude": "90.25263820",
    "native": "ঢাকা",
    "timezone": "Asia/Dhaka",
    "translations": {}
  },
  {
    "id": 5487,
    "name": "Dinajpur",
    "country_id": 19,
    "country_code": "BD",
    "fips_code": null,
    "iso2": "14",
    "type": "district",
    "latitude": "25.62770000",
    "longitude": "88.63630000",
    "native": "দিনাজপুর জেলা",
    "timezone": "Asia/Dhaka",
    "translations": {}
  },
  {
    "id": 5488,
    "name": "Faridpur",
    "country_id": 19,
    "country_code": "BD",
    "fips_code": null,
    "iso2": "15",
    "type": "district",
    "latitude": "23.60720000",
    "longitude": "89.84060000",
    "native": "ফরিদপুর জেলা",
    "timezone": "Asia/Dhaka",
    "translations": {}
  },
  {
    "id": 5489,
    "name": "Feni",
    "country_id": 19,
    "country_code": "BD",
    "fips_code": null,
    "iso2": "16",
    "type": "district",
    "latitude": "23.01330000",
    "longitude": "91.40390000",
    "native": "ফেনী জেলা",
    "timezone": "Asia/Dhaka",
    "translations": {}
  },
  {
    "id": 5490,
    "name": "Gaibandha",
    "country_id": 19,
    "country_code": "BD",
    "fips_code": null,
    "iso2": "19",
    "type": "district",
    "latitude": "25.32880000",
    "longitude": "89.54300000",
    "native": "গাইবান্ধা জেলা",
    "timezone": "Asia/Dhaka",
    "translations": {}
  },
  {
    "id": 5491,
    "name": "Gazipur",
    "country_id": 19,
    "country_code": "BD",
    "fips_code": null,
    "iso2": "18",
    "type": "district",
    "latitude": "24.09580000",
    "longitude": "90.41250000",
    "native": "গাজীপুর জেলা",
    "timezone": "Asia/Dhaka",
    "translations": {}
  },
  {
    "id": 5492,
    "name": "Gopalganj",
    "country_id": 19,
    "country_code": "BD",
    "fips_code": null,
    "iso2": "17",
    "type": "district",
    "latitude": "23.00550000",
    "longitude": "89.82660000",
    "native": "গোপালগঞ্জ (দ্ব্যর্থতা নিরসন)",
    "timezone": "Asia/Dhaka",
    "translations": {}
  },
  {
    "id": 5493,
    "name": "Habiganj",
    "country_id": 19,
    "country_code": "BD",
    "fips_code": null,
    "iso2": "20",
    "type": "district",
    "latitude": "24.37440000",
    "longitude": "91.41530000",
    "native": "হবিগঞ্জ জেলা",
    "timezone": "Asia/Dhaka",
    "translations": {}
  },
  {
    "id": 5494,
    "name": "Jamalpur",
    "country_id": 19,
    "country_code": "BD",
    "fips_code": null,
    "iso2": "21",
    "type": "district",
    "latitude": "25.08330000",
    "longitude": "89.93330000",
    "native": "জামালপুর জেলা",
    "timezone": "Asia/Dhaka",
    "translations": {}
  },
  {
    "id": 5495,
    "name": "Jashore",
    "country_id": 19,
    "country_code": "BD",
    "fips_code": null,
    "iso2": "22",
    "type": "district",
    "latitude": "23.16650000",
    "longitude": "89.21210000",
    "native": "যশোর জেলা",
    "timezone": "Asia/Dhaka",
    "translations": {}
  },
  {
    "id": 5496,
    "name": "Jhalakathi",
    "country_id": 19,
    "country_code": "BD",
    "fips_code": null,
    "iso2": "25",
    "type": "district",
    "latitude": "22.64020000",
    "longitude": "90.19870000",
    "native": "ঝালকাঠি জেলা",
    "timezone": "Asia/Dhaka",
    "translations": {}
  },
  {
    "id": 5497,
    "name": "Jhenaidah",
    "country_id": 19,
    "country_code": "BD",
    "fips_code": null,
    "iso2": "23",
    "type": "district",
    "latitude": "23.54490000",
    "longitude": "89.17260000",
    "native": "ঝিনাইদহ জেলা",
    "timezone": "Asia/Dhaka",
    "translations": {}
  },
  {
    "id": 5498,
    "name": "Joypurhat",
    "country_id": 19,
    "country_code": "BD",
    "fips_code": null,
    "iso2": "24",
    "type": "district",
    "latitude": "25.09360000",
    "longitude": "89.09450000",
    "native": "জয়পুরহাট জেলা",
    "timezone": "Asia/Dhaka",
    "translations": {}
  },
  {
    "id": 5499,
    "name": "Khagrachhari",
    "country_id": 19,
    "country_code": "BD",
    "fips_code": null,
    "iso2": "29",
    "type": "district",
    "latitude": "23.11910000",
    "longitude": "91.97660000",
    "native": "খাগড়াছড়ি জেলা",
    "timezone": "Asia/Dhaka",
    "translations": {}
  },
  {
    "id": 5500,
    "name": "Khulna",
    "country_id": 19,
    "country_code": "BD",
    "fips_code": null,
    "iso2": "27",
    "type": "district",
    "latitude": "22.81570000",
    "longitude": "89.56810000",
    "native": "খুলনা জেলা",
    "timezone": "Asia/Dhaka",
    "translations": {}
  },
  {
    "id": 775,
    "name": "Khulna ",
    "country_id": 19,
    "country_code": "BD",
    "fips_code": null,
    "iso2": "D",
    "type": "division",
    "latitude": "22.93720870",
    "longitude": "89.28527410",
    "native": "খুলনা",
    "timezone": "Asia/Dhaka",
    "translations": {}
  },
  {
    "id": 5501,
    "name": "Kishoreganj",
    "country_id": 19,
    "country_code": "BD",
    "fips_code": null,
    "iso2": "26",
    "type": "district",
    "latitude": "24.44400000",
    "longitude": "90.77670000",
    "native": "কিশোরগঞ্জ জেলা",
    "timezone": "Asia/Dhaka",
    "translations": {}
  },
  {
    "id": 5502,
    "name": "Kurigram",
    "country_id": 19,
    "country_code": "BD",
    "fips_code": null,
    "iso2": "28",
    "type": "district",
    "latitude": "25.80550000",
    "longitude": "89.62770000",
    "native": "কুড়িগ্রাম জেলা",
    "timezone": "Asia/Dhaka",
    "translations": {}
  },
  {
    "id": 5503,
    "name": "Kushtia",
    "country_id": 19,
    "country_code": "BD",
    "fips_code": null,
    "iso2": "30",
    "type": "district",
    "latitude": "23.89070000",
    "longitude": "89.11890000",
    "native": "কুষ্টিয়া জেলা",
    "timezone": "Asia/Dhaka",
    "translations": {}
  },
  {
    "id": 5504,
    "name": "Lakshmipur",
    "country_id": 19,
    "country_code": "BD",
    "fips_code": null,
    "iso2": "31",
    "type": "district",
    "latitude": "22.94490000",
    "longitude": "90.82820000",
    "native": "লক্ষ্মীপুর জেলা",
    "timezone": "Asia/Dhaka",
    "translations": {}
  },
  {
    "id": 5505,
    "name": "Lalmonirhat",
    "country_id": 19,
    "country_code": "BD",
    "fips_code": null,
    "iso2": "32",
    "type": "district",
    "latitude": "25.91780000",
    "longitude": "89.44520000",
    "native": "লালমনিরহাট জেলা",
    "timezone": "Asia/Dhaka",
    "translations": {}
  },
  {
    "id": 5506,
    "name": "Madaripur",
    "country_id": 19,
    "country_code": "BD",
    "fips_code": null,
    "iso2": "36",
    "type": "district",
    "latitude": "23.17000000",
    "longitude": "90.18770000",
    "native": "মাদারীপুর জেলা",
    "timezone": "Asia/Dhaka",
    "translations": {}
  },
  {
    "id": 5507,
    "name": "Magura",
    "country_id": 19,
    "country_code": "BD",
    "fips_code": null,
    "iso2": "37",
    "type": "district",
    "latitude": "23.48710000",
    "longitude": "89.41980000",
    "native": "মাগুরা জেলা",
    "timezone": "Asia/Dhaka",
    "translations": {}
  },
  {
    "id": 5508,
    "name": "Manikganj",
    "country_id": 19,
    "country_code": "BD",
    "fips_code": null,
    "iso2": "33",
    "type": "district",
    "latitude": "23.86140000",
    "longitude": "90.00030000",
    "native": "মানিকগঞ্জ জেলা",
    "timezone": "Asia/Dhaka",
    "translations": {}
  },
  {
    "id": 5509,
    "name": "Meherpur",
    "country_id": 19,
    "country_code": "BD",
    "fips_code": null,
    "iso2": "39",
    "type": "district",
    "latitude": "23.76210000",
    "longitude": "88.63180000",
    "native": "মেহেরপুর জেলা",
    "timezone": "Asia/Dhaka",
    "translations": {}
  },
  {
    "id": 5510,
    "name": "Moulvibazar",
    "country_id": 19,
    "country_code": "BD",
    "fips_code": null,
    "iso2": "38",
    "type": "district",
    "latitude": "24.30940000",
    "longitude": "91.73150000",
    "native": "মৌলভীবাজার জেলা",
    "timezone": "Asia/Dhaka",
    "translations": {}
  },
  {
    "id": 5511,
    "name": "Munshiganj",
    "country_id": 19,
    "country_code": "BD",
    "fips_code": null,
    "iso2": "35",
    "type": "district",
    "latitude": "23.55180000",
    "longitude": "90.41220000",
    "native": "মুন্সীগঞ্জ জেলা",
    "timezone": "Asia/Dhaka",
    "translations": {}
  },
  {
    "id": 5512,
    "name": "Mymensingh",
    "country_id": 19,
    "country_code": "BD",
    "fips_code": null,
    "iso2": "34",
    "type": "district",
    "latitude": "24.75360000",
    "longitude": "90.40720000",
    "native": "ময়মনসিংহ জেলা",
    "timezone": "Asia/Dhaka",
    "translations": {}
  },
  {
    "id": 758,
    "name": "Mymensingh ",
    "country_id": 19,
    "country_code": "BD",
    "fips_code": null,
    "iso2": "H",
    "type": "division",
    "latitude": "24.74821290",
    "longitude": "90.40991580",
    "native": "মাইমেনসিংহ",
    "timezone": "Asia/Dhaka",
    "translations": {}
  },
  {
    "id": 5513,
    "name": "Naogaon",
    "country_id": 19,
    "country_code": "BD",
    "fips_code": null,
    "iso2": "48",
    "type": "district",
    "latitude": "24.80420000",
    "longitude": "88.92540000",
    "native": "নওগাঁ জেলা",
    "timezone": "Asia/Dhaka",
    "translations": {}
  },
  {
    "id": 5514,
    "name": "Narail",
    "country_id": 19,
    "country_code": "BD",
    "fips_code": null,
    "iso2": "43",
    "type": "district",
    "latitude": "23.11630000",
    "longitude": "89.49980000",
    "native": "নড়াইল জেলা",
    "timezone": "Asia/Dhaka",
    "translations": {}
  },
  {
    "id": 5515,
    "name": "Narayanganj",
    "country_id": 19,
    "country_code": "BD",
    "fips_code": null,
    "iso2": "40",
    "type": "district",
    "latitude": "23.63380000",
    "longitude": "90.50000000",
    "native": "নারায়ণগঞ্জ জেলা",
    "timezone": "Asia/Dhaka",
    "translations": {}
  },
  {
    "id": 5516,
    "name": "Narsingdi",
    "country_id": 19,
    "country_code": "BD",
    "fips_code": null,
    "iso2": "42",
    "type": "district",
    "latitude": "23.92320000",
    "longitude": "90.71680000",
    "native": "নরসিংদী জেলা",
    "timezone": "Asia/Dhaka",
    "translations": {}
  },
  {
    "id": 5517,
    "name": "Natore",
    "country_id": 19,
    "country_code": "BD",
    "fips_code": null,
    "iso2": "44",
    "type": "district",
    "latitude": "24.42050000",
    "longitude": "89.00060000",
    "native": "নাটোর জেলা",
    "timezone": "Asia/Dhaka",
    "translations": {}
  },
  {
    "id": 5518,
    "name": "Netrakona",
    "country_id": 19,
    "country_code": "BD",
    "fips_code": null,
    "iso2": "41",
    "type": "district",
    "latitude": "24.88090000",
    "longitude": "90.72770000",
    "native": "নেত্রকোণা জেলা",
    "timezone": "Asia/Dhaka",
    "translations": {}
  },
  {
    "id": 5519,
    "name": "Nilphamari",
    "country_id": 19,
    "country_code": "BD",
    "fips_code": null,
    "iso2": "46",
    "type": "district",
    "latitude": "25.93180000",
    "longitude": "88.85600000",
    "native": "নীলফামারী জেলা",
    "timezone": "Asia/Dhaka",
    "translations": {}
  },
  {
    "id": 5520,
    "name": "Noakhali",
    "country_id": 19,
    "country_code": "BD",
    "fips_code": null,
    "iso2": "47",
    "type": "district",
    "latitude": "22.86910000",
    "longitude": "91.09790000",
    "native": "নোয়াখালী জেলা",
    "timezone": "Asia/Dhaka",
    "translations": {}
  },
  {
    "id": 5521,
    "name": "Pabna",
    "country_id": 19,
    "country_code": "BD",
    "fips_code": null,
    "iso2": "49",
    "type": "district",
    "latitude": "24.00640000",
    "longitude": "89.23360000",
    "native": "পাবনা জেলা",
    "timezone": "Asia/Dhaka",
    "translations": {}
  },
  {
    "id": 5522,
    "name": "Panchagarh",
    "country_id": 19,
    "country_code": "BD",
    "fips_code": null,
    "iso2": "52",
    "type": "district",
    "latitude": "26.33880000",
    "longitude": "88.55390000",
    "native": "পঞ্চগড় জেলা",
    "timezone": "Asia/Dhaka",
    "translations": {}
  },
  {
    "id": 5523,
    "name": "Patuakhali",
    "country_id": 19,
    "country_code": "BD",
    "fips_code": null,
    "iso2": "51",
    "type": "district",
    "latitude": "22.35910000",
    "longitude": "90.32890000",
    "native": "পটুয়াখালী জেলা",
    "timezone": "Asia/Dhaka",
    "translations": {}
  },
  {
    "id": 5524,
    "name": "Pirojpur",
    "country_id": 19,
    "country_code": "BD",
    "fips_code": null,
    "iso2": "50",
    "type": "district",
    "latitude": "22.57910000",
    "longitude": "89.97590000",
    "native": "পিরোজপুর জেলা",
    "timezone": "Asia/Dhaka",
    "translations": {}
  },
  {
    "id": 5525,
    "name": "Rajbari",
    "country_id": 19,
    "country_code": "BD",
    "fips_code": null,
    "iso2": "53",
    "type": "district",
    "latitude": "23.75740000",
    "longitude": "89.64470000",
    "native": "রাজবাড়ী জেলা",
    "timezone": "Asia/Dhaka",
    "translations": {}
  },
  {
    "id": 5526,
    "name": "Rajshahi",
    "country_id": 19,
    "country_code": "BD",
    "fips_code": null,
    "iso2": "54",
    "type": "district",
    "latitude": "24.37440000",
    "longitude": "88.60440000",
    "native": "রাজশাহী জেলা",
    "timezone": "Asia/Dhaka",
    "translations": {}
  },
  {
    "id": 753,
    "name": "Rajshahi ",
    "country_id": 19,
    "country_code": "BD",
    "fips_code": null,
    "iso2": "E",
    "type": "division",
    "latitude": "24.62854320",
    "longitude": "89.03768620",
    "native": "রাজশাহী",
    "timezone": "Asia/Dhaka",
    "translations": {}
  },
  {
    "id": 5527,
    "name": "Rangamati",
    "country_id": 19,
    "country_code": "BD",
    "fips_code": null,
    "iso2": "56",
    "type": "district",
    "latitude": "22.65320000",
    "longitude": "92.17530000",
    "native": "রাঙ্গামাটি জেলা",
    "timezone": "Asia/Dhaka",
    "translations": {}
  },
  {
    "id": 750,
    "name": "Rangpur ",
    "country_id": 19,
    "country_code": "BD",
    "fips_code": null,
    "iso2": "F",
    "type": "division",
    "latitude": "25.63761350",
    "longitude": "89.08263810",
    "native": "রংপুর",
    "timezone": "Asia/Dhaka",
    "translations": {}
  },
  {
    "id": 5528,
    "name": "Rangpur",
    "country_id": 19,
    "country_code": "BD",
    "fips_code": null,
    "iso2": "55",
    "type": "district",
    "latitude": "25.74660000",
    "longitude": "89.25080000",
    "native": "রংপুর জেলা",
    "timezone": "Asia/Dhaka",
    "translations": {}
  },
  {
    "id": 5529,
    "name": "Satkhira",
    "country_id": 19,
    "country_code": "BD",
    "fips_code": null,
    "iso2": "58",
    "type": "district",
    "latitude": "22.71590000",
    "longitude": "89.07060000",
    "native": "সাতক্ষীরা জেলা",
    "timezone": "Asia/Dhaka",
    "translations": {}
  },
  {
    "id": 5530,
    "name": "Shariatpur",
    "country_id": 19,
    "country_code": "BD",
    "fips_code": null,
    "iso2": "62",
    "type": "district",
    "latitude": "23.24230000",
    "longitude": "90.43480000",
    "native": "শরীয়তপুর জেলা",
    "timezone": "Asia/Dhaka",
    "translations": {}
  },
  {
    "id": 5531,
    "name": "Sherpur",
    "country_id": 19,
    "country_code": "BD",
    "fips_code": null,
    "iso2": "57",
    "type": "district",
    "latitude": "25.01970000",
    "longitude": "90.01510000",
    "native": "শেরপুর জেলা",
    "timezone": "Asia/Dhaka",
    "translations": {}
  },
  {
    "id": 5532,
    "name": "Sirajganj",
    "country_id": 19,
    "country_code": "BD",
    "fips_code": null,
    "iso2": "59",
    "type": "district",
    "latitude": "24.45330000",
    "longitude": "89.70060000",
    "native": "সিরাজগঞ্জ জেলা",
    "timezone": "Asia/Dhaka",
    "translations": {}
  },
  {
    "id": 5533,
    "name": "Sunamganj",
    "country_id": 19,
    "country_code": "BD",
    "fips_code": null,
    "iso2": "61",
    "type": "district",
    "latitude": "25.06580000",
    "longitude": "91.39500000",
    "native": "সুনামগঞ্জ জেলা",
    "timezone": "Asia/Dhaka",
    "translations": {}
  },
  {
    "id": 765,
    "name": "Sylhet ",
    "country_id": 19,
    "country_code": "BD",
    "fips_code": null,
    "iso2": "G",
    "type": "division",
    "latitude": "24.73588540",
    "longitude": "91.68524760",
    "native": "সিলেট",
    "timezone": "Asia/Dhaka",
    "translations": {}
  },
  {
    "id": 5534,
    "name": "Sylhet",
    "country_id": 19,
    "country_code": "BD",
    "fips_code": null,
    "iso2": "60",
    "type": "district",
    "latitude": "24.89940000",
    "longitude": "91.86980000",
    "native": "সিলেট জেলা",
    "timezone": "Asia/Dhaka",
    "translations": {}
  },
  {
    "id": 5535,
    "name": "Tangail",
    "country_id": 19,
    "country_code": "BD",
    "fips_code": null,
    "iso2": "63",
    "type": "district",
    "latitude": "24.24980000",
    "longitude": "89.91680000",
    "native": "টাঙ্গাইল জেলা",
    "timezone": "Asia/Dhaka",
    "translations": {}
  },
  {
    "id": 5536,
    "name": "Thakurgaon",
    "country_id": 19,
    "country_code": "BD",
    "fips_code": null,
    "iso2": "64",
    "type": "district",
    "latitude": "26.03220000",
    "longitude": "88.46100000",
    "native": "ঠাকুরগাঁও জেলা",
    "timezone": "Asia/Dhaka",
    "translations": {}
  }
]