[
  {
    "id": 4114,
    "name": "Azua",
    "country_id": 62,
    "country_code": "DO",
    "fips_code": null,
    "iso2": "02",
    "type": "province",
    "latitude": "18.45527090",
    "longitude": "-70.73809280",
    "native": "Azua",
    "timezone": "America/Santo_Domingo",
    "translations": {}
  },
  {
    "id": 4105,
    "name": "Baoruco",
    "country_id": 62,
    "country_code": "DO",
    "fips_code": null,
    "iso2": "03",
    "type": "province",
    "latitude": "18.51402390",
    "longitude": "-71.33033930",
    "native": "Baoruco",
    "timezone": "America/Santo_Domingo",
    "translations": {}
  },
  {
    "id": 4090,
    "name": "Barahona",
    "country_id": 62,
    "country_code": "DO",
    "fips_code": null,
    "iso2": "04",
    "type": "province",
    "latitude": "18.21390660",
    "longitude": "-71.10437590",
    "native": "Barahona",
    "timezone": "America/Santo_Domingo",
    "translations": {}
  },
  {
    "id": 5540,
    "name": "Cibao Nordeste",
    "country_id": 62,
    "country_code": "DO",
    "fips_code": null,
    "iso2": "33",
    "type": "region",
    "latitude": "19.40000000",
    "longitude": "-69.90000000",
    "native": "Cibao Nordeste",
    "timezone": "America/Santo_Domingo",
    "translations": {}
  },
  {
    "id": 5541,
    "name": "Cibao Noroeste",
    "country_id": 62,
    "country_code": "DO",
    "fips_code": null,
    "iso2": "34",
    "type": "region",
    "latitude": "19.60000000",
    "longitude": "-71.00000000",
    "native": "Cibao Noroeste",
    "timezone": "America/Santo_Domingo",
    "translations": {}
  },
  {
    "id": 5542,
    "name": "Cibao Norte",
    "country_id": 62,
    "country_code": "DO",
    "fips_code": null,
    "iso2": "35",
    "type": "region",
    "latitude": "19.50000000",
    "longitude": "-70.70000000",
    "native": "Cibao Norte",
    "timezone": "America/Santo_Domingo",
    "translations": {}
  },
  {
    "id": 5543,
    "name": "Cibao Sur",
    "country_id": 62,
    "country_code": "DO",
    "fips_code": null,
    "iso2": "36",
    "type": "region",
    "latitude": "19.20000000",
    "longitude": "-70.50000000",
    "native": "Cibao Sur",
    "timezone": "America/Santo_Domingo",
    "translations": {}
  },
  {
    "id": 4107,
    "name": "Dajabón",
    "country_id": 62,
    "country_code": "DO",
    "fips_code": null,
    "iso2": "05",
    "type": "province",
    "latitude": "19.54992410",
    "longitude": "-71.70865140",
    "native": "Dajabón",
    "timezone": "America/Santo_Domingo",
    "translations": {}
  },
  {
    "id": 4095,
    "name": "Distrito Nacional",
    "country_id": 62,
    "country_code": "DO",
    "fips_code": null,
    "iso2": "01",
    "type": "district",
    "latitude": "18.48605750",
    "longitude": "-69.93121170",
    "native": "Distrito Nacional",
    "timezone": "America/Santo_Domingo",
    "translations": {}
  },
  {
    "id": 4113,
    "name": "Duarte",
    "country_id": 62,
    "country_code": "DO",
    "fips_code": null,
    "iso2": "06",
    "type": "province",
    "latitude": "19.28331630",
    "longitude": "-70.18800550",
    "native": "Duarte",
    "timezone": "America/Santo_Domingo",
    "translations": {}
  },
  {
    "id": 4086,
    "name": "El Seibo",
    "country_id": 62,
    "country_code": "DO",
    "fips_code": null,
    "iso2": "08",
    "type": "province",
    "latitude": "18.76584960",
    "longitude": "-69.04066800",
    "native": "El Seibo",
    "timezone": "America/Santo_Domingo",
    "translations": {}
  },
  {
    "id": 5544,
    "name": "El Valle",
    "country_id": 62,
    "country_code": "DO",
    "fips_code": null,
    "iso2": "37",
    "type": "region",
    "latitude": "18.80000000",
    "longitude": "-71.20000000",
    "native": "El Valle",
    "timezone": "America/Santo_Domingo",
    "translations": {}
  },
  {
    "id": 5539,
    "name": "Elías Piña",
    "country_id": 62,
    "country_code": "DO",
    "fips_code": null,
    "iso2": "07",
    "type": "province",
    "latitude": "19.03333000",
    "longitude": "-71.68333000",
    "native": "Elías Piña",
    "timezone": "America/Santo_Domingo",
    "translations": {}
  },
  {
    "id": 5545,
    "name": "Enriquillo",
    "country_id": 62,
    "country_code": "DO",
    "fips_code": null,
    "iso2": "38",
    "type": "region",
    "latitude": "18.20000000",
    "longitude": "-71.30000000",
    "native": "Enriquillo",
    "timezone": "America/Santo_Domingo",
    "translations": {}
  },
  {
    "id": 4102,
    "name": "Espaillat",
    "country_id": 62,
    "country_code": "DO",
    "fips_code": null,
    "iso2": "09",
    "type": "province",
    "latitude": "19.51081260",
    "longitude": "-70.49188030",
    "native": "Espaillat",
    "timezone": "America/Santo_Domingo",
    "translations": {}
  },
  {
    "id": 4106,
    "name": "Hato Mayor",
    "country_id": 62,
    "country_code": "DO",
    "fips_code": null,
    "iso2": "30",
    "type": "province",
    "latitude": "18.70895240",
    "longitude": "-69.32565240",
    "native": "Hato Mayor",
    "timezone": "America/Santo_Domingo",
    "translations": {}
  },
  {
    "id": 4089,
    "name": "Hermanas Mirabal",
    "country_id": 62,
    "country_code": "DO",
    "fips_code": null,
    "iso2": "19",
    "type": "province",
    "latitude": "19.39576990",
    "longitude": "-70.38405780",
    "native": "Hermanas Mirabal",
    "timezone": "America/Santo_Domingo",
    "translations": {}
  },
  {
    "id": 5546,
    "name": "Higuamo",
    "country_id": 62,
    "country_code": "DO",
    "fips_code": null,
    "iso2": "39",
    "type": "region",
    "latitude": "18.70000000",
    "longitude": "-69.20000000",
    "native": "Higuamo",
    "timezone": "America/Santo_Domingo",
    "translations": {}
  },
  {
    "id": 4097,
    "name": "Independencia",
    "country_id": 62,
    "country_code": "DO",
    "fips_code": null,
    "iso2": "10",
    "type": "province",
    "latitude": "18.41558610",
    "longitude": "-71.63573960",
    "native": "Independencia",
    "timezone": "America/Santo_Domingo",
    "translations": {}
  },
  {
    "id": 4109,
    "name": "La Altagracia",
    "country_id": 62,
    "country_code": "DO",
    "fips_code": null,
    "iso2": "11",
    "type": "province",
    "latitude": "18.58808860",
    "longitude": "-68.60531040",
    "native": "La Altagracia",
    "timezone": "America/Santo_Domingo",
    "translations": {}
  },
  {
    "id": 4087,
    "name": "La Romana",
    "country_id": 62,
    "country_code": "DO",
    "fips_code": null,
    "iso2": "12",
    "type": "province",
    "latitude": "18.42301370",
    "longitude": "-68.96611040",
    "native": "La Romana",
    "timezone": "America/Santo_Domingo",
    "translations": {}
  },
  {
    "id": 4116,
    "name": "La Vega",
    "country_id": 62,
    "country_code": "DO",
    "fips_code": null,
    "iso2": "13",
    "type": "province",
    "latitude": "19.22115540",
    "longitude": "-70.52887530",
    "native": "La Vega",
    "timezone": "America/Santo_Domingo",
    "translations": {}
  },
  {
    "id": 4094,
    "name": "María Trinidad Sánchez",
    "country_id": 62,
    "country_code": "DO",
    "fips_code": null,
    "iso2": "14",
    "type": "province",
    "latitude": "19.44333040",
    "longitude": "-69.99908210",
    "native": "María Trinidad Sánchez",
    "timezone": "America/Santo_Domingo",
    "translations": {}
  },
  {
    "id": 4099,
    "name": "Monseñor Nouel",
    "country_id": 62,
    "country_code": "DO",
    "fips_code": null,
    "iso2": "28",
    "type": "province",
    "latitude": "18.92348010",
    "longitude": "-70.41572650",
    "native": "Monseñor Nouel",
    "timezone": "America/Santo_Domingo",
    "translations": {}
  },
  {
    "id": 4115,
    "name": "Monte Cristi",
    "country_id": 62,
    "country_code": "DO",
    "fips_code": null,
    "iso2": "15",
    "type": "province",
    "latitude": "19.71777180",
    "longitude": "-71.44481130",
    "native": "Monte Cristi",
    "timezone": "America/Santo_Domingo",
    "translations": {}
  },
  {
    "id": 4111,
    "name": "Monte Plata",
    "country_id": 62,
    "country_code": "DO",
    "fips_code": null,
    "iso2": "29",
    "type": "province",
    "latitude": "18.80808780",
    "longitude": "-69.78691460",
    "native": "Monte Plata",
    "timezone": "America/Santo_Domingo",
    "translations": {}
  },
  {
    "id": 5547,
    "name": "Ozama",
    "country_id": 62,
    "country_code": "DO",
    "fips_code": null,
    "iso2": "40",
    "type": "region",
    "latitude": "18.50000000",
    "longitude": "-69.90000000",
    "native": "Ozama",
    "timezone": "America/Santo_Domingo",
    "translations": {}
  },
  {
    "id": 4101,
    "name": "Pedernales",
    "country_id": 62,
    "country_code": "DO",
    "fips_code": null,
    "iso2": "16",
    "type": "province",
    "latitude": "18.09079180",
    "longitude": "-71.55952470",
    "native": "Pedernales",
    "timezone": "America/Santo_Domingo",
    "translations": {}
  },
  {
    "id": 4096,
    "name": "Peravia",
    "country_id": 62,
    "country_code": "DO",
    "fips_code": null,
    "iso2": "17",
    "type": "province",
    "latitude": "18.33095750",
    "longitude": "-70.37123490",
    "native": "Peravia",
    "timezone": "America/Santo_Domingo",
    "translations": {}
  },
  {
    "id": 4092,
    "name": "Puerto Plata",
    "country_id": 62,
    "country_code": "DO",
    "fips_code": null,
    "iso2": "18",
    "type": "province",
    "latitude": "19.72252340",
    "longitude": "-70.72083380",
    "native": "Puerto Plata",
    "timezone": "America/Santo_Domingo",
    "translations": {}
  },
  {
    "id": 4103,
    "name": "Samaná",
    "country_id": 62,
    "country_code": "DO",
    "fips_code": null,
    "iso2": "20",
    "type": "province",
    "latitude": "19.20583710",
    "longitude": "-69.33629490",
    "native": "Samaná",
    "timezone": "America/Santo_Domingo",
    "translations": {}
  },
  {
    "id": 4091,
    "name": "San Cristóbal",
    "country_id": 62,
    "country_code": "DO",
    "fips_code": null,
    "iso2": "21",
    "type": "province",
    "latitude": "18.41804140",
    "longitude": "-70.10658490",
    "native": "San Cristóbal",
    "timezone": "America/Santo_Domingo",
    "translations": {}
  },
  {
    "id": 4112,
    "name": "San José de Ocoa",
    "country_id": 62,
    "country_code": "DO",
    "fips_code": null,
    "iso2": "31",
    "type": "province",
    "latitude": "18.54385800",
    "longitude": "-70.50418160",
    "native": "San José de Ocoa",
    "timezone": "America/Santo_Domingo",
    "translations": {}
  },
  {
    "id": 4098,
    "name": "San Juan",
    "country_id": 62,
    "country_code": "DO",
    "fips_code": null,
    "iso2": "22",
    "type": "province",
    "latitude": "18.87967000",
    "longitude": "-71.28627060",
    "native": "San Juan",
    "timezone": "America/Santo_Domingo",
    "translations": {}
  },
  {
    "id": 4110,
    "name": "San Pedro de Macorís",
    "country_id": 62,
    "country_code": "DO",
    "fips_code": null,
    "iso2": "23",
    "type": "province",
    "latitude": "18.46266000",
    "longitude": "-69.30512340",
    "native": "San Pedro de Macorís",
    "timezone": "America/Santo_Domingo",
    "translations": {}
  },
  {
    "id": 4088,
    "name": "Sánchez Ramírez",
    "country_id": 62,
    "country_code": "DO",
    "fips_code": null,
    "iso2": "24",
    "type": "province",
    "latitude": "19.01761470",
    "longitude": "-70.14483510",
    "native": "Sánchez Ramírez",
    "timezone": "America/Santo_Domingo",
    "translations": {}
  },
  {
    "id": 4108,
    "name": "Santiago",
    "country_id": 62,
    "country_code": "DO",
    "fips_code": null,
    "iso2": "25",
    "type": "province",
    "latitude": "19.33638900",
    "longitude": "-70.95212770",
    "native": "Santiago",
    "timezone": "America/Santo_Domingo",
    "translations": {}
  },
  {
    "id": 4100,
    "name": "Santiago Rodríguez",
    "country_id": 62,
    "country_code": "DO",
    "fips_code": null,
    "iso2": "26",
    "type": "province",
    "latitude": "19.36907290",
    "longitude": "-71.35238080",
    "native": "Santiago Rodríguez",
    "timezone": "America/Santo_Domingo",
    "translations": {}
  },
  {
    "id": 4093,
    "name": "Santo Domingo",
    "country_id": 62,
    "country_code": "DO",
    "fips_code": null,
    "iso2": "32",
    "type": "province",
    "latitude": "18.56385430",
    "longitude": "-69.85316920",
    "native": "Santo Domingo",
    "timezone": "America/Santo_Domingo",
    "translations": {}
  },
  {
    "id": 5548,
    "name": "Valdesia",
    "country_id": 62,
    "country_code": "DO",
    "fips_code": null,
    "iso2": "41",
    "type": "region",
    "latitude": "18.40000000",
    "longitude": "-70.30000000",
    "native": "Valdesia",
    "timezone": "America/Santo_Domingo",
    "translations": {}
  },
  {
    "id": 4104,
    "name": "Valverde",
    "country_id": 62,
    "country_code": "DO",
    "fips_code": null,
    "iso2": "27",
    "type": "province",
    "latitude": "19.59556620",
    "longitude": "-71.03039740",
    "native": "Valverde",
    "timezone": "America/Santo_Domingo",
    "translations": {}
  },
  {
    "id": 5549,
    "name": "Yuma",
    "country_id": 62,
    "country_code": "DO",
    "fips_code": null,
    "iso2": "42",
    "type": "region",
    "latitude": "18.60000000",
    "longitude": "-68.70000000",
    "native": "Yuma",
    "timezone": "America/Santo_Domingo",
    "translations": {}
  }
]