[
  {
    "id": 3998,
    "name": "Chagang",
    "country_id": 115,
    "country_code": "KP",
    "fips_code": null,
    "iso2": "04",
    "type": "province",
    "latitude": "40.71985360",
    "longitude": "126.53905600",
    "native": "차강",
    "timezone": "Asia/Pyongyang",
    "translations": {}
  },
  {
    "id": 5719,
    "name": "Kaesong",
    "country_id": 115,
    "country_code": "KP",
    "fips_code": null,
    "iso2": "15",
    "type": "metropolitan city",
    "latitude": "37.97166667",
    "longitude": "126.55277778",
    "native": "개성시",
    "timezone": "Asia/Pyongyang",
    "translations": {}
  },
  {
    "id": 3999,
    "name": "Kangwon",
    "country_id": 115,
    "country_code": "KP",
    "fips_code": null,
    "iso2": "07",
    "type": "province",
    "latitude": "38.83543490",
    "longitude": "127.51465470",
    "native": "강원도",
    "timezone": "Asia/Pyongyang",
    "translations": {}
  },
  {
    "id": 5718,
    "name": "Nampho",
    "country_id": 115,
    "country_code": "KP",
    "fips_code": null,
    "iso2": "14",
    "type": "metropolitan city",
    "latitude": "38.73555556",
    "longitude": "125.40888889",
    "native": "남포시",
    "timezone": "Asia/Pyongyang",
    "translations": {}
  },
  {
    "id": 3995,
    "name": "North Hamgyong",
    "country_id": 115,
    "country_code": "KP",
    "fips_code": null,
    "iso2": "09",
    "type": "province",
    "latitude": "41.90987230",
    "longitude": "129.36905600",
    "native": "함경북도",
    "timezone": "Asia/Pyongyang",
    "translations": {}
  },
  {
    "id": 4004,
    "name": "North Hwanghae",
    "country_id": 115,
    "country_code": "KP",
    "fips_code": null,
    "iso2": "06",
    "type": "province",
    "latitude": "38.57096320",
    "longitude": "126.24657230",
    "native": "황해북도",
    "timezone": "Asia/Pyongyang",
    "translations": {}
  },
  {
    "id": 4002,
    "name": "North Pyongan",
    "country_id": 115,
    "country_code": "KP",
    "fips_code": null,
    "iso2": "03",
    "type": "province",
    "latitude": "40.06428470",
    "longitude": "125.23562220",
    "native": "평안북도",
    "timezone": "Asia/Pyongyang",
    "translations": {}
  },
  {
    "id": 4005,
    "name": "Pyongyang",
    "country_id": 115,
    "country_code": "KP",
    "fips_code": null,
    "iso2": "01",
    "type": "capital city",
    "latitude": "39.01679790",
    "longitude": "125.74736090",
    "native": "평양",
    "timezone": "Asia/Pyongyang",
    "translations": {}
  },
  {
    "id": 4001,
    "name": "Rason",
    "country_id": 115,
    "country_code": "KP",
    "fips_code": null,
    "iso2": "13",
    "type": "special city",
    "latitude": "42.24973160",
    "longitude": "130.31132960",
    "native": "라손",
    "timezone": "Asia/Pyongyang",
    "translations": {}
  },
  {
    "id": 3996,
    "name": "Ryanggang",
    "country_id": 115,
    "country_code": "KP",
    "fips_code": null,
    "iso2": "10",
    "type": "province",
    "latitude": "41.09978980",
    "longitude": "128.16903460",
    "native": "량강",
    "timezone": "Asia/Pyongyang",
    "translations": {}
  },
  {
    "id": 4000,
    "name": "South Hamgyong",
    "country_id": 115,
    "country_code": "KP",
    "fips_code": null,
    "iso2": "08",
    "type": "province",
    "latitude": "40.11991800",
    "longitude": "127.59909890",
    "native": "함경남도",
    "timezone": "Asia/Pyongyang",
    "translations": {}
  },
  {
    "id": 4003,
    "name": "South Hwanghae",
    "country_id": 115,
    "country_code": "KP",
    "fips_code": null,
    "iso2": "05",
    "type": "province",
    "latitude": "38.26282620",
    "longitude": "125.47690100",
    "native": "황해남도",
    "timezone": "Asia/Pyongyang",
    "translations": {}
  },
  {
    "id": 3997,
    "name": "South Pyongan",
    "country_id": 115,
    "country_code": "KP",
    "fips_code": null,
    "iso2": "02",
    "type": "province",
    "latitude": "39.54165050",
    "longitude": "126.06476450",
    "native": "남평안",
    "timezone": "Asia/Pyongyang",
    "translations": {}
  }
]