[
  {
    "id": 5643,
    "name": "Ailinglaplap",
    "country_id": 137,
    "country_code": "MH",
    "fips_code": null,
    "iso2": "ALL",
    "type": "municipality",
    "latitude": "7.50000000",
    "longitude": "168.73333333",
    "native": "Ailinglaplap",
    "timezone": "Pacific/Kwajalein",
    "translations": {}
  },
  {
    "id": 5644,
    "name": "Ailuk",
    "country_id": 137,
    "country_code": "MH",
    "fips_code": null,
    "iso2": "ALK",
    "type": "municipality",
    "latitude": "10.31666667",
    "longitude": "169.93333333",
    "native": "Ailuk",
    "timezone": "Pacific/Kwajalein",
    "translations": {}
  },
  {
    "id": 5645,
    "name": "Arno",
    "country_id": 137,
    "country_code": "MH",
    "fips_code": null,
    "iso2": "ARN",
    "type": "municipality",
    "latitude": "7.08333333",
    "longitude": "171.70000000",
    "native": "Arno",
    "timezone": "Pacific/Kwajalein",
    "translations": {}
  },
  {
    "id": 5646,
    "name": "Aur",
    "country_id": 137,
    "country_code": "MH",
    "fips_code": null,
    "iso2": "AUR",
    "type": "municipality",
    "latitude": "8.20000000",
    "longitude": "171.10000000",
    "native": "Aur",
    "timezone": "Pacific/Kwajalein",
    "translations": {}
  },
  {
    "id": 5647,
    "name": "Bikini & Kili",
    "country_id": 137,
    "country_code": "MH",
    "fips_code": null,
    "iso2": "KIL",
    "type": "municipality",
    "latitude": "11.60000000",
    "longitude": "165.40000000",
    "native": "Bikini & Kili",
    "timezone": "Pacific/Kwajalein",
    "translations": {}
  },
  {
    "id": 5648,
    "name": "Ebon",
    "country_id": 137,
    "country_code": "MH",
    "fips_code": null,
    "iso2": "EBO",
    "type": "municipality",
    "latitude": "4.63333333",
    "longitude": "168.71666667",
    "native": "Ebon",
    "timezone": "Pacific/Kwajalein",
    "translations": {}
  },
  {
    "id": 5649,
    "name": "Enewetak & Ujelang",
    "country_id": 137,
    "country_code": "MH",
    "fips_code": null,
    "iso2": "ENI",
    "type": "municipality",
    "latitude": "11.50000000",
    "longitude": "162.33333333",
    "native": "Enewetak & Ujelang",
    "timezone": "Pacific/Kwajalein",
    "translations": {}
  },
  {
    "id": 5650,
    "name": "Jabat",
    "country_id": 137,
    "country_code": "MH",
    "fips_code": null,
    "iso2": "JAB",
    "type": "municipality",
    "latitude": "7.75000000",
    "longitude": "168.96666667",
    "native": "Jabat",
    "timezone": "Pacific/Kwajalein",
    "translations": {}
  },
  {
    "id": 5651,
    "name": "Jaluit",
    "country_id": 137,
    "country_code": "MH",
    "fips_code": null,
    "iso2": "JAL",
    "type": "municipality",
    "latitude": "6.00000000",
    "longitude": "169.56666667",
    "native": "Jaluit",
    "timezone": "Pacific/Kwajalein",
    "translations": {}
  },
  {
    "id": 5652,
    "name": "Kwajalein",
    "country_id": 137,
    "country_code": "MH",
    "fips_code": null,
    "iso2": "KWA",
    "type": "municipality",
    "latitude": "8.71666667",
    "longitude": "167.73333333",
    "native": "Kwajalein",
    "timezone": "Pacific/Kwajalein",
    "translations": {}
  },
  {
    "id": 5653,
    "name": "Lae",
    "country_id": 137,
    "country_code": "MH",
    "fips_code": null,
    "iso2": "LAE",
    "type": "municipality",
    "latitude": "8.93611111",
    "longitude": "166.23750000",
    "native": "Lae",
    "timezone": "Pacific/Kwajalein",
    "translations": {}
  },
  {
    "id": 5654,
    "name": "Lib",
    "country_id": 137,
    "country_code": "MH",
    "fips_code": null,
    "iso2": "LIB",
    "type": "municipality",
    "latitude": "8.31305556",
    "longitude": "167.37777778",
    "native": "Lib",
    "timezone": "Pacific/Kwajalein",
    "translations": {}
  },
  {
    "id": 5655,
    "name": "Likiep",
    "country_id": 137,
    "country_code": "MH",
    "fips_code": null,
    "iso2": "LIK",
    "type": "municipality",
    "latitude": "9.88498000",
    "longitude": "169.14345000",
    "native": "Likiep",
    "timezone": "Pacific/Kwajalein",
    "translations": {}
  },
  {
    "id": 5656,
    "name": "Majuro",
    "country_id": 137,
    "country_code": "MH",
    "fips_code": null,
    "iso2": "MAJ",
    "type": "municipality",
    "latitude": "7.09180000",
    "longitude": "171.38020000",
    "native": "Majuro",
    "timezone": "Pacific/Kwajalein",
    "translations": {}
  },
  {
    "id": 5657,
    "name": "Maloelap",
    "country_id": 137,
    "country_code": "MH",
    "fips_code": null,
    "iso2": "MAL",
    "type": "municipality",
    "latitude": "8.75343611",
    "longitude": "171.04888889",
    "native": "Maloelap",
    "timezone": "Pacific/Kwajalein",
    "translations": {}
  },
  {
    "id": 5658,
    "name": "Mejit",
    "country_id": 137,
    "country_code": "MH",
    "fips_code": null,
    "iso2": "MEJ",
    "type": "municipality",
    "latitude": "10.28333333",
    "longitude": "170.88333333",
    "native": "Mejit",
    "timezone": "Pacific/Kwajalein",
    "translations": {}
  },
  {
    "id": 5659,
    "name": "Mili",
    "country_id": 137,
    "country_code": "MH",
    "fips_code": null,
    "iso2": "MIL",
    "type": "municipality",
    "latitude": "6.12621667",
    "longitude": "171.97998056",
    "native": "Mili",
    "timezone": "Pacific/Kwajalein",
    "translations": {}
  },
  {
    "id": 5660,
    "name": "Namdrik",
    "country_id": 137,
    "country_code": "MH",
    "fips_code": null,
    "iso2": "NMK",
    "type": "municipality",
    "latitude": "5.61666667",
    "longitude": "168.11666667",
    "native": "Namdrik",
    "timezone": "Pacific/Kwajalein",
    "translations": {}
  },
  {
    "id": 5661,
    "name": "Namu",
    "country_id": 137,
    "country_code": "MH",
    "fips_code": null,
    "iso2": "NMU",
    "type": "municipality",
    "latitude": "7.98333333",
    "longitude": "168.17361111",
    "native": "Namu",
    "timezone": "Pacific/Kwajalein",
    "translations": {}
  },
  {
    "id": 2574,
    "name": "Ralik",
    "country_id": 137,
    "country_code": "MH",
    "fips_code": null,
    "iso2": "L",
    "type": "chain",
    "latitude": "8.23081700",
    "longitude": "167.79532240",
    "native": "Titled",
    "timezone": "Pacific/Kwajalein",
    "translations": {}
  },
  {
    "id": 2573,
    "name": "Ratak",
    "country_id": 137,
    "country_code": "MH",
    "fips_code": null,
    "iso2": "T",
    "type": "chain",
    "latitude": "8.61505500",
    "longitude": "170.82055470",
    "native": "Ratak",
    "timezone": "Pacific/Kwajalein",
    "translations": {}
  },
  {
    "id": 5662,
    "name": "Rongelap",
    "country_id": 137,
    "country_code": "MH",
    "fips_code": null,
    "iso2": "RON",
    "type": "municipality",
    "latitude": "11.31666667",
    "longitude": "166.78333333",
    "native": "Rongelap",
    "timezone": "Pacific/Kwajalein",
    "translations": {}
  },
  {
    "id": 5663,
    "name": "Ujae",
    "country_id": 137,
    "country_code": "MH",
    "fips_code": null,
    "iso2": "UJA",
    "type": "municipality",
    "latitude": "9.05000000",
    "longitude": "165.65000000",
    "native": "Ujae",
    "timezone": "Pacific/Kwajalein",
    "translations": {}
  },
  {
    "id": 5664,
    "name": "Utrik",
    "country_id": 137,
    "country_code": "MH",
    "fips_code": null,
    "iso2": "UTI",
    "type": "municipality",
    "latitude": "11.26730556",
    "longitude": "169.78426111",
    "native": "Utrik",
    "timezone": "Pacific/Kwajalein",
    "translations": {}
  },
  {
    "id": 5665,
    "name": "Wotho",
    "country_id": 137,
    "country_code": "MH",
    "fips_code": null,
    "iso2": "WTH",
    "type": "municipality",
    "latitude": "10.10000000",
    "longitude": "165.96666667",
    "native": "Wotho",
    "timezone": "Pacific/Kwajalein",
    "translations": {}
  },
  {
    "id": 5666,
    "name": "Wotje",
    "country_id": 137,
    "country_code": "MH",
    "fips_code": null,
    "iso2": "WTJ",
    "type": "municipality",
    "latitude": "9.43333333",
    "longitude": "170.01666667",
    "native": "Wotje",
    "timezone": "Pacific/Kwajalein",
    "translations": {}
  }
]