[
  {
    "id": 3058,
    "name": "Ad Dakhiliyah",
    "country_id": 166,
    "country_code": "OM",
    "fips_code": null,
    "iso2": "DA",
    "type": "governorate",
    "latitude": "22.22597520",
    "longitude": "57.36927220",
    "native": "الداخلية",
    "timezone": "Asia/Muscat",
    "translations": {}
  },
  {
    "id": 3047,
    "name": "Ad Dhahirah",
    "country_id": 166,
    "country_code": "OM",
    "fips_code": null,
    "iso2": "ZA",
    "type": "governorate",
    "latitude": "22.65052320",
    "longitude": "56.06162950",
    "native": "الظاهرة",
    "timezone": "Asia/Muscat",
    "translations": {}
  },
  {
    "id": 3048,
    "name": "Al Batinah North",
    "country_id": 166,
    "country_code": "OM",
    "fips_code": null,
    "iso2": "BS",
    "type": "governorate",
    "latitude": "24.23718790",
    "longitude": "56.57011980",
    "native": "شمال الباطنة",
    "timezone": "Asia/Muscat",
    "translations": {}
  },
  {
    "id": 3049,
    "name": "Al Batinah South",
    "country_id": 166,
    "country_code": "OM",
    "fips_code": null,
    "iso2": "BJ",
    "type": "governorate",
    "latitude": "23.36739110",
    "longitude": "57.47378630",
    "native": "جنوب الباطنة",
    "timezone": "Asia/Muscat",
    "translations": {}
  },
  {
    "id": 3059,
    "name": "Al Buraimi",
    "country_id": 166,
    "country_code": "OM",
    "fips_code": null,
    "iso2": "BU",
    "type": "governorate",
    "latitude": "24.16149480",
    "longitude": "56.14641020",
    "native": "البريمي",
    "timezone": "Asia/Muscat",
    "translations": {}
  },
  {
    "id": 3056,
    "name": "Al Wusta",
    "country_id": 166,
    "country_code": "OM",
    "fips_code": null,
    "iso2": "WU",
    "type": "governorate",
    "latitude": "19.72503470",
    "longitude": "56.43136710",
    "native": "الوسطى",
    "timezone": "Asia/Muscat",
    "translations": {}
  },
  {
    "id": 3053,
    "name": "Ash Sharqiyah North",
    "country_id": 166,
    "country_code": "OM",
    "fips_code": null,
    "iso2": "SS",
    "type": "governorate",
    "latitude": "22.20247380",
    "longitude": "58.51590720",
    "native": "شمال الشرقية",
    "timezone": "Asia/Muscat",
    "translations": {}
  },
  {
    "id": 3054,
    "name": "Ash Sharqiyah South",
    "country_id": 166,
    "country_code": "OM",
    "fips_code": null,
    "iso2": "SJ",
    "type": "governorate",
    "latitude": "21.90987800",
    "longitude": "59.30781170",
    "native": "جنوب الشرقية",
    "timezone": "Asia/Muscat",
    "translations": {}
  },
  {
    "id": 3057,
    "name": "Dhofar",
    "country_id": 166,
    "country_code": "OM",
    "fips_code": null,
    "iso2": "ZU",
    "type": "governorate",
    "latitude": "18.33688290",
    "longitude": "54.20929940",
    "native": "ظفار",
    "timezone": "Asia/Muscat",
    "translations": {}
  },
  {
    "id": 3052,
    "name": "Musandam",
    "country_id": 166,
    "country_code": "OM",
    "fips_code": null,
    "iso2": "MU",
    "type": "governorate",
    "latitude": "26.15232150",
    "longitude": "56.32948950",
    "native": "مسندم",
    "timezone": "Asia/Muscat",
    "translations": {}
  },
  {
    "id": 3055,
    "name": "Muscat",
    "country_id": 166,
    "country_code": "OM",
    "fips_code": null,
    "iso2": "MA",
    "type": "governorate",
    "latitude": "23.61236280",
    "longitude": "58.59381340",
    "native": "المسكات عنب طيب الشذا",
    "timezone": "Asia/Muscat",
    "translations": {}
  }
]