[
  {
    "id": 5728,
    "name": "Água Grande",
    "country_id": 193,
    "country_code": "ST",
    "fips_code": null,
    "iso2": "01",
    "type": "district",
    "latitude": "0.33019240",
    "longitude": "6.73334300",
    "native": "Água Grande",
    "timezone": "Africa/Sao_Tome",
    "translations": {}
  },
  {
    "id": 5729,
    "name": "Cantagalo",
    "country_id": 193,
    "country_code": "ST",
    "fips_code": null,
    "iso2": "02",
    "type": "district",
    "latitude": "0.21667000",
    "longitude": "6.70000000",
    "native": "Cantagalo",
    "timezone": "Africa/Sao_Tome",
    "translations": {}
  },
  {
    "id": 5730,
    "name": "Caué",
    "country_id": 193,
    "country_code": "ST",
    "fips_code": null,
    "iso2": "03",
    "type": "district",
    "latitude": "0.13415000",
    "longitude": "6.63825000",
    "native": "Caué",
    "timezone": "Africa/Sao_Tome",
    "translations": {}
  },
  {
    "id": 5731,
    "name": "Lemba",
    "country_id": 193,
    "country_code": "ST",
    "fips_code": null,
    "iso2": "04",
    "type": "district",
    "latitude": "0.22000000",
    "longitude": "6.58000000",
    "native": "Lemba",
    "timezone": "Africa/Sao_Tome",
    "translations": {}
  },
  {
    "id": 5732,
    "name": "Lobata",
    "country_id": 193,
    "country_code": "ST",
    "fips_code": null,
    "iso2": "05",
    "type": "district",
    "latitude": "0.41000000",
    "longitude": "6.61000000",
    "native": "Lobata",
    "timezone": "Africa/Sao_Tome",
    "translations": {}
  },
  {
    "id": 5733,
    "name": "Mé-Zóchi",
    "country_id": 193,
    "country_code": "ST",
    "fips_code": null,
    "iso2": "06",
    "type": "district",
    "latitude": "0.30000000",
    "longitude": "6.60000000",
    "native": "Mé-Zóchi",
    "timezone": "Africa/Sao_Tome",
    "translations": {}
  },
  {
    "id": 5734,
    "name": "Príncipe",
    "country_id": 193,
    "country_code": "ST",
    "fips_code": null,
    "iso2": "P",
    "type": "autonomous region",
    "latitude": "1.61393810",
    "longitude": "7.40569280",
    "native": "Príncipe",
    "timezone": "Africa/Sao_Tome",
    "translations": {}
  }
]